~Version ---------------------------------------------------
VERS. 2.0 : CWLS log ASCII Standard -VERSION 2.0
WRAP.  NO : 
~Well ------------------------------------------------------
STRT.m                                                1290.3698 : 
STOP.m                                                1526.7422 : 
STEP.m                                                   0.1524 : 
NULL.                                                   -999.25 : 
COMP.                                                           : COMPANY
WELL.                                                   Well-18 : WELL
FLD .                                                           : FIELD
LOC .                                                           : LOCATION
SRVC.                                                           : SERVICE COMPANY
DATE. 2021-01-20 14:34:10   : Log Export Date {yyyy-MM-dd HH:mm : ss}
PROV.                                                           : PROVINCE
UWI .                                                   Well-18 : UNIQUE WELL ID
API .                                                           : API NUMBER
~Curve Information -----------------------------------------
DEPTH             .m        : DEPTH
ACOUSTICIMPEDANCE1.kPa.s/m  : ACOUSTICIMPEDANCE1
AI                .kPa.s/m  : AI
AVG_PIGN          .m3/m3    : AVG_PIGN
BS                .in       : BS
CALI              .in       : CALI
CALI[DERIVED]1    .in       : CALI[DERIVED]1
DT                .us/ft    : DT
FACIES            ._        : FACIES
FLD1              ._        : FLD1
GR                .gAPI     : GR
DEPTH_1           .m        : DEPTH_1
NPHI              .m3/m3    : NPHI
PEF               .b/e      : PEF
PERF_INT          ._        : PERF_INT
PHIT              .m3/m3    : PHIT
PIGN              .m3/m3    : PIGN
PIGN_MODELLING    .m3/m3    : PIGN_MODELLING
PIMP              .kPa.s/m  : PIMP
RHOB              .g/cm3    : RHOB
LLD               .ohm.m    : LLD
RT_MODELLING      .ohm.m    : RT_MODELLING
RT_POWER          .ohm.m    : RT_POWER
RXO               .ohm.m    : RXO
SP                .mV       : SP
SUWI              ._        : SUWI
SUWI_MODELLING    ._        : SUWI_MODELLING
SXWI              ._        : SXWI
TDVSS             .m        : TDVSS
TEMP              .K        : TEMP
VCL               .%        : VCL
WATER_VOL         ._        : WATER_VOL
ZLT               ._        : ZLT
~Params ----------------------------------------------------
~Other -----------------------------------------------------
~ASCII -----------------------------------------------------
# ...
  1401.0122  2349.5203 2349520.2500    -999.25     8.5000     8.4307     8.4307   149.3994     3.0000    -999.25    21.8630  1401.0122     0.5652     0.9612    -999.25     0.0001     0.0001     0.0100  7708.3999     1.1516    30.2030    30.2030   912.2236    36.8792   -46.3750     1.0000     1.0000     1.0000 -1308.1852   159.6763     0.0000     0.0001     3.0000
  1401.1646  2349.7505 2349750.5000    -999.25     8.5000     8.4286     8.4286   150.1215     3.0000    -999.25    23.1759  1401.1647     0.5419     1.0547    -999.25     0.0001     0.0001     0.0100  7709.1553     1.1573    27.7142    27.7142   768.0747    41.8947   -46.5000     1.0000     1.0000     1.0000 -1308.3354   159.6850     0.0000     0.0001     3.0000
  1401.3170  2427.6504 2427650.5000    -999.25     8.5000     8.4123     8.4123   149.2178     3.0000    -999.25    33.1998  1401.3170     0.5063     1.1636    -999.25     0.0090     0.0001     0.0100  7964.7324     1.1885    23.8347    23.8347   568.0905    26.2382   -46.3125     1.0000     1.0000     1.0000 -1308.4858   159.6937     4.4820     0.0001     3.0000
  1401.4694  2625.5452 2625545.0000    -999.25     8.5000     8.4009     8.4009   148.9832     0.0000    -999.25    51.0273  1401.4695     0.4962     1.3314    -999.25     0.0338     0.0001     0.0100  8613.9932     1.2833    18.6466    18.6466   347.6964    23.2765   -45.8750     1.0000     1.0000     1.0000 -1308.6361   159.7023    16.9100     0.0001     3.0000
  1401.6218  3062.5435 3062543.5000    -999.25     8.5000     8.4009     8.4009   146.2054     0.0000    -999.25    70.3120  1401.6218     0.4888     1.5546    -999.25     0.0601     0.0001     0.0100 10047.7148     1.4690    14.3506    14.3506   205.9406    19.2127   -46.4375     1.0000     1.0000     1.0000 -1308.7864   159.7110    30.0660     0.0001     3.0000
  1401.7742  3721.3530 3721353.0000    -999.25     8.5000     8.4073     8.4073   141.4290     0.0000    -999.25    87.2956  1401.7742     0.4665     2.0283    -999.25     0.0749     0.0001     0.0100 12209.1631     1.7267    11.2178    11.2178   125.8401    11.4454   -46.7500     1.0000     1.0000     1.0000 -1308.9368   159.7197    37.4350     0.0001     4.0000
  1401.9266  4348.7471 4348747.5000    -999.25     8.5000     8.4307     8.4307   137.5373     0.0000    -999.25   100.0590  1401.9266     0.4342     2.5687    -999.25     0.0823     0.0001     0.0100 14267.5439     1.9623     8.5695     8.5695    73.4356     7.9902   -46.3750     1.0000     1.0000     1.0000 -1309.0870   159.7284    41.1660     0.0001     4.0000
  1402.0790  4819.5903 4819590.5000    -999.25     8.5000     8.4307     8.4307   131.8511     0.0000    -999.25   110.8349  1402.0790     0.4050     2.7879    -999.25     0.0881     0.0001     0.0100 15812.3047     2.0849     7.0613     7.0613    49.8627     6.2195   -46.2500     1.0000     1.0000     1.0000 -1309.2373   159.7370    44.0330     0.0001     4.0000
  1402.2314  5146.6758 5146676.0000    -999.25     8.5000     8.4201     8.4201   126.0626     0.0000    -999.25   117.6232  1402.2314     0.3892     2.7898    -999.25     0.0838     0.0001     0.0100 16885.4199     2.1286     6.5061     6.5061    42.3291     5.1325   -45.9375     1.0000     1.0000     1.0000 -1309.3877   159.7457    41.9260     0.0001     4.0000
  1402.3838  5402.3687 5402368.5000    -999.25     8.5000     8.4009     8.4009   122.1498     0.0000    -999.25   116.7669  1402.3838     0.3623     2.6956    -999.25     0.0654     0.0001     0.0100 17724.3066     2.1650     6.3710     6.3710    40.5895     5.8684   -45.0625     1.0000     1.0000     1.0000 -1309.5380   159.7544    32.7040     0.0001     4.0000
  1402.5362  5630.9727 5630972.5000    -999.25     8.5000     8.4032     8.4032   119.1216     0.0000    -999.25   110.8951  1402.5363     0.3347     2.7364    -999.25     0.0413     0.0001     0.0100 18474.3203     2.2007     6.4533     6.4533    41.6450     5.8835   -43.9375     1.0000     1.0000     1.0000 -1309.6884   159.7630    20.6350     0.0001     4.0000
  1402.6886  5795.1489 5795149.0000    -999.25     8.5000     8.3894     8.3894   116.7783     0.0000    -999.25   101.1075  1402.6886     0.3186     3.0589    -999.25     0.0192     0.0001     0.0100 19012.9551     2.2203     6.2834     6.2834    39.4809     6.4157   -43.1250     1.0000     1.0000     1.0000 -1309.8386   159.7717     9.6230     0.0001     4.0000
  1402.8410  5880.2939 5880294.0000    -999.25     8.5000     8.3711     8.3711   114.7665     0.0000    -999.25    90.4946  1402.8411     0.3195     3.4167    -999.25     0.0050     0.0001     0.0100 19292.3027     2.2141     5.3354     5.3354    28.4662     4.1760   -41.9375     1.0000     1.0000     1.0000 -1309.9889   159.7804     2.4530     0.0001     4.0000
  1402.9934  5989.4858 5989486.0000    -999.25     8.5000     8.2866     8.2866   112.3022     4.0000    -999.25    82.1136  1402.9934     0.3272     3.6149    -999.25     0.1188     0.0750     0.0750 19650.5449     2.2068     4.1815     4.1815    17.4846     3.0309   -39.3750     0.9081     0.9081     0.9057 -1310.1393   159.7890    21.9090     0.0681     4.0000
  1403.1458  6039.6455 6039645.5000    -999.25     8.5000     8.2390     8.2390   111.4589     4.0000    -999.25    78.5216  1403.1459     0.3297     3.6005    -999.25     0.2404     0.1520     0.1520 19815.1094     2.2086     3.8225     3.8225    14.6116     1.6338   -36.6875     0.8398     0.8398     0.8771 -1310.2896   159.7977    44.1740     0.1277     4.0000
  1403.2982  6064.3730 6064373.0000    -999.25     8.5000     8.2219     8.2219   111.4784     4.0000    -999.25    80.5212  1403.2982     0.3216     3.4850    -999.25     0.2312     0.1401     0.1401 19896.2363     2.2180     3.6062     3.6062    13.0045     0.8734   -35.5625     0.8662     0.8662     0.8841 -1310.4398   159.8064    45.5660     0.1214     4.0000
  1403.4506  6129.5923 6129592.5000    -999.25     8.5000     8.2795     8.2795   110.9466     4.0000    -999.25    84.5893  1403.4507     0.3145     3.4055    -999.25     0.2209     0.1256     0.1256 20110.2109     2.2312     3.7608     3.7608    14.1438     1.8118   -35.1875     0.8484     0.8484     0.8294 -1310.5902   159.8150    47.6580     0.1065     4.0000
  1403.6030  6115.4639 6115463.5000    -999.25     8.5000     8.3114     8.3114   111.5738     4.0000    -999.25    87.0915  1403.6030     0.3107     3.3874    -999.25     0.2171     0.1195     0.1195 20063.8574     2.2386     4.1684     4.1684    17.3751     1.6043   -35.3750     0.8314     0.8314     0.8117 -1310.7405   159.8237    48.7690     0.0994     4.0000
  1403.7554  6124.9702 6124970.0000    -999.25     8.5000     8.2954     8.2954   111.7036     4.0000    -999.25    86.6336  1403.7554     0.3121     3.5158    -999.25     0.2185     0.1221     0.1221 20095.0469     2.2447     4.1791     4.1791    17.4647     2.2002   -34.8750     0.8235     0.8235     0.7901 -1310.8907   159.8324    48.1960     0.1006     4.0000
  1403.9078  6137.2666 6137267.0000    -999.25     8.5000     8.2219     8.2219   111.2007     4.0000    -999.25    82.4690  1403.9078     0.3137     3.6889    -999.25     0.2305     0.1412     0.1412 20135.3906     2.2391     4.2193     4.2193    17.8027     1.9188   -34.1875     0.8248     0.8248     0.8251 -1311.0411   159.8410    44.6330     0.1165     4.0000
  1404.0602  6071.0371 6071037.0000    -999.25     8.5000     8.2305     8.2305   111.7094     4.0000    -999.25    77.3383  1404.0602     0.3136     3.9131    -999.25     0.2418     0.1591     0.1591 19918.1016     2.2250     3.8129     3.8129    14.5380     1.3183   -33.3125     0.8418     0.8418     0.8309 -1311.1914   159.8497    41.3770     0.1339     4.0000
  1404.2126  6083.6045 6083604.5000    -999.25     8.5000     8.2586     8.2586   110.5443     4.0000    -999.25    73.3092  1404.2126     0.3187     3.8949    -999.25     0.2493     0.1694     0.1694 19959.3320     2.2064     3.5141     3.5141    12.3489     1.6899   -32.8750     0.8489     0.8489     0.8470 -1311.3417   159.8584    39.9490     0.1438     4.0000
