~Version ---------------------------------------------------
VERS. 2.0 : CWLS log ASCII Standard -VERSION 2.0
WRAP.  NO : 
~Well ------------------------------------------------------
STRT.m                                                1290.3698 : 
STOP.m                                                1526.7422 : 
STEP.m                                                   0.1524 : 
NULL.                                                   -999.25 : 
COMP.                                                           : COMPANY
WELL.                                                   Well-18 : WELL
FLD .                                                           : FIELD
LOC .                                                           : LOCATION
SRVC.                                                           : SERVICE COMPANY
DATE. 2021-01-20 14:34:10   : Log Export Date {yyyy-MM-dd HH:mm : ss}
PROV.                                                           : PROVINCE
UWI .                                                   Well-18 : UNIQUE WELL ID
API .                                                           : API NUMBER
~Curve Information -----------------------------------------
DEPTH             .m        : DEPTH
ACOUSTICIMPEDANCE1.kPa.s/m  : ACOUSTICIMPEDANCE1
AI                .kPa.s/m  : AI
AVG_PIGN          .m3/m3    : AVG_PIGN
BS                .in       : BS
CALI              .in       : CALI
CALI[DERIVED]1    .in       : CALI[DERIVED]1
DT                .us/ft    : DT
FACIES            ._        : FACIES
FLD1              ._        : FLD1
GR                .gAPI     : GR
DEPTH_1           .m        : DEPTH_1
NPHI              .m3/m3    : NPHI
PEF               .b/e      : PEF
PERF_INT          ._        : PERF_INT
PHIT              .m3/m3    : PHIT
PIGN              .m3/m3    : PIGN
PIGN_MODELLING    .m3/m3    : PIGN_MODELLING
PIMP              .kPa.s/m  : PIMP
RHOB              .g/cm3    : RHOB
LLD               .ohm.m    : LLD
RT_MODELLING      .ohm.m    : RT_MODELLING
RT_POWER          .ohm.m    : RT_POWER
RXO               .ohm.m    : RXO
SP                .mV       : SP
SUWI              ._        : SUWI
SUWI_MODELLING    ._        : SUWI_MODELLING
SXWI              ._        : SXWI
TDVSS             .m        : TDVSS
TEMP              .K        : TEMP
VCL               .%        : VCL
WATER_VOL         ._        : WATER_VOL
ZLT               ._        : ZLT
~Params ----------------------------------------------------
~Other -----------------------------------------------------
~ASCII -----------------------------------------------------
# ...
  1414.4234  7115.8789 7115879.0000    -999.25     8.5000     8.1943     8.1943    93.7002     1.0000    -999.25    29.1798  1414.4235     0.2066     3.5767    -999.25     0.2651     0.2609     0.2609 23346.0605     2.1875     2.8626     2.8626     8.1946     0.9902   -18.0625     1.0000     1.0000     0.9344 -1321.4126   160.4391     2.0760     0.2609     4.0000
  1414.5758  7109.7207 7109720.5000    -999.25     8.5000     8.1898     8.1898    94.0827     1.0000    -999.25    29.0223  1414.5758     0.2061     3.8182    -999.25     0.2690     0.2638     0.2638 23325.8555     2.1946     2.6927     2.6927     7.2507     0.9556   -18.2500     1.0000     1.0000     0.9377 -1321.5630   160.4477     2.6050     0.2638     4.0000
  1414.7282  7071.3608 7071361.0000    -999.25     8.5000     8.1921     8.1921    94.8086     1.0000    -999.25    31.2995  1414.7283     0.2157     4.1116    -999.25     0.2763     0.2697     0.2697 23200.0020     2.1996     2.5019     2.5019     6.2596     0.8837   -18.1250     1.0000     1.0000     0.9566 -1321.7133   160.4564     3.3070     0.2697     4.0000
  1414.8806  7027.0498 7027050.0000    -999.25     8.5000     8.1646     8.1646    95.7469     1.0000    -999.25    32.5595  1414.8806     0.2246     4.3539    -999.25     0.2816     0.2751     0.2751 23054.6250     2.2074     2.3717     2.3717     5.6252     0.6453   -18.3125     1.0000     1.0000     0.9787 -1321.8635   160.4651     3.2360     0.2751     4.0000
  1415.0330  7077.2324 7077232.5000    -999.25     8.5000     8.1325     8.1325    95.3807     1.0000    -999.25    33.4118  1415.0331     0.2250     4.4686    -999.25     0.2814     0.2758     0.2758 23219.2676     2.2147     2.3314     2.3314     5.4353     0.5945   -18.6250     1.0000     1.0000     0.9863 -1322.0139   160.4737     2.8000     0.2758     4.0000
  1415.1854  7077.4111 7077411.5000    -999.25     8.5000     8.1485     8.1485    95.4761     1.0000    -999.25    32.5549  1415.1854     0.2189     4.4511    -999.25     0.2777     0.2717     0.2717 23219.8535     2.2169     2.4091     2.4091     5.8036     0.5817   -18.7500     1.0000     1.0000     0.9936 -1322.1642   160.4824     2.9580     0.2717     4.0000
  1415.3378  7015.0532 7015053.0000    -999.25     8.5000     8.1600     8.1600    96.4786     1.0000    -999.25    34.0244  1415.3378     0.2144     4.2490    -999.25     0.2715     0.2629     0.2629 23015.2656     2.2205     2.6395     2.6395     6.9672     0.5646   -18.8750     1.0000     1.0000     0.9994 -1322.3146   160.4911     4.2960     0.2629     4.0000
  1415.4902  6965.0293 6965029.5000    -999.25     8.5000     8.1346     8.1346    97.6752     1.0000    -999.25    35.5322  1415.4902     0.2120     4.1776    -999.25     0.2681     0.2563     0.2563 22851.1465     2.2320     2.8242     2.8242     7.9760     0.5657   -19.0000     1.0000     1.0000     1.0000 -1322.4648   160.4997     5.9040     0.2563     4.0000
  1415.6426  6902.1997 6902199.5000    -999.25     8.5000     8.1573     8.1573    98.7701     1.0000    -999.25    37.2713  1415.6426     0.2155     4.2367    -999.25     0.2717     0.2543     0.2543 22645.0117     2.2366     2.6710     2.6710     7.1343     0.5903   -19.1875     1.0000     1.0000     1.0000 -1322.6151   160.5084     8.6800     0.2543     4.0000
  1415.7950  6753.6313 6753631.0000    -999.25     8.5000     8.0877     8.0877   100.1738     1.0000    -999.25    42.2264  1415.7950     0.2340     4.3219    -999.25     0.2778     0.2477     0.2477 22157.5820     2.2196     2.3074     2.3074     5.3241     0.5595   -19.7500     1.0000     1.0000     1.0000 -1322.7655   160.5171    15.0260     0.2477     4.0000
  1415.9474  6548.9595 6548959.5000    -999.25     8.5000     8.0201     8.0201   102.0688     1.0000    -999.25    55.1688  1415.9474     0.2691     4.2303    -999.25     0.2759     0.2239     0.2239 21486.0879     2.1931     2.1693     2.1693     4.7060     0.4725   -20.5000     1.0000     1.0000     1.0000 -1322.9158   160.5257    25.9830     0.2239     4.0000
  1416.0998  6346.8833 6346883.0000    -999.25     8.5000     8.0430     8.0430   104.1233     1.0000    -999.25    72.8414  1416.0999     0.3050     4.1172    -999.25     0.2630     0.1860     0.1860 20823.1074     2.1682     2.1069     2.1069     4.4389     0.4862   -20.5625     1.0000     1.0000     1.0000 -1323.0660   160.5344    38.4690     0.1860     4.0000
  1416.2522  6158.5630 6158563.0000    -999.25     8.5000     8.0728     8.0728   106.9721     1.0000    -999.25    87.2519  1416.2522     0.3254     4.1462    -999.25     0.2509     0.1583     0.1583 20205.2578     2.1614     2.1790     2.1790     4.7481     0.6481   -21.0000     1.0000     1.0000     1.0000 -1323.2164   160.5431    46.2670     0.1583     4.0000
  1416.4046  5867.3691 5867369.0000    -999.25     8.5000     8.1004     8.1004   112.1892     1.0000    -999.25    91.6246  1416.4047     0.3183     4.0752    -999.25     0.2497     0.1534     0.1534 19249.8984     2.1596     2.3715     2.3715     5.6242     0.6498   -21.6250     1.0000     1.0000     1.0000 -1323.3667   160.5517    48.1080     0.1534     4.0000
  1416.5570  5546.0234 5546023.5000    -999.25     8.5000     8.1049     8.1049   118.5665     1.0000    -999.25    91.8776  1416.5570     0.3069     3.8858    -999.25     0.1353     0.0787     0.0787 18195.6152     2.1574     2.4048     2.4048     5.7831     0.5757   -22.2500     1.0000     1.0000     1.0000 -1323.5170   160.5604    28.3320     0.0787     4.0000
  1416.7094  5336.1758 5336175.5000    -999.25     8.5000     8.1026     8.1026   123.0784     1.0000    -999.25    91.8325  1416.7095     0.3278     3.7148    -999.25     0.0323     0.0001     0.0100 17507.1387     2.1548     2.3986     2.3986     5.7534     0.5080   -22.9375     1.0000     1.0000     1.0000 -1323.6674   160.5691    16.1320     0.0001     4.0000
  1416.8618  4969.2368 4969236.5000    -999.25     8.5000     8.1348     8.1348   131.0418     1.0000    -999.25    91.7752  1416.8618     0.4010     3.6732    -999.25     0.0655     0.0001     0.0100 16303.2705     2.1364     2.3142     2.3142     5.3553     0.5673   -24.3125     1.0000     1.0000     1.0000 -1323.8176   160.5777    32.7310     0.0001     5.0000
  1417.0142  4332.6855 4332685.5000    -999.25     8.5000     8.1439     8.1439   140.5495     3.0000    -999.25    82.1928  1417.0143     0.5121     3.3556    -999.25     0.0793     0.0001     0.0100 14214.8477     1.9979     2.8442     2.8442     8.0894     0.8900   -26.0625     1.0000     1.0000     1.0000 -1323.9679   160.5864    39.6480     0.0001     5.0000
  1417.1666  3483.5432 3483543.0000    -999.25     8.5000     8.0792     8.0792   146.8097     3.0000    -999.25    65.3403  1417.1666     0.5663     2.7111    -999.25     0.0634     0.0001     0.0100 11428.9473     1.6779     4.4954     4.4954    20.2084     1.0298   -27.8125     1.0000     1.0000     1.0000 -1324.1183   160.5951    31.6860     0.0001     5.0000
  1417.3190  2972.0518 2972051.7500    -999.25     8.5000     8.3802     8.3802   150.1975     3.0000    -999.25    53.3216  1417.3190     0.5795     2.2720    -999.25     0.0471     0.0001     0.0100  9750.8252     1.4646     6.1843     6.1843    38.2452    36.6168   -30.1250     1.0000     1.0000     1.0000 -1324.2686   160.6037    23.5480     0.0001     5.0000
  1417.4714  2835.7263 2835726.2500    -999.25     8.5000     8.5592     8.5592   151.5269     3.0000    -999.25    54.9050  1417.4714     0.5675     2.0295    -999.25     0.0509     0.0001     0.0100  9303.5645     1.4097    11.7218    11.7218   137.4006    22.8329   -32.1250     1.0000     1.0000     1.0000 -1324.4189   160.6124    25.4700     0.0001     5.0000
  1417.6238  3014.8740 3014874.0000    -999.25     8.5000     8.5707     8.5707   150.5906     3.0000    -999.25    65.5734  1417.6238     0.5777     2.0178    -999.25     0.0652     0.0001     0.0100  9891.3184     1.4895    14.4792    14.4792   209.6478    11.8259   -34.0000     1.0000     1.0000     1.0000 -1324.5692   160.6211    32.6110     0.0001     5.0000
