~Version ---------------------------------------------------
VERS. 2.0 : CWLS log ASCII Standard -VERSION 2.0
WRAP.  NO : 
~Well ------------------------------------------------------
STRT.m                                                   1260.0 : 
STOP.m                                                1659.7452 : 
STEP.m                                                   0.1524 : 
NULL.                                                   -999.25 : 
COMP.                                                           : COMPANY
WELL.                                                    Well-6 : WELL
FLD .                                                           : FIELD
LOC .                                                           : LOCATION
SRVC.                                                           : SERVICE COMPANY
DATE. 2021-01-20 14:34:00   : Log Export Date {yyyy-MM-dd HH:mm : ss}
PROV.                                                           : PROVINCE
UWI .                                                    Well-6 : UNIQUE WELL ID
API .                                                           : API NUMBER
~Curve Information -----------------------------------------
DEPTH             .m        : DEPTH
ACOUSTICIMPEDANCE1.kPa.s/m  : ACOUSTICIMPEDANCE1
AI                .kPa.s/m  : AI
AVG_PIGN          .m3/m3    : AVG_PIGN
CALI              .in       : CALI
CALI[DERIVED]1    .in       : CALI[DERIVED]1
DT                .us/ft    : DT
FACIES            ._        : FACIES
FLD1              ._        : FLD1
GR                .gAPI     : GR
LLD               .ohm.m    : LLD
LLS               .ohm.m    : LLS
LL3               .ohm.m    : LL3
DEPTH_1           .m        : DEPTH_1
NPHI              .m3/m3    : NPHI
ONE-WAYTIME1      .ms       : ONE-WAYTIME1
PERF_INT          ._        : PERF_INT
PERMEABILITY      .mD       : PERMEABILITY
PHIT              .m3/m3    : PHIT
PIGE              .m3/m3    : PIGE
PIGN              .m3/m3    : PIGN
PIGN_MODELLING    .m3/m3    : PIGN_MODELLING
PIMP              .kPa.s/m  : PIMP
RHOB              .g/cm3    : RHOB
LLD_1             .ohm.m    : LLD_1
RT_MODELLING      .ohm.m    : RT_MODELLING
RT_POWER          .ohm.m    : RT_POWER
SP                .mV       : SP
SUWI              ._        : SUWI
SUWI_MODELLING    ._        : SUWI_MODELLING
SXWI              ._        : SXWI
TDVSS             .m        : TDVSS
VCL               .%        : VCL
WATER_VOL         ._        : WATER_VOL
ZLT               ._        : ZLT
~Params ----------------------------------------------------
~Other -----------------------------------------------------
~ASCII -----------------------------------------------------
# ...
  1472.7940  6290.1660 6290166.0000    -999.25     8.5700     8.5700   106.3700     1.0000    -999.25    29.0288     5.0119     5.0542     5.5510  1472.7939     0.3312  -673.1120     1.0000     8.0925     0.2923     0.2856     0.2856     0.2856 20637.0273     2.1952     5.0115     5.0119    25.1224    23.4835     0.6195     0.6195     0.8838 -1395.0940     7.1798     0.1769    10.0000
  1472.9028  6295.9883 6290312.0000    -999.25     8.5721     8.5721   106.6027     1.0000    -999.25    28.9790     4.9151     4.9417     5.5550  1472.9028     0.3340  -673.1645     1.0000     7.5410     0.2902     0.2829     0.2829     0.2829 20637.5078     2.2020     4.9147     4.9151    24.1580    23.6122     0.6311     0.6311     0.8874 -1395.2028     7.8530     0.1786    10.0000
  1472.9464  6290.3706 6290370.5000    -999.25     8.5724     8.5724   106.6960     1.0000    -999.25    29.2461     4.8683     4.8914     5.5389  1472.9464     0.3374  -673.1855     1.0000     7.1691     0.2911     0.2836     0.2836     0.2836 20637.6992     2.2020     4.8679     4.8683    23.7061    23.6431     0.6329     0.6329     0.8879 -1395.2463     8.1872     0.1795    10.0000
  1473.0552  6260.4697 6255558.5000    -999.25     8.5730     8.5730   107.2007     1.0000    -999.25    29.9126     4.7517     4.7660     5.4986  1473.0552     0.3460  -673.2380     1.0000     6.2409     0.2935     0.2852     0.2852     0.2852 20523.4863     2.2019     4.7512     4.7517    22.5783    23.7201     0.6373     0.6373     0.8893 -1395.3552     9.0210     0.1817    10.0000
  1473.0988  6241.6079 6241608.0000    -999.25     8.5730     8.5730   107.4030     1.0000    -999.25    30.3657     4.7018     4.7165     5.4596  1473.0988     0.3492  -673.2591     1.0000     6.0470     0.2954     0.2869     0.2869     0.2869 20477.7168     2.1994     4.7013     4.7018    22.1131    23.7307     0.6372     0.6372     0.8892 -1395.3988     9.1915     0.1828    10.0000
  1473.2076  6189.5659 6187541.5000    -999.25     8.5730     8.5730   107.9998     1.0000    -999.25    31.4961     4.5774     4.5929     5.3622  1473.2076     0.3571  -673.3116     1.0000     5.5632     0.3001     0.2913     0.2913     0.2913 20300.3320     2.1931     4.5769     4.5774    20.9524    23.7571     0.6369     0.6369     0.8891 -1395.5076     9.6170     0.1855    10.0000
  1473.2512  6165.8750 6165875.0000    -999.25     8.5724     8.5724   108.2390     1.0000    -999.25    31.8137     4.5272     4.5471     5.3042  1473.2512     0.3588  -673.3326     1.0000     5.7342     0.3021     0.2933     0.2933     0.2933 20229.2480     2.1896     4.5267     4.5272    20.5021    23.7357     0.6366     0.6366     0.8889 -1395.5511     9.5698     0.1867    10.0000
  1473.3600  6104.8721 6107547.0000    -999.25     8.5709     8.5709   108.8775     1.0000    -999.25    32.6061     4.4021     4.4327     5.1594  1473.3600     0.3629  -673.3851     1.0000     6.1609     0.3069     0.2982     0.2982     0.2982 20037.8828     2.1807     4.4016     4.4021    19.3784    23.6821     0.6359     0.6359     0.8886 -1395.6600     9.4520     0.1896    10.0000
  1473.4037  6084.1191 6084119.0000    -999.25     8.5702     8.5702   109.1340     1.0000    -999.25    32.5984     4.3531     4.3879     5.1032  1473.4037     0.3628  -673.4062     1.0000     6.6902     0.3079     0.2993     0.2993     0.2993 19961.0195     2.1784     4.3527     4.3531    18.9558    23.6461     0.6375     0.6375     0.8891 -1395.7037     9.3046     0.1908    10.0000
  1473.5124  6043.7559 6049809.5000    -999.25     8.5686     8.5686   109.5751     1.0000    -999.25    32.5793     4.2314     4.2766     4.9635  1473.5123     0.3626  -673.4586     1.0000     8.0070     0.3103     0.3021     0.3021     0.3021 19848.4551     2.1727     4.2309     4.2314    17.9045    23.5565     0.6416     0.6416     0.8902 -1395.8124     8.9380     0.1938    10.0000
  1473.5560  6036.0474 6036047.5000    -999.25     8.5684     8.5684   109.7520     1.0000    -999.25    32.5820     4.1853     4.2326     4.9076  1473.5559     0.3628  -673.4797     1.0000     8.1417     0.3101     0.3018     0.3018     0.3018 19803.3047     2.1735     4.1848     4.1853    17.5218    23.5111     0.6459     0.6459     0.8916 -1395.8560     9.0072     0.1949    10.0000
  1473.6648  6023.6597 6029258.5000    -999.25     8.5680     8.5680   110.0702     1.0000    -999.25    32.5885     4.0702     4.1228     4.7680  1473.6648     0.3634  -673.5322     1.0000     8.4778     0.3095     0.3010     0.3010     0.3010 19781.0312     2.1753     4.0698     4.0702    16.5668    23.3977     0.6568     0.6568     0.8949 -1395.9648     9.1800     0.1977    10.0000
  1473.7085  6026.5317 6026531.5000    -999.25     8.5678     8.5678   110.1980     1.0000    -999.25    32.3635     4.0266     4.0801     4.7193  1473.7085     0.3654  -673.5532     1.0000     8.1208     0.3086     0.2997     0.2997     0.2997 19772.0859     2.1788     4.0261     4.0266    16.2179    23.3542     0.6633     0.6633     0.8969 -1396.0085     9.5777     0.1988    10.0000
  1473.8172  6037.4463 6040487.5000    -999.25     8.5673     8.5673   110.4464     1.0000    -999.25    31.8038     3.9179     3.9741     4.5982  1473.8171     0.3704  -673.6057     1.0000     7.2327     0.3063     0.2966     0.2966     0.2966 19817.8730     2.1877     3.9175     3.9179    15.3503    23.2462     0.6793     0.6793     0.9019 -1396.1172    10.5670     0.2015    10.0000
  1473.8608  6046.0854 6046085.5000    -999.25     8.5672     8.5672   110.5460     1.0000    -999.25    31.7481     3.8763     3.9341     4.5657  1473.8607     0.3740  -673.6267     1.0000     6.4633     0.3052     0.2948     0.2948     0.2948 19836.2383     2.1928     3.8758     3.8763    15.0297    23.2150     0.6870     0.6870     0.9043 -1396.1608    11.2170     0.2025    10.0000
  1473.9696  6060.8032 6061833.5000    -999.25     8.5670     8.5670   110.9184     1.0000    -999.25    31.6092     3.7722     3.8342     4.4845  1473.9696     0.3830  -673.6792     1.0000     4.5432     0.3023     0.2905     0.2905     0.2905 19887.9043     2.2056     3.7718     3.7722    14.2296    23.1372     0.7060     0.7060     0.9103 -1396.2695    12.8390     0.2051    10.0000
  1474.0133  6068.1587 6068158.5000    -999.25     8.5658     8.5658   111.0680     1.0000    -999.25    31.9148     3.7313     3.7966     4.4510  1474.0133     0.3858  -673.7003     1.0000     3.8918     0.3006     0.2882     0.2882     0.2882 19908.6562     2.2112     3.7309     3.7313    13.9270    23.1306     0.7153     0.7153     0.9131 -1396.3132    13.4621     0.2061    10.0000
  1474.1220  6086.0693 6087790.0000    -999.25     8.5627     8.5627   111.4456     1.0000    -999.25    32.6750     3.6297     3.7029     4.3678  1474.1219     0.3927  -673.7527     1.0000     2.2714     0.2965     0.2826     0.2826     0.2826 19973.0664     2.2253     3.6293     3.6297    13.1744    23.1143     0.7384     0.7384     0.9201 -1396.4220    15.0120     0.2087    10.0000
  1474.1656  6095.6646 6095664.5000    -999.25     8.5616     8.5616   111.5970     1.0000    -999.25    33.5398     3.5890     3.6664     4.3324  1474.1655     0.3942  -673.7738     1.0000     1.8065     0.2940     0.2796     0.2796     0.2796 19998.9004     2.2318     3.5886     3.5890    12.8852    23.1483     0.7505     0.7505     0.9237 -1396.4656    15.5925     0.2097    10.0000
  1474.2744  6118.3389 6121720.5000    -999.25     8.5589     8.5589   111.9961     1.0000    -999.25    35.6981     3.4876     3.5754     4.2442  1474.2744     0.3979  -673.8263     1.0000     0.6466     0.2877     0.2720     0.2720     0.2720 20084.3848     2.2481     3.4873     3.4876    12.1637    23.2331     0.7809     0.7809     0.9326 -1396.5743    17.0410     0.2124    10.0000
  1474.3180  6132.1621 6132162.0000    -999.25     8.5621     8.5621   112.1560     1.0000    -999.25    37.0511     3.4478     3.5360     4.2260  1474.3180     0.3992  -673.8474     1.0000     0.4619     0.2843     0.2680     0.2680     0.2680 20118.6426     2.2564     3.4474     3.4478    11.8916    23.3175     0.7971     0.7971     0.9373 -1396.6179    17.7405     0.2134    10.0000
