~Version ---------------------------------------------------
VERS. 2.0 : CWLS log ASCII Standard -VERSION 2.0
WRAP.  NO : 
~Well ------------------------------------------------------
STRT.m                                                   1260.0 : 
STOP.m                                                1659.7452 : 
STEP.m                                                   0.1524 : 
NULL.                                                   -999.25 : 
COMP.                                                           : COMPANY
WELL.                                                    Well-6 : WELL
FLD .                                                           : FIELD
LOC .                                                           : LOCATION
SRVC.                                                           : SERVICE COMPANY
DATE. 2021-01-20 14:34:00   : Log Export Date {yyyy-MM-dd HH:mm : ss}
PROV.                                                           : PROVINCE
UWI .                                                    Well-6 : UNIQUE WELL ID
API .                                                           : API NUMBER
~Curve Information -----------------------------------------
DEPTH             .m        : DEPTH
ACOUSTICIMPEDANCE1.kPa.s/m  : ACOUSTICIMPEDANCE1
AI                .kPa.s/m  : AI
AVG_PIGN          .m3/m3    : AVG_PIGN
CALI              .in       : CALI
CALI[DERIVED]1    .in       : CALI[DERIVED]1
DT                .us/ft    : DT
FACIES            ._        : FACIES
FLD1              ._        : FLD1
GR                .gAPI     : GR
LLD               .ohm.m    : LLD
LLS               .ohm.m    : LLS
LL3               .ohm.m    : LL3
DEPTH_1           .m        : DEPTH_1
NPHI              .m3/m3    : NPHI
ONE-WAYTIME1      .ms       : ONE-WAYTIME1
PERF_INT          ._        : PERF_INT
PERMEABILITY      .mD       : PERMEABILITY
PHIT              .m3/m3    : PHIT
PIGE              .m3/m3    : PIGE
PIGN              .m3/m3    : PIGN
PIGN_MODELLING    .m3/m3    : PIGN_MODELLING
PIMP              .kPa.s/m  : PIMP
RHOB              .g/cm3    : RHOB
LLD_1             .ohm.m    : LLD_1
RT_MODELLING      .ohm.m    : RT_MODELLING
RT_POWER          .ohm.m    : RT_POWER
SP                .mV       : SP
SUWI              ._        : SUWI
SUWI_MODELLING    ._        : SUWI_MODELLING
SXWI              ._        : SXWI
TDVSS             .m        : TDVSS
VCL               .%        : VCL
WATER_VOL         ._        : WATER_VOL
ZLT               ._        : ZLT
~Params ----------------------------------------------------
~Other -----------------------------------------------------
~ASCII -----------------------------------------------------
# ...
  1525.6332  6230.7188 6244609.0000    -999.25     9.3802     9.3802   124.9599     0.0000    -999.25    64.1370     2.0324     2.1037     2.5579  1525.6332     0.5057  -698.6061    -999.25     0.3114     0.2783     0.0494     0.0494     0.0494 20487.5645     2.5544     2.0325     2.0324     4.1307    42.8343     1.0000     1.0000     1.0000 -1447.9332    72.4290     0.0494    16.0000
  1525.6768  6122.7119 6122712.0000    -999.25     9.3564     9.3564   127.3960     0.0000    -999.25    64.1530     2.0378     2.0966     2.5659  1525.6768     0.5065  -698.6272    -999.25     0.2986     0.2776     0.0484     0.0484     0.0484 20087.6387     2.5591     2.0379     2.0378     4.1528    42.8445     1.0000     1.0000     1.0000 -1447.9768    72.5489     0.0484    16.0000
  1525.7856  5942.4399 5953174.5000    -999.25     9.2970     9.2970   131.8565     0.0000    -999.25    64.1930     2.0513     2.0787     2.5860  1525.7856     0.5084  -698.6797    -999.25     0.2666     0.2758     0.0459     0.0459     0.0459 19531.4121     2.5707     2.0513     2.0513     4.2077    42.8700     1.0000     1.0000     1.0000 -1448.0856    72.8480     0.0459    16.0000
  1525.8292  5885.2349 5885235.0000    -999.25     9.2635     9.2635   133.6440     0.0000    -999.25    64.2843     2.0566     2.0735     2.6449  1525.8292     0.5153  -698.7007    -999.25     0.2241     0.2749     0.0419     0.0419     0.0419 19308.5137     2.5805     2.0566     2.0566     4.2296    42.8582     1.0000     1.0000     1.0000 -1448.1291    73.9500     0.0419    16.0000
  1525.9380  5861.5610 5863258.0000    -999.25     9.1798     9.1798   135.4512     0.0000    -999.25    64.5121     2.0698     2.0603     2.7920  1525.9380     0.5324  -698.7532    -999.25     0.1181     0.2726     0.0320     0.0320     0.0320 19236.4121     2.6048     2.0699     2.0698     4.2843    42.8288     1.0000     1.0000     1.0000 -1448.2380    76.7000     0.0320    16.0000
  1525.9817  5854.4307 5854431.0000    -999.25     9.1466     9.1466   136.1770     0.0000    -999.25    64.9473     2.0724     2.0607     2.8317  1525.9817     0.5426  -698.7743    -999.25     0.1128     0.2706     0.0306     0.0306     0.0306 19207.4512     2.6156     2.0724     2.0724     4.2947    42.8112     1.0000     1.0000     1.0000 -1448.2817    76.8723     0.0306    16.0000
  1526.0904  5916.7964 5910016.5000    -999.25     9.0641     9.0641   136.1221     0.0000    -999.25    66.0298     2.0786     2.0617     2.9304  1526.0903     0.5681  -698.8267    -999.25     0.0996     0.2655     0.0271     0.0271     0.0271 19389.8184     2.6424     2.0786     2.0786     4.3205    42.7676     1.0000     1.0000     1.0000 -1448.3904    77.3010     0.0271    16.0000
  1526.1340  5932.3120 5932312.0000    -999.25     9.0449     9.0449   136.1000     0.0000    -999.25    66.6406     2.0771     2.0654     2.9558  1526.1339     0.5767  -698.8478    -999.25     0.1079     0.2639     0.0271     0.0271     0.0271 19462.9668     2.6489     2.0771     2.0771     4.3145    42.7551     1.0000     1.0000     1.0000 -1448.4340    77.4060     0.0271    16.0000
  1526.2428  6015.8145 6003183.5000    -999.25     8.9970     8.9970   135.0327     0.0000    -999.25    68.1648     2.0736     2.0747     3.0192  1526.2428     0.5983  -698.9003    -999.25     0.1286     0.2598     0.0272     0.0272     0.0272 19695.4844     2.6651     2.0735     2.0736     4.2997    42.7239     1.0000     1.0000     1.0000 -1448.5428    77.6680     0.0272    16.0000
  1526.2865  6031.6494 6031649.5000    -999.25     8.9971     8.9971   134.6040     0.0000    -999.25    68.6733     2.0702     2.0766     3.0491  1526.2865     0.6009  -698.9213    -999.25     0.1323     0.2601     0.0273     0.0273     0.0273 19788.8770     2.6637     2.0701     2.0702     4.2857    42.7279     1.0000     1.0000     1.0000 -1448.5865    77.9014     0.0273    16.0000
  1526.3952  6000.5356 5986978.5000    -999.25     8.9973     8.9973   135.1165     0.0000    -999.25    69.9381     2.0617     2.0811     3.1235  1526.3951     0.6074  -698.9738    -999.25     0.1414     0.2607     0.0275     0.0275     0.0275 19642.3164     2.6600     2.0617     2.0617     4.2507    42.7380     1.0000     1.0000     1.0000 -1448.6952    78.4820     0.0275    16.0000
  1526.4388  5969.0605 5969060.5000    -999.25     9.0124     9.0124   135.3220     0.0000    -999.25    70.3810     2.0594     2.0802     3.1121  1526.4387     0.6047  -698.9948    -999.25     0.1392     0.2631     0.0276     0.0276     0.0276 19583.5312     2.6501     2.0594     2.0594     4.2413    42.7478     1.0000     1.0000     1.0000 -1448.7388    78.7409     0.0276    16.0000
  1526.5476  5827.4219 5820626.5000    -999.25     9.0501     9.0501   137.3154     0.0000    -999.25    71.4862     2.0537     2.0777     3.0836  1526.5476     0.5980  -699.0473    -999.25     0.1337     0.2691     0.0278     0.0278     0.0278 19096.5449     2.6253     2.0537     2.0537     4.2178    42.7723     1.0000     1.0000     1.0000 -1448.8475    79.3870     0.0278    16.0000
  1526.5913  5761.0073 5761007.0000    -999.25     9.0692     9.0692   138.1160     0.0000    -999.25    72.1018     2.0534     2.0766     3.0175  1526.5913     0.5936  -699.0684    -999.25     0.1306     0.2718     0.0280     0.0280     0.0280 18900.9434     2.6105     2.0534     2.0534     4.2166    42.7939     1.0000     1.0000     1.0000 -1448.8912    79.9034     0.0280    16.0000
  1526.7000  5598.2822 5597699.0000    -999.25     9.1168     9.1168   140.1280     0.0000    -999.25    73.6332     2.0527     2.0739     2.8530  1526.7000     0.5826  -699.1208    -999.25     0.1228     0.2783     0.0284     0.0284     0.0284 18365.1543     2.5737     2.0527     2.0527     4.2136    42.8477     1.0000     1.0000     1.0000 -1449.0000    81.1880     0.0284    16.0000
  1526.7436  5532.1953 5532195.5000    -999.25     9.1311     9.1311   140.9350     0.0000    -999.25    74.0448     2.0530     2.0746     2.7949  1526.7435     0.5784  -699.1419    -999.25     0.1201     0.2819     0.0287     0.0287     0.0287 18150.2480     2.5580     2.0530     2.0530     4.2148    42.8726     1.0000     1.0000     1.0000 -1449.0436    82.0165     0.0287    16.0000
  1526.8524  5411.9941 5415430.5000    -999.25     9.1667     9.1667   141.8538     0.0000    -999.25    75.0720     2.0537     2.0766     2.6500  1526.8524     0.5680  -699.1944    -999.25     0.1136     0.2910     0.0294     0.0294     0.0294 17767.1602     2.5187     2.0537     2.0537     4.2177    42.9347     1.0000     1.0000     1.0000 -1449.1523    84.0840     0.0294    16.0000
  1526.8960  5368.6387 5368638.5000    -999.25     9.1876     9.1876   142.2220     0.0000    -999.25    75.1527     2.0524     2.0780     2.6094  1526.8960     0.5644  -699.2155    -999.25     0.1377     0.2927     0.0318     0.0318     0.0318 17613.6426     2.5050     2.0524     2.0524     4.2122    42.9684     1.0000     1.0000     1.0000 -1449.1959    84.1115     0.0318    16.0000
  1527.0048  5359.2505 5365561.5000    -999.25     9.2397     9.2397   140.5279     0.0000    -999.25    75.3540     2.0490     2.0816     2.5082  1527.0048     0.5554  -699.2679    -999.25     0.1978     0.2971     0.0378     0.0378     0.0378 17603.5488     2.4709     2.0490     2.0490     4.1984    43.0525     1.0000     1.0000     1.0000 -1449.3048    84.1800     0.0378    16.0000
  1527.0484  5364.3286 5364328.5000    -999.25     9.2572     9.2572   139.8490     0.0000    -999.25    75.3264     2.0464     2.0797     2.4880  1527.0483     0.5532  -699.2889    -999.25     0.2322     0.2984     0.0403     0.0403     0.0403 17599.5039     2.4613     2.0464     2.0464     4.1877    43.0918     1.0000     1.0000     1.0000 -1449.3484    83.5452     0.0403    16.0000
  1527.1572  5476.5220 5486031.0000    -999.25     9.3011     9.3011   135.6498     0.0000    -999.25    75.2575     2.0399     2.0752     2.4374  1527.1572     0.5477  -699.3414    -999.25     0.3183     0.3016     0.0465     0.0465     0.0465 17998.7910     2.4373     2.0398     2.0399     4.1610    43.1899     1.0000     1.0000     1.0000 -1449.4572    81.9610     0.0465    16.0000
