~Version ---------------------------------------------------
VERS. 2.0 : CWLS log ASCII Standard -VERSION 2.0
WRAP.  NO : 
~Well ------------------------------------------------------
STRT.m                                                1290.3698 : 
STOP.m                                                1526.7422 : 
STEP.m                                                   0.1524 : 
NULL.                                                   -999.25 : 
COMP.                                                           : COMPANY
WELL.                                                   Well-18 : WELL
FLD .                                                           : FIELD
LOC .                                                           : LOCATION
SRVC.                                                           : SERVICE COMPANY
DATE. 2021-01-20 14:34:10   : Log Export Date {yyyy-MM-dd HH:mm : ss}
PROV.                                                           : PROVINCE
UWI .                                                   Well-18 : UNIQUE WELL ID
API .                                                           : API NUMBER
~Curve Information -----------------------------------------
DEPTH             .m        : DEPTH
ACOUSTICIMPEDANCE1.kPa.s/m  : ACOUSTICIMPEDANCE1
AI                .kPa.s/m  : AI
AVG_PIGN          .m3/m3    : AVG_PIGN
BS                .in       : BS
CALI              .in       : CALI
CALI[DERIVED]1    .in       : CALI[DERIVED]1
DT                .us/ft    : DT
FACIES            ._        : FACIES
FLD1              ._        : FLD1
GR                .gAPI     : GR
DEPTH_1           .m        : DEPTH_1
NPHI              .m3/m3    : NPHI
PEF               .b/e      : PEF
PERF_INT          ._        : PERF_INT
PHIT              .m3/m3    : PHIT
PIGN              .m3/m3    : PIGN
PIGN_MODELLING    .m3/m3    : PIGN_MODELLING
PIMP              .kPa.s/m  : PIMP
RHOB              .g/cm3    : RHOB
LLD               .ohm.m    : LLD
RT_MODELLING      .ohm.m    : RT_MODELLING
RT_POWER          .ohm.m    : RT_POWER
RXO               .ohm.m    : RXO
SP                .mV       : SP
SUWI              ._        : SUWI
SUWI_MODELLING    ._        : SUWI_MODELLING
SXWI              ._        : SXWI
TDVSS             .m        : TDVSS
TEMP              .K        : TEMP
VCL               .%        : VCL
WATER_VOL         ._        : WATER_VOL
ZLT               ._        : ZLT
~Params ----------------------------------------------------
~Other -----------------------------------------------------
~ASCII -----------------------------------------------------
# ...
  1478.1266  6288.3311 6288331.0000    -999.25     8.5000     8.1026     8.1026   113.7608     4.0000    -999.25    76.9246  1478.1266     0.4320     5.3632    -999.25     0.2204     0.1130     0.1130 20631.0059     2.3470     6.4734     6.4734    41.9045     4.8367   -59.1875     0.7014     0.7014     0.7144 -1384.3213   164.0619    53.6840     0.0793    16.0000
  1478.2790  6480.8574 6480857.5000    -999.25     8.5000     8.1118     8.1118   111.3172     4.0000    -999.25    77.5085  1478.2791     0.4667     5.5062    -999.25     0.2193     0.1073     0.1073 21262.6562     2.3669     6.0845     6.0845    37.0208     3.9783   -59.3125     0.7248     0.7248     0.7562 -1384.4720   164.0706    56.0080     0.0778    16.0000
  1478.4314  6450.5864 6450586.5000    -999.25     8.5000     8.1026     8.1026   112.7327     4.0000    -999.25    73.8422  1478.4314     0.4812     5.8948    -999.25     0.2155     0.1037     0.1037 21163.3418     2.3858     5.8684     5.8684    34.4382     3.4898   -58.6250     0.7438     0.7438     0.7813 -1384.6229   164.0792    55.8580     0.0772    16.0000
  1478.5838  6682.2256 6682226.0000    -999.25     8.5000     8.1026     8.1026   109.4953     4.0000    -999.25    78.1155  1478.5839     0.4773     5.9948    -999.25     0.2023     0.1066     0.1066 21923.3125     2.4005     5.9421     5.9421    35.3087     3.3809   -58.6250     0.7889     0.7889     0.8055 -1384.7737   164.0879    47.8620     0.0841    16.0000
  1478.7362  7082.3047 7082305.0000    -999.25     8.5000     8.1261     8.1261   103.9727     0.0000    -999.25    72.6480  1478.7362     0.4674     6.1041    -999.25     0.1898     0.1004     0.1004 23235.9082     2.4159     6.2250     6.2250    38.7505     4.1006   -58.0625     0.8202     0.8202     0.7873 -1384.9244   164.0966    44.6980     0.0824    16.0000
  1478.8886  7066.2085 7066208.5000    -999.25     8.5000     8.1371     8.1371   104.6236     0.0000    -999.25    74.2785  1478.8887     0.4684     5.6684    -999.25     0.1858     0.0928     0.0928 23183.0996     2.4255     6.3853     6.3853    40.7717     6.3875   -58.0625     0.8284     0.8284     0.7994 -1385.0752   164.1052    46.5060     0.0769    16.0000
  1479.0410  7091.0010 7091001.0000    -999.25     8.5000     8.0984     8.0984   104.7693     0.0000    -999.25    71.5956  1479.0410     0.4872     5.7619    -999.25     0.1776     0.0768     0.0768 23264.4375     2.4374     6.3501     6.3501    40.3243     3.7040   -57.9375     0.8477     0.8477     0.8673 -1385.2261   164.1139    50.4040     0.0651    16.0000
  1479.1934  7313.3384 7313338.5000    -999.25     8.5000     8.1069     8.1069   103.5055     0.0000    -999.25    76.9297  1479.1935     0.4343     5.4702    -999.25     0.1639     0.0414     0.0414 23993.8926     2.4835     6.6789     6.6789    44.6077     3.5133   -57.9375     0.8678     0.8678     0.9221 -1385.3768   164.1226    61.2550     0.0359    16.0000
  1479.3458  7360.0337 7360034.0000    -999.25     8.5000     8.0935     8.0935   104.8905     0.0000    -999.25    75.3941  1479.3458     0.4507     5.7291    -999.25     0.1535     0.0138     0.0138 24147.0918     2.5328     6.7745     6.7745    45.8937     3.8972   -58.1250     0.9181     0.9181     0.6572 -1385.5276   164.1312    69.8720     0.0127    16.0000
  1479.4982  7178.3306 7178330.5000    -999.25     8.5000     8.0728     8.0728   107.7918     0.0000    -999.25    76.9831  1479.4982     0.4347     5.2052    -999.25     0.1575     0.0138     0.0138 23550.9531     2.5386     6.3314     6.3314    40.0870    35.1964   -57.7500     0.9140     0.9140     0.5752 -1385.6783   164.1399    71.8240     0.0127    16.0000
  1479.6506  6902.2539 6902254.0000    -999.25     8.5000     8.0707     8.0707   110.3501     0.0000    -999.25    76.9335  1479.6506     0.4578     5.0532    -999.25     0.1719     0.0354     0.0354 22645.1895     2.4989     6.3802     6.3802    40.7070     5.0427   -57.3750     0.8487     0.8487     0.8003 -1385.8292   164.1486    68.2410     0.0301    16.0000
  1479.8030  6928.0576 6928057.5000    -999.25     8.5000     8.0705     8.0705   108.4653     0.0000    -999.25    77.4973  1479.8030     0.4296     4.9169    -999.25     0.1796     0.0490     0.0490 22729.8477     2.4654     6.3360     6.3360    40.1454     4.3744   -57.6875     0.8252     0.8252     0.7577 -1385.9800   164.1572    65.3430     0.0404    16.0000
  1479.9554  6757.8999 6757900.0000    -999.25     8.5000     8.0659     8.0659   110.4341     0.0000    -999.25    74.9076  1479.9554     0.4496     5.0602    -999.25     0.1750     0.0265     0.0265 22171.5879     2.4485     6.1847     6.1847    38.2500     5.9172   -57.8750     0.9042     0.9042     0.8545 -1386.1307   164.1659    74.2580     0.0240    16.0000
  1480.1078  6609.8813 6609881.5000    -999.25     8.5000     8.0664     8.0664   112.4230     0.0000    -999.25    77.6227  1480.1078     0.4733     5.4099    -999.25     0.1691     0.0001     0.0100 21685.9629     2.4380     6.4156     6.4156    41.1594     4.1160   -57.8125     1.0000     1.0000     1.0000 -1386.2815   164.1746    84.5230     0.0001    16.0000
  1480.2602  6138.7422 6138742.0000    -999.25     8.5000     8.0387     8.0387   119.6113     0.0000    -999.25    83.7946  1480.2603     0.4810     5.5128    -999.25     0.1686     0.0001     0.0100 20140.2305     2.4090     6.5801     6.5801    43.2978     3.7628   -57.6875     1.0000     1.0000     1.0000 -1386.4324   164.1832    84.2750     0.0001    17.0000
  1480.4126  5514.2368 5514236.5000    -999.25     8.5000     7.9971     7.9971   124.4132     0.0000    -999.25    86.6319  1480.4126     0.5263     5.2471    -999.25     0.1471     0.0048     0.0100 18091.3281     2.2508     6.7822     6.7822    45.9986     3.3197   -57.8125     1.0000     1.0000     1.0000 -1386.5831   164.1919    71.1480     0.0048    17.0000
  1480.5650  4779.0967 4779096.5000    -999.25     8.5000     7.9833     7.9833   127.5300     0.0000    -999.25    88.9691  1480.5651     0.5489     3.8883    -999.25     0.1244     0.0121     0.0121 15679.4502     1.9996     7.5156     7.5156    56.4838     3.9866   -58.0000     1.0000     1.0000     1.0000 -1386.7339   164.2006    56.1700     0.0121    17.0000
  1480.7174  4429.7358 4429736.0000    -999.25     8.5000     8.0302     8.0302   128.2232     0.0000    -999.25    99.7254  1480.7174     0.5372     3.4044    -999.25     0.1171     0.0141     0.0141 14533.2539     1.8635     7.1495     7.1495    51.1155     4.9747   -58.2500     1.0000     1.0000     1.0000 -1386.8848   164.2092    51.5050     0.0141    17.0000
  1480.8698  4747.3594 4747359.5000    -999.25     8.5000     8.0774     8.0774   123.4966     0.0000    -999.25   113.1641  1480.8699     0.5108     2.8136    -999.25     0.1204     0.0091     0.0100 15575.3262     1.9235     6.5915     6.5915    43.4479     6.8894   -58.3750     1.0000     1.0000     1.0000 -1387.0355   164.2179    55.6620     0.0091    17.0000
  1481.0222  5598.0952 5598095.5000    -999.25     8.5000     8.0920     8.0920   117.7745     0.0000    -999.25   116.9825  1481.0222     0.4668     3.3832    -999.25     0.1410     0.0023     0.0100 18366.4551     2.1631     6.6096     6.6096    43.6863     4.0184   -59.0000     1.0000     1.0000     1.0000 -1387.1863   164.2266    69.3860     0.0023    17.0000
  1481.1746  6803.0806 6803081.0000    -999.25     8.5000     8.0201     8.0201   113.9615     0.0000    -999.25   104.7320  1481.1747     0.4517     5.3616    -999.25     0.1451     0.0001     0.0100 22319.8184     2.5436     6.7733     6.7733    45.8776     3.7792   -59.4375     1.0000     1.0000     1.0000 -1387.3370   164.2352    72.5490     0.0001    17.0000
  1481.3270  7558.4502 7558450.5000    -999.25     8.5000     7.9578     7.9578   109.0085     2.0000    -999.25    97.1066  1481.3270     0.4038     6.3899    -999.25     0.1387     0.0009     0.0100 24798.0645     2.7032     7.2557     7.2557    52.6452     6.5820   -59.6250     0.9311     0.9311     0.7844 -1387.4879   164.2439    68.9010     0.0008    17.0000
