~Version ---------------------------------------------------
VERS. 2.0 : CWLS log ASCII Standard -VERSION 2.0
WRAP.  NO : 
~Well ------------------------------------------------------
STRT.m                                                1295.9144 : 
STOP.m                                                1639.8812 : 
STEP.m                                                   0.1524 : 
NULL.                                                   -999.25 : 
COMP.                                                           : COMPANY
WELL.                                                    Well-1 : WELL
FLD .                                                           : FIELD
LOC .                                                           : LOCATION
SRVC.                                                           : SERVICE COMPANY
DATE. 2021-01-20 14:33:59   : Log Export Date {yyyy-MM-dd HH:mm : ss}
PROV.                                                           : PROVINCE
UWI .                                                    Well-1 : UNIQUE WELL ID
API .                                                           : API NUMBER
~Curve Information -----------------------------------------
DEPTH             .m        : DEPTH
ACOUSTICIMPEDANCE1.kPa.s/m  : ACOUSTICIMPEDANCE1
AI                .kPa.s/m  : AI
AVG_PIGN          .m3/m3    : AVG_PIGN
CALI              .in       : CALI
CALI[DERIVED]1    .in       : CALI[DERIVED]1
DFL               .ohm.m    : DFL
DT                .us/ft    : DT
FACIES            ._        : FACIES
FLD1              ._        : FLD1
GR                .gAPI     : GR
HDRS              .ohm.m    : HDRS
HMRS              .ohm.m    : HMRS
DEPTH_1           .m        : DEPTH_1
NPHI              .m3/m3    : NPHI
ONE-WAYTIME1      .ms       : ONE-WAYTIME1
PERF_INT          ._        : PERF_INT
PERMEABILITY      .mD       : PERMEABILITY
PIGN              .m3/m3    : PIGN
PIGN_MODELLING    .m3/m3    : PIGN_MODELLING
PIMP              .kPa.s/m  : PIMP
RHOB              .g/cm3    : RHOB
RT_MODELLING      .ohm.m    : RT_MODELLING
RT_POWER          .ohm.m    : RT_POWER
SP                .mV       : SP
SUWI              ._        : SUWI
SUWI_MODELLING    ._        : SUWI_MODELLING
TDVSS             .m        : TDVSS
VCL               .%        : VCL
WATER_VOL         ._        : WATER_VOL
ZLT               ._        : ZLT
~Params ----------------------------------------------------
~Other -----------------------------------------------------
~ASCII -----------------------------------------------------
# ...
  1614.1256  6400.1494 6400149.5000    -999.25     9.2609     9.2609     4.8152   115.8823     0.0000    -999.25    69.9268     3.2383     3.2487  1614.1256     0.6481  -740.9213    -999.25     0.0431     0.0161     0.0161 20997.8652     2.4333     4.8152    23.1863   288.8522     1.0000     1.0000 -1535.6356    82.2560     0.0161    22.0000
  1614.2780  6493.7476 6493748.0000    -999.25     9.1002     9.1002     3.9124   115.5107     0.0000    -999.25    75.9880     2.3310     2.2995  1614.2780     0.6384  -740.9948    -999.25     0.0426     0.0168     0.0168 21304.9473     2.4609     3.9124    15.3069   288.9296     1.0000     1.0000 -1535.7880    81.5510     0.0168    22.0000
  1614.4304  6900.2007 6900201.0000    -999.25     8.9763     8.9763     2.8248   111.0805     0.0000    -999.25    78.5406     1.6564     1.6857  1614.4304     0.6173  -741.0684    -999.25     0.0421     0.0173     0.0173 22638.4551     2.5147     2.8248     7.9794   288.6025     1.0000     1.0000 -1535.9404    80.9350     0.0173    22.0000
  1614.5828  7414.5908 7414591.0000    -999.25     8.9353     8.9353     2.2682   106.0072     0.0000    -999.25    77.1368     1.7308     1.7770  1614.5828     0.5892  -741.1418    -999.25     0.0416     0.0182     0.0182 24326.0859     2.5787     2.2682     5.1447   288.2903     1.0000     1.0000 -1536.0928    80.0100     0.0182    23.0000
  1614.7352  7688.4707 7688471.0000    -999.25     8.9037     8.9037     2.4412   104.4586     0.0000    -999.25    71.9402     2.1305     2.1961  1614.7352     0.5636  -741.2154    -999.25     0.0411     0.0168     0.0168 25224.6426     2.6349     2.4412     5.9594   287.9547     1.0000     1.0000 -1536.2452    80.4510     0.0168    23.0000
  1614.8876  7834.2944 7834294.5000    -999.25     8.8876     8.8876     2.7903   104.8992     0.0000    -999.25    65.3890     2.3424     2.4502  1614.8876     0.5487  -741.2889    -999.25     0.0406     0.0151     0.0151 25703.0664     2.6962     2.7903     7.7859   288.0261     1.0000     1.0000 -1536.3976    81.5220     0.0151    23.0000
  1615.0400  8040.5542 8040554.0000    -999.25     8.9041     8.9041     3.2134   103.8478     0.0000    -999.25    60.6371     2.5807     2.7121  1615.0400     0.5471  -741.3625    -999.25     0.0401     0.0186     0.0186 26379.7715     2.7395     3.2134    10.3259   288.3438     1.0000     1.0000 -1536.5499    79.2620     0.0186    23.0000
  1615.1924  7928.7358 7928736.0000    -999.25     8.9215     8.9215     3.9025   102.8993     0.0000    -999.25    58.9792     3.2982     3.3378  1615.1924     0.5531  -741.4360    -999.25     0.0396     0.0217     0.0217 26012.9121     2.6767     3.9025    15.2291   288.6612     1.0000     1.0000 -1536.7024    76.1120     0.0217    23.0000
  1615.3448  7601.1318 7601132.0000    -999.25     8.9244     8.9244     4.9005   104.3111     0.0000    -999.25    61.2039     3.6794     3.6579  1615.3447     0.5600  -741.5095    -999.25     0.0391     0.0220     0.0220 24938.0977     2.6013     4.9005    24.0146   289.0471     1.0000     1.0000 -1536.8547    75.8140     0.0220    23.0000
  1615.4972  7441.5923 7441592.0000    -999.25     8.9202     8.9202     5.2345   106.2062     0.0000    -999.25    67.4072     3.2325     3.2535  1615.4972     0.5600  -741.5831    -999.25     0.0386     0.0220     0.0220 24414.6719     2.5930     5.2345    27.4000   289.1377     1.0000     1.0000 -1537.0072    75.8230     0.0220    23.0000
  1615.6496  7375.2861 7375286.0000    -999.25     8.9112     8.9112     4.4243   106.9759     0.0000    -999.25    73.3439     2.7726     2.7550  1615.6495     0.5560  -741.6566    -999.25     0.0382     0.0226     0.0226 24197.1328     2.5885     4.4243    19.5743   289.1635     1.0000     1.0000 -1537.1595    75.1880     0.0226    23.0000
  1615.8020  7241.8032 7241803.0000    -999.25     8.9236     8.9236     3.6034   107.9451     0.0000    -999.25    75.4463     2.2473     2.2833  1615.8020     0.5556  -741.7301    -999.25     0.0377     0.0239     0.0239 23759.1953     2.5647     3.6034    12.9842   289.1100     1.0000     1.0000 -1537.3120    73.6810     0.0239    23.0000
  1615.9544  6918.0923 6918092.0000    -999.25     8.9451     8.9451     3.1377   110.5777     0.0000    -999.25    75.0301     2.1757     2.2556  1615.9543     0.5600  -741.8036    -999.25     0.0372     0.0258     0.0258 22697.1523     2.5098     3.1377     9.8453   288.9481     1.0000     1.0000 -1537.4644    71.6600     0.0258    23.0000
  1616.1068  6487.3711 6487371.0000    -999.25     8.9409     8.9409     3.4286   114.3900     0.0000    -999.25    73.3480     2.6028     2.6305  1616.1068     0.5627  -741.8772    -999.25     0.0367     0.0268     0.0268 21284.0254     2.4347     3.4286    11.7550   288.8710     1.0000     1.0000 -1537.6168    70.5420     0.0268    23.0000
  1616.2592  6356.5039 6356504.0000    -999.25     8.9050     8.9050     3.7066   116.2430     0.0000    -999.25    71.4246     2.5557     2.5742  1616.2592     0.5575  -741.9507    -999.25     0.0362     0.0257     0.0257 20854.6719     2.4242     3.7066    13.7389   288.6395     1.0000     1.0000 -1537.7692    71.7890     0.0257    23.0000
  1616.4116  6760.9053 6760905.0000    -999.25     8.8603     8.8603     3.2239   113.2658     0.0000    -999.25    70.1066     1.9911     2.0631  1616.4116     0.5443  -742.0242    -999.25     0.0357     0.0189     0.0189 22181.4473     2.5124     3.2239    10.3937   288.5176     1.0000     1.0000 -1537.9216    76.3210     0.0189    23.0000
  1616.5640  7512.6929 7512693.0000    -999.25     8.8457     8.8457     2.6900   107.6613     0.0000    -999.25    67.5051     1.8113     1.8714  1616.5640     0.5325  -742.0978    -999.25     0.0352     0.0103     0.0103 24647.9434     2.6536     2.6900     7.2359   288.4001     1.0000     1.0000 -1538.0740    80.6530     0.0103    23.0000
  1616.7164  8058.2129 8058213.0000    -999.25     8.8755     8.8755     2.6272   104.3181     0.0000    -999.25    62.2736     1.9981     2.0617  1616.7164     0.5323  -742.1713    -999.25     0.0347     0.0122     0.0122 26437.7051     2.7579     2.6272     6.9022   288.3450     1.0000     1.0000 -1538.2264    80.6550     0.0122    23.0000
  1616.8688  7889.2192 7889219.5000    -999.25     8.9245     8.9245     3.3150   105.3267     0.0000    -999.25    56.8830     2.6537     2.7146  1616.8688     0.5490  -742.2448    -999.25     0.0342     0.0194     0.0194 25883.2656     2.7262     3.3150    10.9892   288.5114     1.0000     1.0000 -1538.3788    77.7830     0.0194    23.0000
  1617.0212  7227.6411 7227641.0000    -999.25     8.9475     8.9475     5.1844   108.9604     0.0000    -999.25    54.5940     3.8516     3.8170  1617.0212     0.5762  -742.3184    -999.25     0.0337     0.0206     0.0206 23712.7324     2.5838     5.1844    26.8784   288.5911     1.0000     1.0000 -1538.5311    77.3310     0.0206    23.0000
  1617.1736  6709.9673 6709967.5000    -999.25     8.9363     8.9363     7.1956   111.8013     0.0000    -999.25    56.5061     4.3657     4.2588  1617.1736     0.6025  -742.3919    -999.25     0.0333     0.0190     0.0190 22014.3281     2.4612     7.1956    51.7769   288.7448     1.0000     1.0000 -1538.6836    79.0700     0.0190    23.0000
  1617.3260  6591.5581 6591558.0000    -999.25     8.9151     8.9151     6.5362   112.1413     0.0000    -999.25    61.5642     3.2386     3.2717  1617.3259     0.6182  -742.4655    -999.25     0.0328     0.0184     0.0184 21625.8457     2.4251     6.5362    42.7220   288.7325     1.0000     1.0000 -1538.8359    79.7700     0.0184    23.0000
  1617.4784  6800.7305 6800730.5000    -999.25     8.8964     8.8964     3.9890   110.5315     0.0000    -999.25    66.7225     2.1487     2.2500  1617.4784     0.6180  -742.5389    -999.25     0.0323     0.0183     0.0183 22312.1074     2.4662     3.9890    15.9118   288.5854     1.0000     1.0000 -1538.9884    79.8290     0.0183    23.0000
  1617.6308  7135.2920 7135292.0000    -999.25     8.8990     8.8990     2.5094   108.3830     0.0000    -999.25    68.6688     1.7810     1.8462  1617.6307     0.6037  -742.6125    -999.25     0.0318     0.0178     0.0178 23409.7500     2.5372     2.5094     6.2973   288.4903     1.0000     1.0000 -1539.1407    80.4030     0.0178    23.0000
