~Version ---------------------------------------------------
VERS. 2.0 : CWLS log ASCII Standard -VERSION 2.0
WRAP.  NO : 
~Well ------------------------------------------------------
STRT.m                                                1295.9144 : 
STOP.m                                                1639.8812 : 
STEP.m                                                   0.1524 : 
NULL.                                                   -999.25 : 
COMP.                                                           : COMPANY
WELL.                                                    Well-1 : WELL
FLD .                                                           : FIELD
LOC .                                                           : LOCATION
SRVC.                                                           : SERVICE COMPANY
DATE. 2021-01-20 14:33:59   : Log Export Date {yyyy-MM-dd HH:mm : ss}
PROV.                                                           : PROVINCE
UWI .                                                    Well-1 : UNIQUE WELL ID
API .                                                           : API NUMBER
~Curve Information -----------------------------------------
DEPTH             .m        : DEPTH
ACOUSTICIMPEDANCE1.kPa.s/m  : ACOUSTICIMPEDANCE1
AI                .kPa.s/m  : AI
AVG_PIGN          .m3/m3    : AVG_PIGN
CALI              .in       : CALI
CALI[DERIVED]1    .in       : CALI[DERIVED]1
DFL               .ohm.m    : DFL
DT                .us/ft    : DT
FACIES            ._        : FACIES
FLD1              ._        : FLD1
GR                .gAPI     : GR
HDRS              .ohm.m    : HDRS
HMRS              .ohm.m    : HMRS
DEPTH_1           .m        : DEPTH_1
NPHI              .m3/m3    : NPHI
ONE-WAYTIME1      .ms       : ONE-WAYTIME1
PERF_INT          ._        : PERF_INT
PERMEABILITY      .mD       : PERMEABILITY
PIGN              .m3/m3    : PIGN
PIGN_MODELLING    .m3/m3    : PIGN_MODELLING
PIMP              .kPa.s/m  : PIMP
RHOB              .g/cm3    : RHOB
RT_MODELLING      .ohm.m    : RT_MODELLING
RT_POWER          .ohm.m    : RT_POWER
SP                .mV       : SP
SUWI              ._        : SUWI
SUWI_MODELLING    ._        : SUWI_MODELLING
TDVSS             .m        : TDVSS
VCL               .%        : VCL
WATER_VOL         ._        : WATER_VOL
ZLT               ._        : ZLT
~Params ----------------------------------------------------
~Other -----------------------------------------------------
~ASCII -----------------------------------------------------
# ...
  1339.8056  5533.4180 5533418.0000    -999.25     9.0031     9.0031     1.2770   130.5038     0.0000    -999.25    66.9628     1.2642     1.2364  1339.8055     0.5328  -608.5660    -999.25    -999.25     0.0326     0.0326 18154.2578     2.3692     1.2770     1.6307   263.5271     1.0000     1.0000 -1261.3156    64.1080     0.0326     0.0000
  1339.9580  5458.6196 5458620.0000    -999.25     9.0093     9.0093     1.3950   131.7008     0.0000    -999.25    65.7925     1.3658     1.3724  1339.9580     0.5308  -608.6395    -999.25    -999.25     0.0325     0.0325 17908.8574     2.3586     1.3950     1.9461   263.0586     1.0000     1.0000 -1261.4680    64.2840     0.0325     0.0000
  1340.1104  5398.1865 5398186.5000    -999.25     9.0225     9.0225     1.5818   132.2029     0.0000    -999.25    67.0092     1.4428     1.4607  1340.1104     0.5340  -608.7130    -999.25    -999.25     0.0316     0.0316 17710.5859     2.3414     1.5818     2.5020   263.0109     1.0000     1.0000 -1261.6204    65.2380     0.0316     0.0000
  1340.2628  5438.0312 5438031.5000    -999.25     9.0295     9.0295     1.6863   131.0582     0.0000    -999.25    70.1748     1.4445     1.4399  1340.2628     0.5414  -608.7866    -999.25    -999.25     0.0306     0.0306 17841.3105     2.3382     1.6863     2.8437   262.8892     1.0000     1.0000 -1261.7728    66.3740     0.0306     0.0000
  1340.4152  5523.5713 5523571.5000    -999.25     9.0350     9.0350     1.6334   129.4656     0.0000    -999.25    73.6812     1.4148     1.3852  1340.4152     0.5488  -608.8601    -999.25    -999.25     0.0302     0.0302 18121.9531     2.3462     1.6334     2.6680   262.7857     1.0000     1.0000 -1261.9252    66.7980     0.0302     0.0000
  1340.5676  5556.6709 5556671.0000    -999.25     9.0393     9.0393     1.5548   128.8738     0.0000    -999.25    76.5511     1.4157     1.3781  1340.5676     0.5507  -608.9336    -999.25    -999.25     0.0309     0.0309 18230.5469     2.3494     1.5548     2.4174   262.7827     1.0000     1.0000 -1262.0776    66.0650     0.0309     0.0000
  1340.7200  5508.3599 5508360.0000    -999.25     9.0394     9.0394     1.5870   129.3650     0.0000    -999.25    78.5765     1.4532     1.4217  1340.7200     0.5445  -609.0071    -999.25    -999.25     0.0318     0.0318 18072.0469     2.3379     1.5870     2.5185   262.3949     1.0000     1.0000 -1262.2300    65.0660     0.0318     0.0000
  1340.8724  5433.4067 5433406.5000    -999.25     9.0426     9.0426     1.6520   130.4253     0.0000    -999.25    79.2318     1.4943     1.4680  1340.8724     0.5375  -609.0807    -999.25    -999.25     0.0320     0.0320 17826.1367     2.3250     1.6520     2.7289   262.1882     1.0000     1.0000 -1262.3823    64.8240     0.0320     0.0000
  1341.0248  5326.4326 5326433.0000    -999.25     9.0759     9.0759     1.7213   132.0536     0.0000    -999.25    78.9461     1.5053     1.4893  1341.0248     0.5376  -609.1542    -999.25    -999.25     0.0315     0.0315 17475.1738     2.3077     1.7213     2.9630   262.4893     1.0000     1.0000 -1262.5348    65.3510     0.0315     0.0000
  1341.1772  5198.5195 5198519.5000    -999.25     9.2024     9.2024     1.7619   133.6583     0.0000    -999.25    78.4377     1.4908     1.4900  1341.1772     0.5442  -609.2277    -999.25    -999.25     0.0311     0.0311 17055.5098     2.2796     1.7619     3.1043   262.7237     1.0000     1.0000 -1262.6871    65.8400     0.0311     0.0000
  1341.3296  5107.3555 5107355.5000    -999.25     9.3933     9.3933     1.7451   134.5699     0.0000    -999.25    77.3462     1.4621     1.4636  1341.3296     0.5497  -609.3013    -999.25    -999.25     0.0315     0.0315 16756.4160     2.2549     1.7451     3.0455   263.1775     1.0000     1.0000 -1262.8396    65.3610     0.0315     0.0000
  1341.4820  5017.0020 5017002.0000    -999.25     9.4439     9.4439     1.6394   135.5840     0.0000    -999.25    76.5016     1.3955     1.3856  1341.4819     0.5465  -609.3748    -999.25    -999.25     0.0324     0.0324 16459.9805     2.2317     1.6394     2.6875   263.9443     1.0000     1.0000 -1262.9919    64.3710     0.0324     0.0000
  1341.6344  4891.5972 4891597.0000    -999.25     9.3155     9.3155     1.4971   137.3638     0.0000    -999.25    76.6379     1.3031     1.2711  1341.6344     0.5393  -609.4484    -999.25    -999.25     0.0325     0.0325 16048.5479     2.2045     1.4971     2.2412   264.3074     1.0000     1.0000 -1263.1444    64.2320     0.0325     0.0000
  1341.7868  4765.7808 4765781.0000    -999.25     9.3609     9.3609     1.3996   139.2538     0.0000    -999.25    76.3155     1.2650     1.2355  1341.7867     0.5405  -609.5219    -999.25    -999.25     0.0315     0.0315 15635.7637     2.1773     1.3996     1.9589   264.6029     1.0000     1.0000 -1263.2968    65.3180     0.0315     0.0000
  1341.9392  4654.5137 4654513.5000    -999.25     9.7238     9.7238     1.3865   140.7459     0.0000    -999.25    74.6335     1.2952     1.3058  1341.9392     0.5524  -609.5954    -999.25    -999.25     0.0303     0.0303 15270.7139     2.1493     1.3865     1.9224   265.0564     1.0000     1.0000 -1263.4492    66.7070     0.0303     0.0000
  1342.0916  4569.0552 4569055.0000    -999.25    10.0577    10.0577     1.3865   141.5252     0.0000    -999.25    73.0089     1.2987     1.3218  1342.0916     0.5654  -609.6689    -999.25    -999.25     0.0295     0.0295 14990.3379     2.1215     1.3865     1.9225   265.1886     1.0000     1.0000 -1263.6016    67.5450     0.0295     0.0000
  1342.2440  4587.5693 4587569.5000    -999.25    10.1448    10.1448     1.3662   140.5148     0.0000    -999.25    72.3173     1.2248     1.2141  1342.2440     0.5712  -609.7424    -999.25    -999.25     0.0292     0.0292 15051.0811     2.1149     1.3662     1.8665   265.3100     1.0000     1.0000 -1263.7540    67.8290     0.0292     0.0000
  1342.3964  4733.0044 4733004.5000    -999.25    10.0459    10.0459     1.3066   137.4361     0.0000    -999.25    71.5833     1.1595     1.1367  1342.3964     0.5711  -609.8160    -999.25    -999.25     0.0289     0.0289 15528.2295     2.1341     1.3066     1.7072   265.4431     1.0000     1.0000 -1263.9064    68.2170     0.0289     0.0000
  1342.5488  4925.3184 4925318.5000    -999.25     9.8157     9.8157     1.2714   134.1071     0.0000    -999.25    70.2856     1.1609     1.1434  1342.5488     0.5722  -609.8895    -999.25    -999.25     0.0281     0.0281 16159.1807     2.1671     1.2714     1.6165   264.9513     1.0000     1.0000 -1264.0588    69.1190     0.0281     0.0000
  1342.7012  5082.5869 5082587.0000    -999.25     9.4849     9.4849     1.2542   132.4474     0.0000    -999.25    68.9395     1.1911     1.1756  1342.7012     0.5774  -609.9631    -999.25    -999.25     0.0273     0.0273 16675.1543     2.2086     1.2542     1.5731   264.2463     1.0000     1.0000 -1264.2112    69.9820     0.0273     0.0000
  1342.8536  5188.0508 5188050.5000    -999.25     9.3146     9.3146     1.2908   132.4522     0.0000    -999.25    68.4002     1.2322     1.2219  1342.8536     0.5816  -610.0366    -999.25    -999.25     0.0273     0.0273 17021.1641     2.2545     1.2908     1.6662   263.8032     1.0000     1.0000 -1264.3635    69.9210     0.0273     0.0000
  1343.0060  5243.5625 5243562.5000    -999.25     9.3841     9.3841     1.3944   133.2193     0.0000    -999.25    69.6416     1.2950     1.3049  1343.0060     0.5781  -610.1101    -999.25    -999.25     0.0282     0.0282 17203.2891     2.2918     1.3944     1.9443   263.3190     1.0000     1.0000 -1264.5160    68.9290     0.0282     0.0000
  1343.1584  5216.9521 5216952.0000    -999.25     9.4416     9.4416     1.4964   134.0273     0.0000    -999.25    72.0019     1.3290     1.3549  1343.1583     0.5694  -610.1837    -999.25    -999.25     0.0292     0.0292 17115.9844     2.2940     1.4964     2.2391   263.2173     1.0000     1.0000 -1264.6683    67.8780     0.0292     0.0000
  1343.3108  5177.0513 5177051.5000    -999.25     9.3876     9.3876     1.5274   134.6370     0.0000    -999.25    74.0414     1.3010     1.3022  1343.3108     0.5610  -610.2572    -999.25    -999.25     0.0294     0.0294 16985.0762     2.2868     1.5274     2.3330   263.7392     1.0000     1.0000 -1264.8208    67.6910     0.0294     0.0000
