~Version ---------------------------------------------------
VERS. 2.0 : CWLS log ASCII Standard -VERSION 2.0
WRAP.  NO : 
~Well ------------------------------------------------------
STRT.m                                                1236.0668 : 
STOP.m                                                1579.8812 : 
STEP.m                                                   0.1524 : 
NULL.                                                   -999.25 : 
COMP.                                                           : COMPANY
WELL.                                                   Well-17 : WELL
FLD .                                                           : FIELD
LOC .                                                           : LOCATION
SRVC.                                                           : SERVICE COMPANY
DATE. 2021-01-20 14:34:08   : Log Export Date {yyyy-MM-dd HH:mm : ss}
PROV.                                                           : PROVINCE
UWI .                                                   Well-17 : UNIQUE WELL ID
API .                                                           : API NUMBER
~Curve Information -----------------------------------------
DEPTH             .m        : DEPTH
ACOUSTICIMPEDANCE1.kPa.s/m  : ACOUSTICIMPEDANCE1
AI                .kPa.s/m  : AI
AVG_PIGN          .m3/m3    : AVG_PIGN
CALI              .in       : CALI
NPHI              .m3/m3    : NPHI
DT                .us/ft    : DT
FACIES            ._        : FACIES
FLD1              ._        : FLD1
GR                .gAPI     : GR
M2R2              .ohm.m    : M2R2
LLS               .ohm.m    : LLS
LLD               .ohm.m    : LLD
DEPTH_1           .m        : DEPTH_1
NPHI_1            .m3/m3    : NPHI_1
PERF_INT          ._        : PERF_INT
PERMEABILITY      .mD       : PERMEABILITY
PHIT              .m3/m3    : PHIT
PIGN              .m3/m3    : PIGN
PIGN_MODELLING    .m3/m3    : PIGN_MODELLING
PIMP              .kPa.s/m  : PIMP
RHOB              .g/cm3    : RHOB
RT_MODELLING      .ohm.m    : RT_MODELLING
RT_POWER          .ohm.m    : RT_POWER
SP                .mV       : SP
SUWI              ._        : SUWI
SUWI_MODELLING    ._        : SUWI_MODELLING
SXWI              ._        : SXWI
TDVSS             .m        : TDVSS
VCL               .%        : VCL
WATER_VOL         ._        : WATER_VOL
RHOB_1            .g/cm3    : RHOB_1
ZLT               ._        : ZLT
~Params ----------------------------------------------------
~Other -----------------------------------------------------
~ASCII -----------------------------------------------------
# ...
  1440.5876  7279.9922 7279992.0000    -999.25     8.3950     0.2978    95.0826     1.0000     0.4107    85.7909     1.6520     1.3302     1.2646  1440.5876     0.2978    -999.25    32.5915     0.2310     0.1859     0.1859 23884.4883     2.2710     1.2646     1.5991   213.7360     1.0000     1.0000     1.0000 -1367.0977    32.8240     0.1859     2.2710     6.0000
  1440.7400  7232.1934 7232193.5000    -999.25     8.4027     0.3010    95.5694     1.0000     0.3923    87.2428     1.7053     1.3739     1.3066  1440.7400     0.3010    -999.25    30.1920     0.2269     0.1824     0.1824 23727.6680     2.2676     1.3066     1.7071   213.7674     1.0000     1.0000     1.0000 -1367.2500    33.5540     0.1824     2.2676     6.0000
  1440.8924  7166.4565 7166456.5000    -999.25     8.4238     0.3075    96.2334     1.0000     0.3739    88.5352     1.7388     1.4048     1.3375  1440.8925     0.3075    -999.25    28.0927     0.2247     0.1801     0.1801 23511.9961     2.2626     1.3375     1.7888   213.7387     1.0000     1.0000     1.0000 -1367.4025    34.6330     0.1801     2.2626     6.0000
  1441.0448  7130.2998 7130299.5000    -999.25     8.4434     0.3068    96.5363     1.0000     0.3555    88.1981     1.7329     1.4083     1.3433  1441.0448     0.3068    -999.25    28.8901     0.2251     0.1818     0.1818 23393.3711     2.2583     1.3433     1.8045   213.6689     1.0000     1.0000     1.0000 -1367.5548    34.0490     0.1818     2.2583     6.0000
  1441.1972  7127.8228 7127823.0000    -999.25     8.4483     0.3000    96.3415     1.0000     0.3371    86.1653     1.6857     1.3825     1.3218  1441.1973     0.3000    -999.25    32.9374     0.2287     0.1881     0.1881 23385.2461     2.2530     1.3218     1.7473   213.5919     1.0000     1.0000     1.0000 -1367.7073    31.8420     0.1881     2.2530     6.0000
  1441.3496  7126.6895 7126689.5000    -999.25     8.4460     0.2932    95.8128     1.0000     0.3187    82.8200     1.6223     1.3428     1.2878  1441.3496     0.2932    -999.25    40.2959     0.2357     0.1994     0.1994 23381.5273     2.2403     1.2878     1.6585   213.5233     1.0000     1.0000     1.0000 -1367.8596    28.5960     0.1994     2.2403     6.0000
  1441.5020  7010.9043 7010904.0000    -999.25     8.4524     0.2943    96.2613     1.0000     0.3003    76.9358     1.5822     1.3176     1.2659  1441.5021     0.2943    -999.25    50.8247     0.2471     0.2165     0.2165 23001.6543     2.2142     1.2659     1.6026   213.4382     1.0000     1.0000     1.0000 -1368.0121    25.0190     0.2165     2.2142     6.0000
  1441.6544  6739.0854 6739085.5000    -999.25     8.4768     0.3082    98.6207     1.0000     0.2819    68.4442     1.5891     1.3254     1.2738  1441.6544     0.3082    -999.25    60.3388     0.2610     0.2352     0.2352 22109.8613     2.1805     1.2738     1.6225   213.2411     1.0000     1.0000     1.0000 -1368.1644    22.6790     0.2352     2.1805     6.0000
  1441.8068  6444.1392 6444139.5000    -999.25     8.5192     0.3239   101.6375     1.0000     0.2635    61.2698     1.6393     1.3649     1.3116  1441.8069     0.3239    -999.25    65.7925     0.2714     0.2497     0.2497 21142.1895     2.1488     1.3116     1.7202   212.8348     1.0000     1.0000     1.0000 -1368.3169    21.3540     0.2497     2.1488     6.0000
  1441.9592  6260.6665 6260666.5000    -999.25     8.5491     0.3312   103.7446     1.0000     0.2451    59.3068     1.7232     1.4321     1.3760  1441.9592     0.3312    -999.25    65.4497     0.2746     0.2535     0.2535 20540.2461     2.1309     1.3760     1.8935   212.2742     1.0000     1.0000     1.0000 -1368.4692    21.5820     0.2535     2.1309     6.0000
  1442.1116  6064.2466 6064246.5000    -999.25     8.5406     0.3478   105.9951     1.0000     0.2267    61.7704     1.8669     1.5470     1.4853  1442.1117     0.3478    -999.25    57.6274     0.2761     0.2520     0.2520 19895.8223     2.1089     1.4853     2.2062   211.8744     1.0000     1.0000     1.0000 -1368.6216    24.7570     0.2520     2.1089     6.0000
  1442.2640  5731.0820 5731082.0000    -999.25     8.5491     0.3874   109.7562     1.0000     0.2083    65.4350     2.1444     1.7643     1.6903  1442.2640     0.3874    -999.25     1.7944     0.1154     0.0885     0.0885 18802.7637     2.0637     1.6903     2.8570   211.9860     1.0000     1.0000     1.0000 -1368.7740    34.4380     0.0885     2.0637     6.0000
  1442.4164  5457.6318 5457631.5000    -999.25     8.6390     0.4328   113.7783     0.0000     0.1899    69.4456     2.6319     2.1399     2.0428  1442.4164     0.4328    -999.25     0.0018     0.0425     0.0100     0.0100 17905.6152     2.0373     2.0428     4.1729   212.6702     1.0000     1.0000     1.0000 -1368.9264    43.5310     0.0100     2.0373     6.0000
  1442.5688  5389.9224 5389922.5000    -999.25     8.7590     0.4574   116.8277     0.0000     0.1715    74.6798     3.2302     2.6166     2.4931  1442.5688     0.4574    -999.25     0.0015     0.0497     0.0100     0.0100 17683.4727     2.0659     2.4931     6.2156   213.7199     1.0000     1.0000     1.0000 -1369.0789    50.9510     0.0100     2.0659     6.0000
  1442.7212  5630.0898 5630090.0000    -999.25     8.8296     0.4537   116.7154     0.0000     0.1531    80.6340     3.6504     3.0185     2.8852  1442.7212     0.4537    -999.25     0.0017     0.0569     0.0100     0.0100 18471.4238     2.1559     2.8852     8.3241   214.7941     1.0000     1.0000     1.0000 -1369.2312    58.2880     0.0100     2.1559     6.0000
  1442.8736  6180.8828 6180883.0000    -999.25     8.8537     0.4430   112.7663     0.0000     0.1347    84.8787     3.8040     3.2741     3.1549  1442.8737     0.4430    -999.25     0.0020     0.0667     0.0100     0.0100 20278.4863     2.2867     3.1549     9.9531   215.4115     1.0000     1.0000     1.0000 -1369.3837    67.5320     0.0100     2.2867     6.0000
  1443.0260  6799.0732 6799073.5000    -999.25     8.8681     0.4457   107.9305     0.0000     0.1163    85.2840     3.9137     3.5140     3.4221  1443.0260     0.4457    -999.25     0.0022     0.1011     0.0100     0.0100 22306.6719     2.4076     3.4221    11.7111   215.2202     1.0000     1.0000     1.0000 -1369.5360    75.4640     0.0100     2.4076     6.0000
  1443.1784  7254.5312 7254531.5000    -999.25     8.8898     0.4492   104.0681     0.0000     0.0979    82.2395     4.0978     3.8163     3.7619  1443.1785     0.4492    -999.25     0.0023     0.1298     0.0100     0.0100 23800.9551     2.4769     3.7619    14.1518   214.3851     1.0000     1.0000     1.0000 -1369.6885    79.1740     0.0100     2.4769     6.0000
  1443.3308  7474.9731 7474973.0000    -999.25     8.9168     0.4349   101.6821     0.0000     0.0795    79.2421     4.2221     4.0513     4.0466  1443.3308     0.4349    -999.25     0.0025     0.1321     0.0100     0.0100 24524.1895     2.4937     4.0466    16.3750   213.4208     1.0000     1.0000     1.0000 -1369.8408    77.2730     0.0100     2.4937     6.0000
  1443.4832  7534.8833 7534883.0000    -999.25     8.9314     0.4111   100.2073     0.0000     0.0611    79.7566     4.1885     4.1073     4.1492  1443.4833     0.4111    -999.25     0.0028     0.1183     0.0100     0.0100 24720.7461     2.4772     4.1492    17.2156   212.6844     1.0000     1.0000     1.0000 -1369.9933    72.2630     0.0100     2.4772     6.0000
  1443.6356  7465.2051 7465205.0000    -999.25     8.9105     0.3996    99.6009     0.0000     0.0427    82.9455     4.1462     4.1181     4.2043  1443.6356     0.3996    -999.25     0.0029     0.0944     0.0100     0.0100 24492.1426     2.4394     4.2043    17.6765   212.2489     1.0000     1.0000     1.0000 -1370.1456    69.4150     0.0100     2.4394     6.0000
  1443.7880  7085.6694 7085669.0000    -999.25     8.8674     0.4105   101.9162     0.0000     0.0243    85.4420     4.2912     4.2903     4.4255  1443.7881     0.4105    -999.25     0.0025     0.0723     0.0100     0.0100 23246.9473     2.3692     4.4255    19.5854   212.2395     1.0000     1.0000     1.0000 -1370.2981    68.0240     0.0100     2.3692     6.0000
