~Version ---------------------------------------------------
VERS. 2.0 : CWLS log ASCII Standard -VERSION 2.0
WRAP.  NO : 
~Well ------------------------------------------------------
STRT.m                                                1171.1084 : 
STOP.m                                                  1705.88 : 
STEP.m                                                   0.1524 : 
NULL.                                                   -999.25 : 
COMP.                                                           : COMPANY
WELL.                                                   Well-12 : WELL
FLD .                                                           : FIELD
LOC .                                                           : LOCATION
SRVC.                                                           : SERVICE COMPANY
DATE. 2021-01-20 14:34:05   : Log Export Date {yyyy-MM-dd HH:mm : ss}
PROV.                                                           : PROVINCE
UWI .                                                   Well-12 : UNIQUE WELL ID
API .                                                           : API NUMBER
~Curve Information -----------------------------------------
DEPTH             .m        : DEPTH
ACOUSTICIMPEDANCE1.kPa.s/m  : ACOUSTICIMPEDANCE1
AI                .kPa.s/m  : AI
AVG_PIGN          .m3/m3    : AVG_PIGN
DT                .us/ft    : DT
FACIES            ._        : FACIES
FLD1              ._        : FLD1
GR                .gAPI     : GR
HDRS              .ohm.m    : HDRS
HMRS              .ohm.m    : HMRS
DEPTH_1           .m        : DEPTH_1
NPHI              .m3/m3    : NPHI
ONE-WAYTIME1      .ms       : ONE-WAYTIME1
PERF_INT          ._        : PERF_INT
PERMEABILITY      .mD       : PERMEABILITY
PIGN              .m3/m3    : PIGN
PIGN_MODELLING    .m3/m3    : PIGN_MODELLING
PIMP              .kPa.s/m  : PIMP
RHOB              .g/cm3    : RHOB
RT_MODELLING      .ohm.m    : RT_MODELLING
RT_POWER          .ohm.m    : RT_POWER
SP                .mV       : SP
SUWI              ._        : SUWI
SUWI_MODELLING    ._        : SUWI_MODELLING
SXWI              ._        : SXWI
TDVSS             .m        : TDVSS
TEMP              .K        : TEMP
VCL               .%        : VCL
WATER_VOL         ._        : WATER_VOL
ZLT               ._        : ZLT
~Params ----------------------------------------------------
~Other -----------------------------------------------------
~ASCII -----------------------------------------------------
# ...
  1487.3383  4409.9189 4409918.5000    -999.25   127.0635     3.0000     0.0000   137.2380     4.7915     4.2566  1487.3383     0.8214  -685.1656    -999.25     0.3353     0.0001     0.0100 14468.2373     1.8384     4.7915    22.9590    75.3182     1.0000     1.0000     1.0000 -1404.8583   162.8147    48.6489     0.0001     8.0000
  1487.4908  3676.9822 3676982.2500    -999.25   132.2409     3.0000     0.0000   129.1516     6.0124     5.8302  1487.4907     0.9069  -685.2401    -999.25     1.5421     0.0001     0.0100 12063.5898     1.5953     6.0124    36.1490    73.5395     1.0000     1.0000     1.0000 -1405.0107   162.8232    42.9840     0.0001     8.0000
  1487.6432  3499.5513 3499551.2500    -999.25   131.7950     3.0000     0.0000   127.7443     6.5550     6.6971  1487.6432     0.9491  -685.3144    -999.25     2.4811     0.0001     0.0100 11481.4668     1.5132     6.5550    42.9680    71.7287     1.0000     1.0000     1.0000 -1405.1632   162.8316    40.1380     0.0001     8.0000
  1487.7956  3652.0723 3652072.2500    -999.25   126.8417     3.0000     0.0000   131.8873     6.3924     6.7389  1487.7955     0.9484  -685.3887    -999.25     1.9122     0.0001     0.0100 11981.8643     1.5198     6.3924    40.8628    70.0157     1.0000     1.0000     1.0000 -1405.3156   162.8401    46.5000     0.0001     8.0000
  1487.9480  4333.0488 4333078.5000    -999.25   119.4285     3.0000     0.0000   137.9268     4.7497     4.8593  1487.9480     0.8538  -685.4630    -999.25     0.3645     0.0001     0.0100 14216.1357     1.6978     4.7497    22.5597    68.7843     1.0000     1.0000     1.0000 -1405.4680   162.8486    53.6420     0.0001     8.0000
  1488.1004  5502.3257 5502326.0000    -999.25   112.7671     0.0000     0.0000   143.3683     3.3172     3.4398  1488.1003     0.6997  -685.5374    -999.25     0.0095     0.0001     0.0100 18052.2500     2.0357     3.3172    11.0038    68.0339     1.0000     1.0000     1.0000 -1405.6204   162.8571    53.2130     0.0001     8.0000
  1488.2528  6487.1812 6487181.0000    -999.25   109.0897     0.0000     0.0000   147.7192     2.7845     2.9053  1488.2528     0.5744  -685.6117    -999.25     0.0898     0.0001     0.0100 21283.4023     2.3218     2.7845     7.7534    68.0922     1.0000     1.0000     1.0000 -1405.7728   162.8656    52.5910     0.0001     8.0000
  1488.4052  6846.2256 6846225.5000    -999.25   108.1145     0.0000     0.0000   151.3214     2.6174     2.7083  1488.4052     0.5206  -685.6860    -999.25     0.1891     0.0001     0.0100 22461.3691     2.4284     2.6174     6.8508    68.5451     1.0000     1.0000     1.0000 -1405.9252   162.8741    51.4440     0.0001     8.0000
  1488.5576  6771.3789 6771376.0000    -999.25   109.2645     0.0000     0.0000   154.2500     2.6363     2.7025  1488.5576     0.5093  -685.7603    -999.25     0.2134     0.0274     0.0274 22215.8008     2.4274     2.6363     6.9501    69.5557     1.0000     1.0000     1.0000 -1406.0775   162.8826    51.7070     0.0274     8.0000
  1488.7100  6530.3931 6530411.0000    -999.25   112.4565     0.0000     0.0000   156.3362     2.6851     2.7627  1488.7100     0.5149  -685.8347    -999.25     0.2009     0.0625     0.0625 21425.2324     2.4094     2.6851     7.2098    70.7892     1.0000     1.0000     1.0000 -1406.2300   162.8910    53.6690     0.0625     8.0000
  1488.8624  6198.1509 6198150.5000    -999.25   117.9387     0.0000     0.0000   157.4365     2.7044     2.8204  1488.8624     0.5108  -685.9090    -999.25     0.1869     0.0599     0.0599 20335.1406     2.3983     2.7044     7.3138    72.3733     1.0000     1.0000     1.0000 -1406.3823   162.8995    56.7530     0.0599     8.0000
  1489.0148  6064.5146 6064645.5000    -999.25   122.1107     0.0000     0.0000   157.2761     2.7158     2.8380  1489.0148     0.5280  -685.9833    -999.25     0.1267     0.0483     0.0483 19897.1309     2.4296     2.7158     7.3756    74.1606     1.0000     1.0000     1.0000 -1406.5348   162.9080    63.3680     0.0483     8.0000
  1489.1672  6373.4204 6373422.0000    -999.25   121.0703     0.0000     0.0000   155.7592     2.7517     2.8644  1489.1671     0.5393  -686.0576    -999.25     0.0669     0.0286     0.0286 20910.1777     2.5316     2.7517     7.5719    76.2613     1.0000     1.0000     1.0000 -1406.6871   162.9165    70.0390     0.0286     8.0000
  1489.3195  6889.2559 6889256.0000    -999.25   116.9087     0.0000     0.0000   153.6664     2.8534     2.9754  1489.3195     0.5214  -686.1319    -999.25     0.0379     0.0138     0.0138 22602.5449     2.6424     2.8534     8.1421    78.4364     1.0000     1.0000     1.0000 -1406.8395   162.9250    71.3542     0.0138     8.0000
  1489.4720  7137.1475 7137147.5000    -999.25   113.9656     0.0000     0.0000   152.7305     2.9758     3.0246  1489.4719     0.5005  -686.2063    -999.25     0.0706     0.0170     0.0170 23415.8379     2.6686     2.9758     8.8554    80.5109     1.0000     1.0000     1.0000 -1406.9919   162.9335    68.5560     0.0170     8.0000
  1489.6244  6856.6548 6856655.0000    -999.25   114.2313     0.0000     0.0000   154.5201     2.8569     2.7746  1489.6244     0.5366  -686.2806    -999.25     0.0909     0.0415     0.0415 22495.5879     2.5697     2.8569     8.1619    82.2108     1.0000     1.0000     1.0000 -1407.1444   162.9420    66.4640     0.0415     8.0000
  1489.7768  6344.4409 6344454.5000    -999.25   116.2426     0.0000     0.0000   159.0089     2.3561     2.3812  1489.7767     0.6122  -686.3549    -999.25     0.0252     0.0572     0.0572 20815.1387     2.4196     2.3561     5.5512    83.3251     1.0000     1.0000     1.0000 -1407.2968   162.9504    69.8680     0.0572     8.0000
  1489.9292  6089.9331 6089933.0000    -999.25   117.4669     0.0000     0.0000   164.4186     2.0017     2.1063  1489.9292     0.6735  -686.4293    -999.25     0.0057     0.0505     0.0505 19980.0957     2.3470     2.0017     4.0068    83.6735     1.0000     1.0000     1.0000 -1407.4492   162.9589    74.7770     0.0505     8.0000
  1490.0816  6011.4619 6011462.0000    -999.25   118.2245     0.0000     0.0000   168.1835     1.9118     1.9885  1490.0815     0.6777  -686.5036    -999.25     0.0047     0.0516     0.0516 19722.6445     2.3317     1.9118     3.6550    83.1608     1.0000     1.0000     1.0000 -1407.6016   162.9674    74.2140     0.0516     8.0000
  1490.2340  5725.0249 5725025.0000    -999.25   121.3924     0.0000     0.0000   168.0437     1.9841     1.9925  1490.2340     0.6715  -686.5779    -999.25     0.0051     0.0541     0.0541 18782.8906     2.2801     1.9841     3.9367    81.9621     1.0000     1.0000     1.0000 -1407.7540   162.9759    72.9360     0.0541     8.0000
  1490.3864  5374.1143 5374126.5000    -999.25   128.6723     0.0000     0.0000   163.1522     2.1520     2.1066  1490.3864     0.6936  -686.6523    -999.25     0.0038     0.0529     0.0529 17631.6484     2.2687     2.1520     4.6311    80.2458     1.0000     1.0000     1.0000 -1407.9064   162.9844    73.5490     0.0529     8.0000
  1490.5388  5126.9385 5126938.5000    -999.25   138.4012     0.0000     0.0000   154.9946     2.4066     2.3598  1490.5388     0.6702  -686.7266    -999.25     0.0147     0.0567     0.0567 16820.6641     2.3280     2.4066     5.7917    78.4350     1.0000     1.0000     1.0000 -1408.0587   162.9929    71.6580     0.0567     8.0000
  1490.6912  5051.7812 5051839.5000    -999.25   145.2388     0.0000     0.0000   147.3083     2.6615     2.6848  1490.6912     0.5933  -686.8009    -999.25     0.0603     0.0553     0.0553 16574.2773     2.4072     2.6615     7.0836    76.7708     1.0000     1.0000     1.0000 -1408.2112   163.0014    72.3250     0.0553     8.0000
  1490.8436  5303.4541 5303454.0000    -999.25   145.0018     0.0000     0.0000   143.2336     2.7554     2.8580  1490.8436     0.5545  -686.8752    -999.25     0.0829     0.0421     0.0421 17399.7832     2.5230     2.7554     7.5922    75.7392     1.0000     1.0000     1.0000 -1408.3635   163.0098    75.8610     0.0421     8.0000
  1490.9960  5726.9253 5726709.0000    -999.25   139.0219     0.0000     0.0000   142.9615     2.6603     2.7754  1490.9960     0.5260  -686.9496    -999.25     0.0935     0.0402     0.0402 18788.4160     2.6121     2.6603     7.0772    75.3344     1.0000     1.0000     1.0000 -1408.5160   163.0183    75.7700     0.0402     8.0000
