~Version ---------------------------------------------------
VERS. 2.0 : CWLS log ASCII Standard -VERSION 2.0
WRAP.  NO : 
~Well ------------------------------------------------------
STRT.m                                                1249.0292 : 
STOP.m                                                1575.3176 : 
STEP.m                                                   0.1524 : 
NULL.                                                   -999.25 : 
COMP.                                                           : COMPANY
WELL.                                                   Well-10 : WELL
FLD .                                                           : FIELD
LOC .                                                           : LOCATION
SRVC.                                                           : SERVICE COMPANY
DATE. 2021-01-20 14:34:04   : Log Export Date {yyyy-MM-dd HH:mm : ss}
PROV.                                                           : PROVINCE
UWI .                                                   Well-10 : UNIQUE WELL ID
API .                                                           : API NUMBER
~Curve Information -----------------------------------------
DEPTH             .m        : DEPTH
ACOUSTICIMPEDANCE1.kPa.s/m  : ACOUSTICIMPEDANCE1
AI                .kPa.s/m  : AI
AVG_PIGN          .m3/m3    : AVG_PIGN
CALI              .in       : CALI
CALI[DERIVED]1    .in       : CALI[DERIVED]1
DFL               .ohm.m    : DFL
DT                .us/ft    : DT
FACIES            ._        : FACIES
FLD1              ._        : FLD1
GR                .gAPI     : GR
HDRS              .ohm.m    : HDRS
HMRS              .ohm.m    : HMRS
DEPTH_1           .m        : DEPTH_1
NPHI              .m3/m3    : NPHI
PEF               .b/e      : PEF
PERF_INT          ._        : PERF_INT
PERMEABILITY      .mD       : PERMEABILITY
PHIT              .m3/m3    : PHIT
PIGN              .m3/m3    : PIGN
PIGN_MODELLING    .m3/m3    : PIGN_MODELLING
PIMP              .kPa.s/m  : PIMP
RHOB              .g/cm3    : RHOB
RT_MODELLING      .ohm.m    : RT_MODELLING
RT_POWER          .ohm.m    : RT_POWER
SP                .mV       : SP
SUWI              ._        : SUWI
SUWI_MODELLING    ._        : SUWI_MODELLING
SXWI              ._        : SXWI
TDVSS             .m        : TDVSS
TEMP              .K        : TEMP
VCL               .%        : VCL
WATER_VOL         ._        : WATER_VOL
ZLT               ._        : ZLT
~Params ----------------------------------------------------
~Other -----------------------------------------------------
~ASCII -----------------------------------------------------
# ...
  1463.6084  6731.0151 6731015.0000    -999.25     8.3292     8.3292     6.1164   114.5748     0.0000    -999.25    79.1170     4.3257     4.5303  1463.6084     0.5517     5.8477     1.0000    13.6754     0.0001     0.0001     0.0100 22083.3828     2.5302     6.1164    37.4103   132.6467     1.0000     1.0000     1.0000 -1383.6084   171.5449    75.8720     0.0001    16.0000
  1463.7608  6454.0186 6454019.0000    -999.25     8.3327     8.3327     5.8582   117.3103     0.0000    -999.25    77.7466     4.2372     4.4148  1463.7609     0.5596     5.6524     1.0000    17.9622     0.0001     0.0001     0.0100 21174.6016     2.4840     5.8582    34.3185   132.8508     1.0000     1.0000     1.0000 -1383.7609   171.5544    77.9270     0.0001    16.0000
  1463.9132  6232.6870 6232687.0000    -999.25     8.3353     8.3353     5.7129   119.1973     0.0000    -999.25    76.5848     4.1511     4.2894  1463.9132     0.5418     5.4821     1.0000    17.1477     0.0059     0.0059     0.0100 20448.4473     2.4374     5.7129    32.6372   132.9847     0.9871     0.9871     1.0000 -1383.9132   171.5640    76.3550     0.0058    16.0000
  1464.0656  6129.9185 6129918.5000    -999.25     8.3889     8.3889     5.7028   119.4305     0.0000    -999.25    76.5061     4.0986     4.2192  1464.0656     0.5287     5.3902     1.0000    16.0288     0.0171     0.0171     0.0171 20111.2812     2.4019     5.7028    32.5219   133.0208     0.9739     0.9739     1.0000 -1384.0656   171.5735    72.3670     0.0166    16.0000
  1464.2180  6133.8374 6133837.5000    -999.25     8.4640     8.4640     5.6317   118.3852     0.0000    -999.25    76.6268     4.0622     4.1828  1464.2180     0.5197     5.3285     1.0000    16.6612     0.0356     0.0356     0.0356 20124.1387     2.3824     5.6317    31.7160   133.1304     0.9609     0.9609     1.0000 -1384.2180   171.5830    65.9120     0.0342    16.0000
  1464.3704  6210.0347 6210034.5000    -999.25     8.5207     8.5207     5.4991   115.8479     4.0000    -999.25    76.2019     4.0195     4.1402  1464.3704     0.5128     5.2181     1.0000    17.2476     0.0667     0.0667     0.0667 20374.1289     2.3603     5.4991    30.2401   132.8792     0.9350     0.9350     1.0000 -1384.3704   171.5926    56.7350     0.0624    16.0000
  1464.5228  6380.8613 6380861.0000    -999.25     8.5492     8.5492     5.4090   111.6956     4.0000    -999.25    76.5825     3.9734     4.0880  1464.5228     0.5284     5.1002     1.0000    19.8934     0.1032     0.1032     0.1032 20934.5840     2.3383     5.4090    29.2573   132.6150     0.9055     0.9055     1.0000 -1384.5228   171.6021    46.8780     0.0934    16.0000
  1464.6752  6561.5049 6561505.0000    -999.25     8.5710     8.5710     5.2669   107.8169     4.0000    -999.25    78.1508     3.9597     4.0611  1464.6752     0.5449     5.0090     1.0000    22.3413     0.1284     0.1284     0.1284 21527.2461     2.3210     5.2669    27.7402   132.7191     0.8843     0.8843     1.0000 -1384.6752   171.6116    40.6550     0.1135    16.0000
  1464.8276  6561.0903 6561090.5000    -999.25     8.5906     8.5906     5.1898   107.2848     4.0000    -999.25    79.9379     3.9663     4.0600  1464.8276     0.5509     4.9378     1.0000    20.3717     0.1289     0.1289     0.1289 21525.8867     2.3094     5.1898    26.9340   132.7730     0.8766     0.8766     1.0000 -1384.8276   171.6212    41.0800     0.1130    16.0000
  1464.9800  6363.2329 6363232.5000    -999.25     8.5728     8.5728     5.2054   110.5297     4.0000    -999.25    82.1119     3.9834     4.0859  1464.9800     0.5323     4.8934     1.0000    15.6638     0.1110     0.1110     0.1110 20876.7480     2.3075     5.2054    27.0962   132.9190     0.8774     0.8774     0.9959 -1384.9800   171.6307    46.3180     0.0974    16.0000
  1465.1324  6136.6533 6136653.5000    -999.25     8.5824     8.5824     5.3035   114.6703     4.0000    -999.25    84.2896     4.0221     4.1458  1465.1324     0.5126     4.8677     1.0000    14.3669     0.0933     0.0933     0.0933 20133.3770     2.3087     5.3035    28.1271   133.0899     0.8716     0.8716     0.9850 -1385.1324   171.6402    52.2540     0.0813    16.0000
  1465.2848  5997.5659 5997566.0000    -999.25     8.5844     8.5844     5.3701   117.3448     4.0000    -999.25    84.6107     4.0673     4.2089  1465.2848     0.5137     4.8407     1.0000    17.4464     0.0883     0.0883     0.0883 19677.0547     2.3090     5.3701    28.8380   133.1314     0.8546     0.8546     0.9891 -1385.2848   171.6498    55.8140     0.0754    16.0000
  1465.4372  6007.7041 6007704.5000    -999.25     8.5769     8.5769     5.3936   117.0960     4.0000    -999.25    82.8053     4.1020     4.2428  1465.4373     0.5375     4.8222     1.0000    22.7897     0.0960     0.0960     0.0960 19710.3164     2.3080     5.3936    29.0909   133.0194     0.8389     0.8389     0.9978 -1385.4373   171.6593    54.6900     0.0805    16.0000
  1465.5896  6145.0293 6145029.5000    -999.25     8.5297     8.5297     5.4158   114.4693     4.0000    -999.25    80.2556     4.1727     4.3004  1465.5896     0.5466     4.8204     1.0000    24.7124     0.1090     0.1090     0.1090 20160.8574     2.3078     5.4158    29.3309   132.5065     0.8360     0.8360     1.0000 -1385.5896   171.6688    49.5320     0.0911    16.0000
  1465.7420  6326.0156 6326015.5000    -999.25     8.4705     8.4705     5.5248   111.2185     4.0000    -999.25    77.7164     4.3277     4.4425  1465.7421     0.5391     4.8258     1.0000    22.1507     0.1182     0.1182     0.1182 20754.6445     2.3083     5.5248    30.5234   131.9729     0.8575     0.8575     1.0000 -1385.7421   171.6784    42.5490     0.1014    16.0000
  1465.8944  6491.2910 6491291.0000    -999.25     8.4202     8.4202     5.8124   108.4760     4.0000    -999.25    75.6922     4.5106     4.6157  1465.8944     0.5032     4.8392     1.0000    15.9483     0.1216     0.1216     0.1216 21296.8867     2.3102     5.8124    33.7840   131.4943     0.8852     0.8852     0.9991 -1385.8944   171.6879    37.4290     0.1077    16.0000
  1466.0468  6584.8018 6584802.0000    -999.25     8.3828     8.3828     6.0071   107.1438     4.0000    -999.25    75.3638     4.5464     4.6609  1466.0468     0.4926     4.8587     1.0000    14.3696     0.1208     0.1208     0.1208 21603.6797     2.3147     6.0071    36.0853   130.7347     0.9001     0.9001     0.9992 -1386.0468   171.6974    36.3770     0.1088    16.0000
  1466.1992  6575.3770 6575377.0000    -999.25     8.3795     8.3795     5.9229   107.4596     4.0000    -999.25    76.2813     4.4204     4.5535  1466.1992     0.4986     4.8835     1.0000    15.4627     0.1178     0.1178     0.1178 21572.7578     2.3182     5.9229    35.0807   130.1863     0.8969     0.8969     0.9998 -1386.1992   171.7070    38.6640     0.1056    16.0000
  1466.3516  6520.1831 6520183.0000    -999.25     8.3792     8.3792     5.7327   108.5235     4.0000    -999.25    76.9104     4.2964     4.4335  1466.3516     0.5176     4.9203     1.0000    16.7527     0.1117     0.1117     0.1117 21391.6758     2.3215     5.7327    32.8638   129.8312     0.9013     0.9013     1.0000 -1386.3516   171.7165    40.9890     0.1006    16.0000
  1466.5040  6481.7412 6481741.5000    -999.25     8.3895     8.3895     5.5543   109.3317     4.0000    -999.25    77.1883     4.2468     4.3830  1466.5040     0.5030     4.9974     1.0000    15.6302     0.1073     0.1073     0.1073 21265.5547     2.3250     5.5543    30.8502   129.4416     0.8977     0.8977     1.0000 -1386.5040   171.7260    42.9070     0.0963    16.0000
  1466.6564  6478.3164 6478316.5000    -999.25     8.3659     8.3659     5.5256   109.5777     4.0000    -999.25    76.9286     4.2865     4.4197  1466.6564     0.5212     5.1289     1.0000    20.1059     0.1095     0.1095     0.1095 21254.3184     2.3290     5.5256    30.5323   129.1138     0.8718     0.8718     1.0000 -1386.6564   171.7356    44.3430     0.0955    16.0000
  1466.8088  6497.9800 6497980.0000    -999.25     8.3602     8.3602     5.7205   109.5276     4.0000    -999.25    75.6122     4.3843     4.4991  1466.8088     0.5390     5.3027     1.0000    25.1662     0.1163     0.1163     0.1163 21318.8320     2.3350     5.7205    32.7241   128.7821     0.8385     0.8385     1.0000 -1386.8088   171.7451    45.2110     0.0975    16.0000
