~Version ---------------------------------------------------
VERS. 2.0 : CWLS log ASCII Standard -VERSION 2.0
WRAP.  NO : 
~Well ------------------------------------------------------
STRT.m                                                1290.3698 : 
STOP.m                                                1526.7422 : 
STEP.m                                                   0.1524 : 
NULL.                                                   -999.25 : 
COMP.                                                           : COMPANY
WELL.                                                   Well-18 : WELL
FLD .                                                           : FIELD
LOC .                                                           : LOCATION
SRVC.                                                           : SERVICE COMPANY
DATE. 2021-01-20 14:34:10   : Log Export Date {yyyy-MM-dd HH:mm : ss}
PROV.                                                           : PROVINCE
UWI .                                                   Well-18 : UNIQUE WELL ID
API .                                                           : API NUMBER
~Curve Information -----------------------------------------
DEPTH             .m        : DEPTH
ACOUSTICIMPEDANCE1.kPa.s/m  : ACOUSTICIMPEDANCE1
AI                .kPa.s/m  : AI
AVG_PIGN          .m3/m3    : AVG_PIGN
BS                .in       : BS
CALI              .in       : CALI
CALI[DERIVED]1    .in       : CALI[DERIVED]1
DT                .us/ft    : DT
FACIES            ._        : FACIES
FLD1              ._        : FLD1
GR                .gAPI     : GR
DEPTH_1           .m        : DEPTH_1
NPHI              .m3/m3    : NPHI
PEF               .b/e      : PEF
PERF_INT          ._        : PERF_INT
PHIT              .m3/m3    : PHIT
PIGN              .m3/m3    : PIGN
PIGN_MODELLING    .m3/m3    : PIGN_MODELLING
PIMP              .kPa.s/m  : PIMP
RHOB              .g/cm3    : RHOB
LLD               .ohm.m    : LLD
RT_MODELLING      .ohm.m    : RT_MODELLING
RT_POWER          .ohm.m    : RT_POWER
RXO               .ohm.m    : RXO
SP                .mV       : SP
SUWI              ._        : SUWI
SUWI_MODELLING    ._        : SUWI_MODELLING
SXWI              ._        : SXWI
TDVSS             .m        : TDVSS
TEMP              .K        : TEMP
VCL               .%        : VCL
WATER_VOL         ._        : WATER_VOL
ZLT               ._        : ZLT
~Params ----------------------------------------------------
~Other -----------------------------------------------------
~ASCII -----------------------------------------------------
# ...
  1384.2482  6879.5967 6879597.0000    -999.25     8.5000     8.6257     8.6257   107.5059     0.0000    -999.25   109.9557  1384.2482     0.4068     4.4557    -999.25     0.1424     0.0238     0.0238 22570.8555     2.4265     2.6477     2.6477     7.0106     2.3298   -61.9375     1.0000     1.0000     1.0000 -1291.6509   158.7230    59.2630     0.0238     2.0000
  1384.4006  6566.5029 6566503.0000    -999.25     8.5000     8.5867     8.5867   112.7293     0.0000    -999.25   104.3291  1384.4006     0.4067     4.6412    -999.25     0.1448     0.0253     0.0253 21543.6445     2.4286     2.9299     2.9299     8.5845     2.0856   -61.4375     1.0000     1.0000     1.0000 -1291.8011   158.7316    59.7290     0.0253     2.0000
  1384.5530  6913.9097 6913909.5000    -999.25     8.5000     8.5546     8.5546   111.7115     0.0000    -999.25    97.5224  1384.5530     0.3830     5.3493    -999.25     0.1426     0.0282     0.0282 22683.4297     2.5340     3.0469     3.0469     9.2835     1.9056   -60.9375     1.0000     1.0000     1.0000 -1291.9514   158.7403    57.1970     0.0282     2.0000
  1384.7054  7480.7227 7480723.0000    -999.25     8.5000     8.4972     8.4972   109.9415     0.0000    -999.25    94.9132  1384.7054     0.3824     7.0590    -999.25     0.1370     0.0297     0.0297 24543.0547     2.6983     2.9853     2.9853     8.9118     3.3347   -60.3750     1.0000     1.0000     1.0000 -1292.1018   158.7490    53.6580     0.0297     2.0000
  1384.8578  7879.0688 7879069.0000    -999.25     8.5000     8.4903     8.4903   107.0253     0.0000    -999.25   101.4175  1384.8578     0.3826     6.4399    -999.25     0.1353     0.0270     0.0270 25849.9648     2.7666     3.0236     3.0236     9.1420     1.8470   -59.8125     1.0000     1.0000     1.0000 -1292.2521   158.7576    54.1630     0.0270     2.0000
  1385.0102  7352.2817 7352282.0000    -999.25     8.5000     8.4949     8.4949   106.2489     0.0000    -999.25   108.4700  1385.0103     0.3882     5.6586    -999.25     0.1418     0.0226     0.0226 24121.6602     2.5629     2.9855     2.9855     8.9130     1.5090   -58.1250     1.0000     1.0000     1.0000 -1292.4023   158.7663    59.5630     0.0226     2.0000
  1385.1626  6947.3037 6947303.5000    -999.25     8.5000     8.4995     8.4995   107.1689     0.0000    -999.25   110.2427  1385.1626     0.3691     5.0156    -999.25     0.1464     0.0214     0.0214 22792.9902     2.4427     2.4364     2.4364     5.9361     1.5573   -56.6875     1.0000     1.0000     1.0000 -1292.5527   158.7750    62.4980     0.0214     2.0000
  1385.3150  6928.9336 6928934.0000    -999.25     8.5000     8.4563     8.4563   105.9398     0.0000    -999.25   102.6893  1385.3151     0.3598     5.0992    -999.25     0.1535     0.0296     0.0296 22732.7227     2.4083     2.3448     2.3448     5.4979     2.2474   -54.3125     1.0000     1.0000     1.0000 -1292.7030   158.7836    61.9600     0.0296     2.0000
  1385.4674  6806.9941 6806994.0000    -999.25     8.5000     8.3537     8.3537   108.3167     0.0000    -999.25    91.4390  1385.4674     0.3666     5.3675    -999.25     0.1536     0.0396     0.0396 22332.6582     2.4190     2.7226     2.7226     7.4124     0.7642   -52.0000     1.0000     1.0000     1.0000 -1292.8533   158.7923    56.9890     0.0396     2.0000
  1385.6198  7571.7710 7571771.0000    -999.25     8.5000     8.3242     8.3242   101.8285     0.0000    -999.25    80.6368  1385.6199     0.3240     6.5849    -999.25     0.1278     0.0295     0.0295 24841.7676     2.5296     3.3227     3.3227    11.0402     0.8966   -51.5625     1.0000     1.0000     1.0000 -1293.0037   158.8010    49.1410     0.0295     2.0000
  1385.7722  8388.8271 8388827.0000    -999.25     8.5000     8.4766     8.4766    99.0793     0.0000    -999.25    74.4522  1385.7722     0.2831     9.7210    -999.25     0.1094     0.0236     0.0236 27522.3965     2.7269     4.3468     4.3468    18.8943     5.9644   -52.5625     1.0000     1.0000     1.0000 -1293.1539   158.8096    42.8560     0.0236     2.0000
  1385.9246  8751.3008 8751301.0000    -999.25     8.5000     8.5202     8.5202    99.9247     0.0000    -999.25    79.1726  1385.9247     0.2674     7.4060    -999.25     0.1105     0.0284     0.0284 28711.6172     2.8690     5.5995     5.5995    31.3546     5.6689   -53.7500     1.0000     1.0000     1.0000 -1293.3042   158.8183    41.0590     0.0284     2.0000
  1386.0770  8207.5771 8207577.5000    -999.25     8.5000     8.6028     8.6028    98.5192     0.0000    -999.25    88.5061  1386.0770     0.3187     5.8353    -999.25     0.1277     0.0261     0.0261 26927.7480     2.6529     4.4928     4.4928    20.1850     3.8415   -54.8750     1.0000     1.0000     1.0000 -1293.4546   158.8270    50.7700     0.0261     2.0000
  1386.2294  6785.7720 6785772.0000    -999.25     8.5000     8.6395     8.6395   112.6082     0.0000    -999.25    99.8030  1386.2294     0.3553     4.7805    -999.25     0.1428     0.0250     0.0250 22263.0312     2.5070     3.4304     3.4304    11.7678     1.7263   -56.0000     1.0000     1.0000     1.0000 -1293.6049   158.8356    58.9230     0.0250     2.0000
  1386.3818  6720.3462 6720346.5000    -999.25     8.5000     8.6395     8.6395   111.1873     0.0000    -999.25   103.7583  1386.3818     0.3863     4.3552    -999.25     0.1421     0.0253     0.0253 22048.3809     2.4515     3.0474     3.0474     9.2869     1.9124   -56.8125     1.0000     1.0000     1.0000 -1293.7552   158.8443    58.3930     0.0253     2.0000
  1386.5342  6644.8882 6644888.0000    -999.25     8.5000     8.6257     8.6257   114.3306     0.0000    -999.25   106.1027  1386.5342     0.3892     4.1422    -999.25     0.1409     0.0258     0.0258 21800.8145     2.4925     3.0162     3.0162     9.0977     2.5997   -57.0625     1.0000     1.0000     1.0000 -1293.9055   158.8530    57.5500     0.0258     2.0000
  1386.6866  6596.0586 6596058.5000    -999.25     8.5000     8.5756     8.5756   115.3387     0.0000    -999.25   107.7098  1386.6866     0.4141     4.4309    -999.25     0.1386     0.0237     0.0237 21640.6113     2.4960     3.1483     3.1483     9.9117     2.9912   -57.3750     1.0000     1.0000     1.0000 -1294.0558   158.8616    57.4070     0.0237     2.0000
  1386.8390  6580.1499 6580150.0000    -999.25     8.5000     8.6074     8.6074   113.3015     0.0000    -999.25   108.3510  1386.8390     0.4325     4.8860    -999.25     0.1409     0.0228     0.0228 21588.4180     2.4460     3.2204     3.2204    10.3707     2.2360   -57.8750     1.0000     1.0000     1.0000 -1294.2062   158.8703    59.0490     0.0228     2.0000
  1386.9914  6427.6699 6427670.0000    -999.25     8.5000     8.5913     8.5913   113.3053     0.0000    -999.25   109.2905  1386.9915     0.4467     4.7778    -999.25     0.1456     0.0246     0.0246 21088.1562     2.3894     3.1683     3.1683    10.0379     2.0907   -58.1875     1.0000     1.0000     1.0000 -1294.3564   158.8790    60.4940     0.0246     2.0000
  1387.1438  6320.4580 6320458.0000    -999.25     8.5000     8.5500     8.5500   115.0826     0.0000    -999.25   109.2817  1387.1438     0.4385     4.2971    -999.25     0.1458     0.0266     0.0266 20736.4102     2.3864     3.2181     3.2181    10.3564     2.4277   -58.1250     1.0000     1.0000     1.0000 -1294.5067   158.8876    59.6320     0.0266     2.0000
  1387.2962  6385.6846 6385684.5000    -999.25     8.5000     8.5546     8.5546   114.7949     0.0000    -999.25   109.6057  1387.2963     0.4207     3.8333    -999.25     0.1409     0.0270     0.0270 20950.4082     2.4050     3.4362     3.4362    11.8072     2.7840   -58.2500     1.0000     1.0000     1.0000 -1294.6571   158.8963    56.9800     0.0270     2.0000
  1387.4486  6594.7935 6594793.5000    -999.25     8.5000     8.5798     8.5798   112.1995     0.0000    -999.25   110.8909  1387.4486     0.4254     3.9093    -999.25     0.1367     0.0262     0.0262 21636.4609     2.4276     3.4947     3.4947    12.2129     2.7929   -58.3125     1.0000     1.0000     1.0000 -1294.8074   158.9050    55.2580     0.0262     2.0000
