~Version ---------------------------------------------------
VERS. 2.0 : CWLS log ASCII Standard -VERSION 2.0
WRAP.  NO : 
~Well ------------------------------------------------------
STRT.m                                                1290.3698 : 
STOP.m                                                1526.7422 : 
STEP.m                                                   0.1524 : 
NULL.                                                   -999.25 : 
COMP.                                                           : COMPANY
WELL.                                                   Well-18 : WELL
FLD .                                                           : FIELD
LOC .                                                           : LOCATION
SRVC.                                                           : SERVICE COMPANY
DATE. 2021-01-20 14:34:10   : Log Export Date {yyyy-MM-dd HH:mm : ss}
PROV.                                                           : PROVINCE
UWI .                                                   Well-18 : UNIQUE WELL ID
API .                                                           : API NUMBER
~Curve Information -----------------------------------------
DEPTH             .m        : DEPTH
ACOUSTICIMPEDANCE1.kPa.s/m  : ACOUSTICIMPEDANCE1
AI                .kPa.s/m  : AI
AVG_PIGN          .m3/m3    : AVG_PIGN
BS                .in       : BS
CALI              .in       : CALI
CALI[DERIVED]1    .in       : CALI[DERIVED]1
DT                .us/ft    : DT
FACIES            ._        : FACIES
FLD1              ._        : FLD1
GR                .gAPI     : GR
DEPTH_1           .m        : DEPTH_1
NPHI              .m3/m3    : NPHI
PEF               .b/e      : PEF
PERF_INT          ._        : PERF_INT
PHIT              .m3/m3    : PHIT
PIGN              .m3/m3    : PIGN
PIGN_MODELLING    .m3/m3    : PIGN_MODELLING
PIMP              .kPa.s/m  : PIMP
RHOB              .g/cm3    : RHOB
LLD               .ohm.m    : LLD
RT_MODELLING      .ohm.m    : RT_MODELLING
RT_POWER          .ohm.m    : RT_POWER
RXO               .ohm.m    : RXO
SP                .mV       : SP
SUWI              ._        : SUWI
SUWI_MODELLING    ._        : SUWI_MODELLING
SXWI              ._        : SXWI
TDVSS             .m        : TDVSS
TEMP              .K        : TEMP
VCL               .%        : VCL
WATER_VOL         ._        : WATER_VOL
ZLT               ._        : ZLT
~Params ----------------------------------------------------
~Other -----------------------------------------------------
~ASCII -----------------------------------------------------
# ...
  1447.9514  7915.5420 7915541.5000    -999.25     8.5000     8.6991     8.6991    98.8790     0.0000    -999.25    84.6968  1447.9514     0.4389     7.1845    -999.25     0.1716     0.0902     0.0902 25969.6250     2.5679     6.7378     6.7378    45.3978     2.8477   -61.2500     1.0000     1.0000     1.0000 -1354.4813   162.3458    40.7360     0.0902    12.0000
  1448.1038  7231.3975 7231397.5000    -999.25     8.5000     8.7271     8.7271   103.2086     0.0000    -999.25   101.1937  1448.1039     0.4817     5.9807    -999.25     0.1783     0.0836     0.0836 23725.0566     2.4486     4.6194     4.6194    21.3388     2.7898   -61.3125     1.0000     1.0000     1.0000 -1354.6316   162.3545    47.3350     0.0836    12.0000
  1448.2562  7112.6255 7112625.5000    -999.25     8.5000     8.7905     8.7905   103.6490     0.0000    -999.25   116.5190  1448.2562     0.4908     5.0062    -999.25     0.1706     0.0611     0.0611 23335.3848     2.4187     4.0078     4.0078    16.0625     2.7662   -61.6250     1.0000     1.0000     1.0000 -1354.7820   162.3631    54.7590     0.0611    12.0000
  1448.4086  6885.2388 6885239.0000    -999.25     8.5000     8.7886     8.7886   107.8144     0.0000    -999.25   130.5802  1448.4086     0.4663     4.5099    -999.25     0.1760     0.0510     0.0510 22589.3672     2.4355     3.5651     3.5651    12.7097     2.4849   -62.0625     1.0000     1.0000     1.0000 -1354.9323   162.3718    62.5170     0.0510    12.0000
  1448.5610  6543.2139 6543214.0000    -999.25     8.5000     8.7886     8.7886   111.3581     0.0000    -999.25   134.4390  1448.5610     0.4383     4.4632    -999.25     0.1868     0.0569     0.0569 21467.2383     2.3906     2.8973     2.8973     8.3944     1.9990   -62.4375     1.0000     1.0000     1.0000 -1355.0826   162.3805    64.9410     0.0569    12.0000
  1448.7134  6203.9106 6203910.5000    -999.25     8.5000     8.8781     8.8781   113.3652     0.0000    -999.25   132.5152  1448.7134     0.4232     5.1229    -999.25     0.1838     0.0695     0.0695 20354.0371     2.3074     2.6590     2.6590     7.0703     1.3054   -62.6875     1.0000     1.0000     1.0000 -1355.2329   162.3891    57.1560     0.0695    12.0000
  1448.8658  6338.7310 6338731.0000    -999.25     8.5000     9.2863     9.2863   108.3132     0.0000    -999.25   123.5695  1448.8658     0.4464     6.0813    -999.25     0.1812     0.0822     0.0822 20796.3613     2.2525     2.5925     2.5925     6.7209     0.4790   -62.6875     1.0000     1.0000     1.0000 -1355.3832   162.3978    49.5080     0.0822    12.0000
  1449.0182  6360.7314 6360731.5000    -999.25     8.5000     9.0160     9.0160   108.6789     0.0000    -999.25   109.8341  1449.0182     0.4696     6.5810    -999.25     0.1825     0.0790     0.0790 20868.5430     2.2680     2.8172     2.8172     7.9367     0.7762   -62.7500     1.0000     1.0000     1.0000 -1355.5336   162.4065    51.7510     0.0790    12.0000
  1449.1706  6516.7051 6516705.0000    -999.25     8.5000     8.7755     8.7755   109.6114     0.0000    -999.25    99.4130  1449.1707     0.4882     6.2815    -999.25     0.1831     0.0797     0.0797 21380.2656     2.3435     3.1057     3.1057     9.6451     1.7150   -62.8750     1.0000     1.0000     1.0000 -1355.6838   162.4151    51.7110     0.0797    12.0000
  1449.3230  6975.3267 6975326.5000    -999.25     8.5000     8.6488     8.6488   106.5649     0.0000    -999.25    93.4876  1449.3230     0.4719     6.0493    -999.25     0.1761     0.0714     0.0714 22884.9297     2.4387     4.1522     4.1522    17.2412     3.2823   -63.0000     1.0000     1.0000     1.0000 -1355.8341   162.4238    52.3190     0.0714    12.0000
  1449.4754  7372.3330 7372333.0000    -999.25     8.5000     8.6134     8.6134   105.6755     0.0000    -999.25    94.1382  1449.4755     0.4491     6.8759    -999.25     0.1537     0.0494     0.0494 24187.4434     2.5560     4.9275     4.9275    24.2805     2.9983   -63.1250     1.0000     1.0000     1.0000 -1355.9845   162.4325    52.1710     0.0494    12.0000
  1449.6278  8065.0244 8065024.5000    -999.25     8.5000     8.6096     8.6096    97.2787     0.0000    -999.25   100.0556  1449.6278     0.4218     5.7499    -999.25     0.1414     0.0436     0.0436 26460.0547     2.5740     4.8530     4.8530    23.5520     4.8763   -63.1875     1.0000     1.0000     1.0000 -1356.1348   162.4411    48.9030     0.0436    12.0000
  1449.7802  7736.1396 7736139.5000    -999.25     8.5000     8.6096     8.6096    98.3727     0.0000    -999.25   116.6465  1449.7803     0.4254     5.1221    -999.25     0.1535     0.0637     0.0637 25381.0352     2.4968     4.1690     4.1690    17.3803     3.8932   -63.1875     1.0000     1.0000     1.0000 -1356.2850   162.4498    44.9340     0.0637    12.0000
  1449.9326  7481.2861 7481286.0000    -999.25     8.5000     8.6115     8.6115    98.0142     0.0000    -999.25   137.1754  1449.9326     0.4277     4.5762    -999.25     0.1632     0.0873     0.0873 24544.9023     2.4058     3.5776     3.5776    12.7993     2.0370   -63.2500     1.0000     1.0000     1.0000 -1356.4354   162.4585    37.9630     0.0873    12.0000
  1450.0850  7702.4360 7702436.0000    -999.25     8.5000     8.6096     8.6096    94.4340     0.0000    -999.25   141.7027  1450.0851     0.4461     4.5223    -999.25     0.1572     0.0791     0.0791 25270.4590     2.3864     3.3968     3.3968    11.5383     2.1575   -63.3750     1.0000     1.0000     1.0000 -1356.5859   162.4671    39.0260     0.0791    12.0000
  1450.2374  7842.6816 7842682.0000    -999.25     8.5000     8.6171     8.6171    95.3589     0.0000    -999.25   136.5182  1450.2374     0.4635     4.6220    -999.25     0.1413     0.0453     0.0453 25730.5840     2.4536     3.8371     3.8371    14.7236     2.2920   -63.0625     1.0000     1.0000     1.0000 -1356.7366   162.4758    48.0240     0.0453    12.0000
  1450.3898  8255.6621 8255662.5000    -999.25     8.5000     8.5929     8.5929    96.1913     0.0000    -999.25   125.9540  1450.3898     0.4610     5.8092    -999.25     0.1313     0.0246     0.0246 27085.5059     2.6054     4.5395     4.5395    20.6067     2.4019   -63.0000     1.0000     1.0000     1.0000 -1356.8872   162.4845    53.3320     0.0246    12.0000
  1450.5422  8635.6426 8635642.0000    -999.25     8.5000     8.5742     8.5742    96.7681     0.0000    -999.25   123.4580  1450.5422     0.4659     7.0610    -999.25     0.1272     0.0221     0.0221 28332.1602     2.7416     5.3460     5.3460    28.5797     5.5595   -63.1875     1.0000     1.0000     1.0000 -1357.0378   162.4931    52.5710     0.0221    12.0000
  1450.6946  8551.2031 8551203.0000    -999.25     8.5000     8.5500     8.5500    96.8949     0.0000    -999.25   118.9031  1450.6946     0.4353     7.8821    -999.25     0.1305     0.0250     0.0250 28055.1270     2.7184     6.8857     6.8857    47.4129     2.9843   -63.1875     1.0000     1.0000     1.0000 -1357.1886   162.5018    52.7650     0.0250    12.0000
  1450.8470  8055.5625 8055562.5000    -999.25     8.5000     8.5500     8.5500    99.7896     0.0000    -999.25   113.1368  1450.8470     0.4111     7.6939    -999.25     0.1425     0.0322     0.0322 26429.0098     2.6373     5.9695     5.9695    35.6352     3.6729   -63.2500     1.0000     1.0000     1.0000 -1357.3392   162.5105    55.1290     0.0322    12.0000
  1450.9994  7677.3682 7677368.0000    -999.25     8.5000     8.5295     8.5295   101.4895     0.0000    -999.25   114.6978  1450.9994     0.3988     7.0683    -999.25     0.1594     0.0510     0.0510 25188.2148     2.5563     5.1690     5.1690    26.7185     4.4951   -63.2500     1.0000     1.0000     1.0000 -1357.4899   162.5191    54.2340     0.0510    12.0000
  1451.1518  7067.3501 7067350.0000    -999.25     8.5000     8.5015     8.5015   105.6237     0.0000    -999.25   124.5218  1451.1519     0.4367     6.5683    -999.25     0.1765     0.0703     0.0703 23186.8438     2.4491     4.7438     4.7438    22.5033     2.8903   -63.5000     1.0000     1.0000     1.0000 -1357.6405   162.5278    53.0940     0.0703    12.0000
