~Version ---------------------------------------------------
VERS. 2.0 : CWLS log ASCII Standard -VERSION 2.0
WRAP.  NO : 
~Well ------------------------------------------------------
STRT.m                                                   1260.0 : 
STOP.m                                                1659.7452 : 
STEP.m                                                   0.1524 : 
NULL.                                                   -999.25 : 
COMP.                                                           : COMPANY
WELL.                                                    Well-6 : WELL
FLD .                                                           : FIELD
LOC .                                                           : LOCATION
SRVC.                                                           : SERVICE COMPANY
DATE. 2021-01-20 14:34:00   : Log Export Date {yyyy-MM-dd HH:mm : ss}
PROV.                                                           : PROVINCE
UWI .                                                    Well-6 : UNIQUE WELL ID
API .                                                           : API NUMBER
~Curve Information -----------------------------------------
DEPTH             .m        : DEPTH
ACOUSTICIMPEDANCE1.kPa.s/m  : ACOUSTICIMPEDANCE1
AI                .kPa.s/m  : AI
AVG_PIGN          .m3/m3    : AVG_PIGN
CALI              .in       : CALI
CALI[DERIVED]1    .in       : CALI[DERIVED]1
DT                .us/ft    : DT
FACIES            ._        : FACIES
FLD1              ._        : FLD1
GR                .gAPI     : GR
LLD               .ohm.m    : LLD
LLS               .ohm.m    : LLS
LL3               .ohm.m    : LL3
DEPTH_1           .m        : DEPTH_1
NPHI              .m3/m3    : NPHI
ONE-WAYTIME1      .ms       : ONE-WAYTIME1
PERF_INT          ._        : PERF_INT
PERMEABILITY      .mD       : PERMEABILITY
PHIT              .m3/m3    : PHIT
PIGE              .m3/m3    : PIGE
PIGN              .m3/m3    : PIGN
PIGN_MODELLING    .m3/m3    : PIGN_MODELLING
PIMP              .kPa.s/m  : PIMP
RHOB              .g/cm3    : RHOB
LLD_1             .ohm.m    : LLD_1
RT_MODELLING      .ohm.m    : RT_MODELLING
RT_POWER          .ohm.m    : RT_POWER
SP                .mV       : SP
SUWI              ._        : SUWI
SUWI_MODELLING    ._        : SUWI_MODELLING
SXWI              ._        : SXWI
TDVSS             .m        : TDVSS
VCL               .%        : VCL
WATER_VOL         ._        : WATER_VOL
ZLT               ._        : ZLT
~Params ----------------------------------------------------
~Other -----------------------------------------------------
~ASCII -----------------------------------------------------
# ...
  1658.4172  5383.3755 5383375.5000    -999.25    10.0356    10.0356   125.7840     0.0000    -999.25     0.0000     6.0002     1.6380     2.2306    -999.25    -0.0370  -762.6724    -999.25    -999.25     0.1381     0.1381     0.1381     0.1381 17661.9922     2.2216     6.0110     6.0002    44.1533    20.2109     1.0000     1.0000     1.0000 -1580.7172     0.0010     0.1381    -999.25
  1658.5260  5325.8760 5338333.0000    -999.25    10.1119    10.1119   125.7761     0.0000    -999.25     0.0000    10.5101     1.6297     2.2697    -999.25    -0.0370  -762.7249    -999.25    -999.25     0.1326     0.1326     0.1326     0.1326 17514.2168     2.1977    10.5323    10.5101   110.4626    15.9773     1.0000     1.0000     1.0000 -1580.8259     0.0010     0.1326    -999.25
  1658.5697  5320.2417 5320241.5000    -999.25    10.1680    10.1680   125.7730     0.0000    -999.25     0.0000    24.2994     1.6175     2.2631    -999.25    -0.0372  -762.7460    -999.25    -999.25     0.1320     0.1319     0.1319     0.1319 17454.8613     2.1954    24.3666    24.2994  1063.4303    14.4310     1.0000     1.0000     1.0000 -1580.8696     0.0010     0.1319    -999.25
  1658.6784  5308.9678 5329973.0000    -999.25    10.3075    10.3075   125.7002     0.0000    -999.25     0.0000    58.5991     1.5870     2.2466    -999.25    -0.0377  -762.7985    -999.25    -999.25     0.1304     0.1304     0.1304     0.1304 17486.7871     2.1894    58.7782    58.5991  3433.8557    10.5845     1.0000     1.0000     1.0000 -1580.9784     0.0010     0.1304    -999.25
  1658.7220  5333.8760 5333876.0000    -999.25    10.3550    10.3550   125.6710     0.0000    -999.25     0.0000    64.7997     1.5757     2.2236    -999.25    -0.0378  -762.8195    -999.25    -999.25     0.1304     0.1304     0.1304     0.1304 17499.5938     2.1992    64.9313    64.7997  4294.9453     9.3166     1.0000     1.0000     1.0000 -1581.0220     0.0010     0.1304    -999.25
  1658.8308  5405.5371 5423385.5000    -999.25    10.4738    10.4738   125.3785     0.0000    -999.25     0.0000    80.2728     1.5473     2.1662    -999.25    -0.0380  -762.8720    -999.25    -999.25     0.1304     0.1304     0.1304     0.1304 17793.2598     2.2236    80.2857    80.2728  6443.7192     6.1527     1.0000     1.0000     1.0000 -1581.1307     0.0010     0.1304    -999.25
  1658.8745  5459.3374 5459337.5000    -999.25    10.2078    10.2078   125.2610     0.0000    -999.25     0.0000    90.3740     1.5425     2.1121    -999.25    -0.0374  -762.8931    -999.25    -999.25     0.1304     0.1304     0.1304     0.1304 17911.2129     2.2436    90.4212    90.3740  8421.2588     5.1955     1.0000     1.0000     1.0000 -1581.1744     0.0010     0.1304    -999.25
  1658.9832  5601.6152 5619593.0000    -999.25     9.5462     9.5462   124.7899     0.0000    -999.25     0.0000   115.4999     1.5306     1.9777    -999.25    -0.0359  -762.9456    -999.25    -999.25     0.1304     0.1304     0.1304     0.1304 18436.9863     2.2934   115.6324   115.4999 13340.2188     2.8146     1.0000     1.0000     1.0000 -1581.2832     0.0010     0.1304    -999.25
  1659.0268  5683.8721 5683872.0000    -999.25     8.9300     8.9300   124.6010     0.0000    -999.25     0.0000   727.6163     1.5782     1.9461    -999.25    -0.0344  -762.9666    -999.25    -999.25     0.1304     0.1304     0.1304     0.1304 18647.8750     2.3235   730.0894   727.6163 1464422.8750     2.1690     1.0000     1.0000     1.0000 -1581.3268     0.0010     0.1304    -999.25
  1659.1356  5884.3931 5854493.0000    -999.25     7.3923     7.3923   124.2526     0.0000    -999.25     0.0000  2255.0994     1.6972     1.8673    -999.25    -0.0307  -763.0190    -999.25    -999.25     0.1304     0.1304     0.1304     0.1304 19207.6543     2.3988  2263.4131  2255.0994 5085473.0000     0.5579     1.0000     1.0000     1.0000 -1581.4355     0.0010     0.1304    -999.25
  1659.1792  5922.8672 5922867.0000    -999.25     6.6830     6.6830   124.1130     0.0000    -999.25     0.0000  3892.5105     1.8530     1.8874    -999.25    -0.0292  -763.0401    -999.25    -999.25     0.1304     0.1304     0.1304     0.1304 19431.9785     2.4118  3903.8950  3892.5105 21842128.0000     0.3983     1.0000     1.0000     1.0000 -1581.4791     0.0010     0.1304    -999.25
  1659.2880  6011.9727 5873277.5000    -999.25     4.9128     4.9128   123.9145     0.0000    -999.25     0.0000  7978.5273     2.2418     1.9375    -999.25    -0.0254  -763.0926    -999.25    -999.25     0.1304     0.1304     0.1304     0.1304 19269.2812     2.4441  7997.5747  7978.5273 63656900.0000     0.0000     1.0000     1.0000     1.0000 -1581.5880     0.0010     0.1304    -999.25
  1659.3316  5853.4053 5853405.0000    -999.25     4.3835     4.3835   123.8350     0.0000    -999.25     0.0000  8537.3975     2.6941     1.9956    -999.25    -0.0242  -763.1136    -999.25    -999.25     0.1304     0.1304     0.1304     0.1304 19204.0840     2.3781  8550.9951  8537.3975 73666552.0000     0.0000     1.0000     1.0000     1.0000 -1581.6316     0.0010     0.1304    -999.25
  1659.4404  5436.8247 5287208.5000    -999.25     3.0629     3.0629   124.0913     0.0000    -999.25     0.0000  9932.0078     3.8227     2.1407    -999.25    -0.0211  -763.1661    -999.25    -999.25     0.1304     0.1304     0.1304     0.1304 17346.4844     2.2135  9932.0078  9932.0078 98644776.0000     0.0000     1.0000     1.0000     1.0000 -1581.7404     0.0010     0.1304    -999.25
  1659.4840  5060.3135 5060313.5000    -999.25     2.3794     2.3794   124.1940     0.0000    -999.25     0.0000  9932.0078     5.5385     2.1902    -999.25    -0.0194  -763.1871    -999.25    -999.25     0.1568     0.1568     0.1568     0.1568 16602.0781     2.0619  9932.0078  9932.0078 98644776.0000     0.0000     1.0000     1.0000     1.0000 -1581.7839     0.0010     0.1568    -999.25
  1659.5928  4528.6914 4421246.5000    -999.25     0.6739     0.6739   113.3147     0.0000    -999.25     0.0000  9932.0078     9.8202     2.3136    -999.25    -0.0150  -763.2396    -999.25    -999.25     0.2227     0.2227     0.2227     0.2227 14505.4014     1.6836  9932.0078  9932.0078 98644776.0000     0.0000     1.0000     1.0000     1.0000 -1581.8928     0.0010     0.2227    -999.25
  1659.6364  4165.1494 4165149.5000    -999.25     0.0614     0.0614   108.9550     0.0000    -999.25     0.0000  9932.0078    46.6444     2.3470    -999.25    -0.0134  -763.2607    -999.25    -999.25    -999.25    -999.25    -999.25    -999.25 13665.1885     1.4889  9932.0078  9932.0078 98644776.0000     0.0000    -999.25    -999.25    -999.25 -1581.9364    -999.25    -999.25    -999.25
  1659.7452  3445.4785    -999.25    -999.25    -1.4671    -1.4671    88.7256     0.0000    -999.25     0.0000  9932.0078   138.5360     2.4302    -999.25    -0.0094  -763.3132    -999.25    -999.25    -999.25    -999.25    -999.25    -999.25    -999.25     1.0030  9932.0078  9932.0078 98644776.0000     0.0000    -999.25    -999.25    -999.25 -1582.0452    -999.25    -999.25    -999.25
