~Version ---------------------------------------------------
VERS. 2.0 : CWLS log ASCII Standard -VERSION 2.0
WRAP.  NO : 
~Well ------------------------------------------------------
STRT.m                                                1236.0668 : 
STOP.m                                                1579.8812 : 
STEP.m                                                   0.1524 : 
NULL.                                                   -999.25 : 
COMP.                                                           : COMPANY
WELL.                                                   Well-17 : WELL
FLD .                                                           : FIELD
LOC .                                                           : LOCATION
SRVC.                                                           : SERVICE COMPANY
DATE. 2021-01-20 14:34:08   : Log Export Date {yyyy-MM-dd HH:mm : ss}
PROV.                                                           : PROVINCE
UWI .                                                   Well-17 : UNIQUE WELL ID
API .                                                           : API NUMBER
~Curve Information -----------------------------------------
DEPTH             .m        : DEPTH
ACOUSTICIMPEDANCE1.kPa.s/m  : ACOUSTICIMPEDANCE1
AI                .kPa.s/m  : AI
AVG_PIGN          .m3/m3    : AVG_PIGN
CALI              .in       : CALI
NPHI              .m3/m3    : NPHI
DT                .us/ft    : DT
FACIES            ._        : FACIES
FLD1              ._        : FLD1
GR                .gAPI     : GR
M2R2              .ohm.m    : M2R2
LLS               .ohm.m    : LLS
LLD               .ohm.m    : LLD
DEPTH_1           .m        : DEPTH_1
NPHI_1            .m3/m3    : NPHI_1
PERF_INT          ._        : PERF_INT
PERMEABILITY      .mD       : PERMEABILITY
PHIT              .m3/m3    : PHIT
PIGN              .m3/m3    : PIGN
PIGN_MODELLING    .m3/m3    : PIGN_MODELLING
PIMP              .kPa.s/m  : PIMP
RHOB              .g/cm3    : RHOB
RT_MODELLING      .ohm.m    : RT_MODELLING
RT_POWER          .ohm.m    : RT_POWER
SP                .mV       : SP
SUWI              ._        : SUWI
SUWI_MODELLING    ._        : SUWI_MODELLING
SXWI              ._        : SXWI
TDVSS             .m        : TDVSS
VCL               .%        : VCL
WATER_VOL         ._        : WATER_VOL
RHOB_1            .g/cm3    : RHOB_1
ZLT               ._        : ZLT
~Params ----------------------------------------------------
~Other -----------------------------------------------------
~ASCII -----------------------------------------------------
# ...
  1259.5364  4905.2056 4905205.5000    -999.25     9.9755     0.4969   142.2340     0.0000    -999.25    67.1608     1.1437     1.1357     1.1327  1259.5365     0.4969    -999.25    -999.25     0.2251     0.0424     0.0424 16093.1943     2.2890     1.1327     1.2830   228.8470     1.0000     1.0000     1.0000 -1186.0464    78.8230     0.0424     2.2890    -999.25
  1259.6888  4970.0884 4970088.5000    -999.25     9.8798     0.5080   140.4594     0.0000    -999.25    66.8226     1.1567     1.1457     1.1427  1259.6888     0.5080    -999.25    -999.25     0.2237     0.0405     0.0405 16306.0645     2.2903     1.1427     1.3058   228.8393     1.0000     1.0000     1.0000 -1186.1989    79.7620     0.0405     2.2903    -999.25
  1259.8412  5052.3350 5052335.0000    -999.25     9.7664     0.5177   138.7804     0.0000    -999.25    67.7987     1.1842     1.1695     1.1665  1259.8412     0.5177    -999.25    -999.25     0.2228     0.0394     0.0394 16575.9023     2.3004     1.1665     1.3607   228.8141     1.0000     1.0000     1.0000 -1186.3512    80.2880     0.0394     2.3004    -999.25
  1259.9936  5205.0117 5205011.5000    -999.25     9.6618     0.5152   135.9223     0.0000    -999.25    69.4851     1.2199     1.2025     1.1995  1259.9937     0.5152    -999.25    -999.25     0.2243     0.0413     0.0413 17076.8086     2.3211     1.1995     1.4388   228.7566     1.0000     1.0000     1.0000 -1186.5037    79.3770     0.0413     2.3211    -999.25
  1260.1460  5439.6943 5439694.0000    -999.25     9.5776     0.5026   131.4412     0.0000    -999.25    70.3508     1.2528     1.2342     1.2305  1260.1460     0.5026    -999.25    -999.25     0.2272     0.0451     0.0451 17846.7656     2.3458     1.2305     1.5141   228.6823     1.0000     1.0000     1.0000 -1186.6560    77.4610     0.0451     2.3458    -999.25
  1260.2984  5624.2344 5624234.5000    -999.25     9.5043     0.4961   128.2280     0.0000    -999.25    68.5178     1.2858     1.2662     1.2628  1260.2985     0.4961    -999.25    -999.25     0.2290     0.0475     0.0475 18452.2129     2.3661     1.2628     1.5948   228.6315     1.0000     1.0000     1.0000 -1186.8085    76.2540     0.0475     2.3661    -999.25
  1260.4508  5717.7827 5717782.5000    -999.25     9.4595     0.4926   126.6599     0.0000    -999.25    64.9001     1.3292     1.3092     1.3056  1260.4508     0.4926    -999.25    -999.25     0.2300     0.0487     0.0487 18759.1289     2.3760     1.3056     1.7045   228.6103     1.0000     1.0000     1.0000 -1186.9608    75.6550     0.0487     2.3760    -999.25
  1260.6032  5698.9287 5698928.5000    -999.25     9.4349     0.4711   126.8249     0.0000    -999.25    62.4410     1.3746     1.3552     1.3512  1260.6033     0.4711    -999.25    -999.25     0.2327     0.0522     0.0522 18697.2734     2.3713     1.3512     1.8258   228.5939     1.0000     1.0000     1.0000 -1187.1133    73.8970     0.0522     2.3713    -999.25
  1260.7556  5567.1899 5567190.0000    -999.25     9.4132     0.4527   128.6900     0.0000    -999.25    62.0897     1.3870     1.3693     1.3660  1260.7556     0.4527    -999.25    -999.25     0.2342     0.0542     0.0542 18265.0586     2.3505     1.3660     1.8660   228.5860     1.0000     1.0000     1.0000 -1187.2656    72.9200     0.0542     2.3505    -999.25
  1260.9080  5397.5605 5397560.5000    -999.25     9.4376     0.4619   130.9629     0.0000    -999.25    63.4937     1.3396     1.3253     1.3223  1260.9081     0.4619    -999.25    -999.25     0.2314     0.0505     0.0505 17708.5312     2.3192     1.3223     1.7486   228.6105     1.0000     1.0000     1.0000 -1187.4181    74.7310     0.0505     2.3192    -999.25
  1261.0604  5298.6006 5298600.5000    -999.25     9.5222     0.4783   131.7619     0.0000    -999.25    65.5779     1.2572     1.2456     1.2432  1261.0604     0.4783    -999.25    -999.25     0.2278     0.0458     0.0458 17383.8594     2.2905     1.2432     1.5456   228.6788     1.0000     1.0000     1.0000 -1187.5704    77.0930     0.0458     2.2905    -999.25
  1261.2128  5295.4785 5295478.5000    -999.25     9.5950     0.4820   131.0395     0.0000    -999.25    66.5722     1.1957     1.1861     1.1841  1261.2129     0.4820    -999.25    -999.25     0.2266     0.0443     0.0443 17373.6172     2.2766     1.1841     1.4021   228.7806     1.0000     1.0000     1.0000 -1187.7229    77.8720     0.0443     2.2766    -999.25
  1261.3652  5317.4688 5317468.5000    -999.25     9.6127     0.4896   130.3468     0.0000    -999.25    67.0600     1.1807     1.1710     1.1697  1261.3652     0.4896    -999.25    -999.25     0.2254     0.0427     0.0427 17445.7637     2.2740     1.1697     1.3681   228.8761     1.0000     1.0000     1.0000 -1187.8752    78.6330     0.0427     2.2740    -999.25
  1261.5176  5314.3755 5314375.5000    -999.25     9.6100     0.5098   130.2300     0.0000    -999.25    68.7067     1.1951     1.1844     1.1834  1261.5177     0.5098    -999.25    -999.25     0.2225     0.0390     0.0390 17435.6152     2.2706     1.1834     1.4005   228.9245     1.0000     1.0000     1.0000 -1188.0276    80.5050     0.0390     2.2706    -999.25
  1261.6700  5223.5908 5223591.0000    -999.25     9.6103     0.5311   132.2407     0.0000    -999.25    69.5489     1.2081     1.1957     1.1954  1261.6700     0.5311    -999.25    -999.25     0.2197     0.0352     0.0352 17137.7656     2.2663     1.1954     1.4289   228.9320     1.0000     1.0000     1.0000 -1188.1801    82.3780     0.0352     2.2663    -999.25
  1261.8224  5094.5391 5094539.0000    -999.25     9.6298     0.5393   135.7533     0.0000    -999.25    68.0386     1.2043     1.1913     1.1913  1261.8224     0.5393    -999.25    -999.25     0.2188     0.0342     0.0342 16714.3672     2.2690     1.1913     1.4191   228.9270     1.0000     1.0000     1.0000 -1188.3324    82.9270     0.0342     2.2690    -999.25
  1261.9748  5020.1426 5020142.5000    -999.25     9.6639     0.5275   138.2927     0.0000    -999.25    66.4651     1.1903     1.1779     1.1779  1261.9749     0.5275    -999.25    -999.25     0.2206     0.0364     0.0364 16470.2852     2.2777     1.1779     1.3875   228.9284     1.0000     1.0000     1.0000 -1188.4849    81.7850     0.0364     2.2777    -999.25
  1262.1272  4997.9248 4997925.0000    -999.25     9.6673     0.5067   139.2307     0.0000    -999.25    66.8047     1.1850     1.1737     1.1737  1262.1272     0.5067    -999.25    -999.25     0.2235     0.0403     0.0403 16397.3906     2.2830     1.1737     1.3775   228.9408     1.0000     1.0000     1.0000 -1188.6372    79.8600     0.0403     2.2830    -999.25
  1262.2796  5055.4556 5055455.5000    -999.25     9.6408     0.4987   137.7457     0.0000    -999.25    67.9202     1.1964     1.1854     1.1854  1262.2797     0.4987    -999.25    -999.25     0.2247     0.0418     0.0418 16586.1406     2.2847     1.1854     1.4052   228.9440     1.0000     1.0000     1.0000 -1188.7897    79.0840     0.0418     2.2847    -999.25
  1262.4320  5187.9385 5187938.5000    -999.25     9.6367     0.4996   134.2082     0.0000    -999.25    68.0051     1.2101     1.1991     1.1991  1262.4320     0.4996    -999.25    -999.25     0.2246     0.0417     0.0417 17020.7949     2.2843     1.1991     1.4377   228.9215     1.0000     1.0000     1.0000 -1188.9420    79.1700     0.0417     2.2843    -999.25
  1262.5844  5418.0391 5418039.0000    -999.25     9.6514     0.4895   128.2255     0.0000    -999.25    66.7091     1.2106     1.2003     1.1996  1262.5845     0.4895    -999.25    -999.25     0.2257     0.0431     0.0431 17775.7188     2.2793     1.1996     1.4391   228.9029     1.0000     1.0000     1.0000 -1189.0945    78.4420     0.0431     2.2793    -999.25
  1262.7368  5643.8027 5643803.0000    -999.25     9.6368     0.4731   122.5729     0.0000    -999.25    65.5964     1.2043     1.1943     1.1933  1262.7368     0.4731    -999.25    -999.25     0.2274     0.0454     0.0454 18516.4141     2.2696     1.1933     1.4240   228.9339     1.0000     1.0000     1.0000 -1189.2468    77.3010     0.0454     2.2696    -999.25
