~Version ---------------------------------------------------
VERS. 2.0 : CWLS log ASCII Standard -VERSION 2.0
WRAP.  NO : 
~Well ------------------------------------------------------
STRT.m                                                1171.1084 : 
STOP.m                                                  1705.88 : 
STEP.m                                                   0.1524 : 
NULL.                                                   -999.25 : 
COMP.                                                           : COMPANY
WELL.                                                   Well-12 : WELL
FLD .                                                           : FIELD
LOC .                                                           : LOCATION
SRVC.                                                           : SERVICE COMPANY
DATE. 2021-01-20 14:34:05   : Log Export Date {yyyy-MM-dd HH:mm : ss}
PROV.                                                           : PROVINCE
UWI .                                                   Well-12 : UNIQUE WELL ID
API .                                                           : API NUMBER
~Curve Information -----------------------------------------
DEPTH             .m        : DEPTH
ACOUSTICIMPEDANCE1.kPa.s/m  : ACOUSTICIMPEDANCE1
AI                .kPa.s/m  : AI
AVG_PIGN          .m3/m3    : AVG_PIGN
DT                .us/ft    : DT
FACIES            ._        : FACIES
FLD1              ._        : FLD1
GR                .gAPI     : GR
HDRS              .ohm.m    : HDRS
HMRS              .ohm.m    : HMRS
DEPTH_1           .m        : DEPTH_1
NPHI              .m3/m3    : NPHI
ONE-WAYTIME1      .ms       : ONE-WAYTIME1
PERF_INT          ._        : PERF_INT
PERMEABILITY      .mD       : PERMEABILITY
PIGN              .m3/m3    : PIGN
PIGN_MODELLING    .m3/m3    : PIGN_MODELLING
PIMP              .kPa.s/m  : PIMP
RHOB              .g/cm3    : RHOB
RT_MODELLING      .ohm.m    : RT_MODELLING
RT_POWER          .ohm.m    : RT_POWER
SP                .mV       : SP
SUWI              ._        : SUWI
SUWI_MODELLING    ._        : SUWI_MODELLING
SXWI              ._        : SXWI
TDVSS             .m        : TDVSS
TEMP              .K        : TEMP
VCL               .%        : VCL
WATER_VOL         ._        : WATER_VOL
ZLT               ._        : ZLT
~Params ----------------------------------------------------
~Other -----------------------------------------------------
~ASCII -----------------------------------------------------
# ...
  1453.0484  6266.0815 6266081.5000    -999.25   116.9909     0.0000    -999.25   150.4316     2.3073     2.3995  1453.0483     0.5039  -668.4421    -999.25     3.3078     0.0849     0.0849 20558.0098     2.4051     2.3073     5.3236    73.3464     1.0000     1.0000     1.0000 -1370.5684   160.9054    57.4880     0.0849     4.0000
  1453.2008  5882.6050 5882605.0000    -999.25   122.7313     0.0000    -999.25   151.6872     2.2169     2.3555  1453.2008     0.5126  -668.5164    -999.25     3.2503     0.0778     0.0778 19299.8848     2.3687     2.2169     4.9146    74.4275     1.0000     1.0000     1.0000 -1370.7208   160.9139    61.0730     0.0778     4.0000
  1453.3532  5576.5430 5576543.0000    -999.25   128.0079     0.0000    -999.25   153.8395     2.1436     2.2758  1453.3531     0.5197  -668.5908    -999.25     3.4188     0.0689     0.0689 18295.7461     2.3420     2.1436     4.5950    76.0698     1.0000     1.0000     1.0000 -1370.8732   160.9224    65.5470     0.0689     4.0000
  1453.5056  5478.5366 5478536.5000    -999.25   128.9348     0.0000    -999.25   156.9600     2.1597     2.2945  1453.5056     0.5243  -668.6650    -999.25     3.3421     0.0648     0.0648 17974.2012     2.3175     2.1597     4.6643    78.1180     1.0000     1.0000     1.0000 -1371.0255   160.9309    67.6210     0.0648     4.0000
  1453.6580  5632.0151 5632078.5000    -999.25   125.1289     0.0000    -999.25   160.7473     2.3035     2.4819  1453.6580     0.5351  -668.7394    -999.25     2.4736     0.0615     0.0615 18477.9492     2.3121     2.3035     5.3061    80.4328     1.0000     1.0000     1.0000 -1371.1780   160.9394    66.9070     0.0615     4.0000
  1453.8104  5860.4648 5860464.5000    -999.25   121.7491     0.0000    -999.25   164.5856     2.5106     2.7217  1453.8104     0.5512  -668.8137    -999.25     1.3061     0.0485     0.0485 19227.2461     2.3409     2.5106     6.3031    82.5912     1.0000     1.0000     1.0000 -1371.3303   160.9478    66.4460     0.0485     4.0000
  1453.9628  6090.5698 6090548.0000    -999.25   119.9168     0.0000    -999.25   167.6053     2.6978     2.8912  1453.9628     0.5615  -668.8881    -999.25     0.3289     0.0329     0.0329 19982.1113     2.3962     2.6978     7.2781    84.1939     1.0000     1.0000     1.0000 -1371.4828   160.9563    67.9710     0.0329     4.0000
  1454.1152  6325.7627 6325762.5000    -999.25   117.4772     0.0000    -999.25   168.8661     2.8295     3.0243  1454.1151     0.5704  -668.9623    -999.25     0.0169     0.0284     0.0284 20753.8145     2.4381     2.8295     8.0061    85.3352     1.0000     1.0000     1.0000 -1371.6351   160.9648    68.5790     0.0284     4.0000
  1454.2675  6291.6460 6291646.0000    -999.25   118.4725     0.0000    -999.25   167.8315     2.8918     3.1248  1454.2675     0.5683  -669.0367    -999.25     0.0159     0.0307     0.0307 20641.8828     2.4455     2.8918     8.3623    86.0191     1.0000     1.0000     1.0000 -1371.7875   160.9733    67.6506     0.0307     4.0000
  1454.4200  5926.5801 5926580.5000    -999.25   125.8424     0.0000    -999.25   165.4066     2.9108     3.2051  1454.4199     0.5563  -669.1110    -999.25     0.0245     0.0313     0.0313 19444.1602     2.4469     2.9108     8.4728    86.6145     1.0000     1.0000     1.0000 -1371.9399   160.9818    70.5130     0.0313     4.0000
  1454.5724  5522.2417 5522241.5000    -999.25   134.4384     0.0000    -999.25   163.8751     2.9310     3.2631  1454.5724     0.5573  -669.1854    -999.25     0.0398     0.0284     0.0284 18117.5918     2.4357     2.9310     8.5908    86.9692     1.0000     1.0000     1.0000 -1372.0924   160.9903    77.1910     0.0284     4.0000
  1454.7248  5251.2998 5251299.5000    -999.25   140.1791     0.0000    -999.25   164.7056     2.9549     3.2518  1454.7247     0.5569  -669.2597    -999.25     0.0313     0.0239     0.0239 17228.6738     2.4151     2.9549     8.7314    87.3517     1.0000     1.0000     1.0000 -1372.2448   160.9987    83.7790     0.0239     4.0000
  1454.8772  5066.2021 5066202.0000    -999.25   144.7652     0.0000    -999.25   166.7786     2.9176     3.1418  1454.8772     0.5999  -669.3340    -999.25     0.0098     0.0209     0.0209 16621.3984     2.4062     2.9176     8.5124    87.6784     1.0000     1.0000     1.0000 -1372.3972   161.0072    88.5640     0.0209     4.0000
  1455.0296  5153.6963 5153696.0000    -999.25   142.7097     0.0000    -999.25   168.1408     2.7953     2.9667  1455.0295     0.6391  -669.4083    -999.25     0.0068     0.0223     0.0223 16908.4512     2.4130     2.7953     7.8137    88.1545     1.0000     1.0000     1.0000 -1372.5496   161.0157    88.1710     0.0223     4.0000
  1455.1820  5666.9536 5666953.5000    -999.25   130.3707     0.0000    -999.25   168.8138     2.6653     2.7893  1455.1820     0.6007  -669.4827    -999.25     0.0123     0.0275     0.0275 18592.3672     2.4239     2.6653     7.1038    88.5935     1.0000     1.0000     1.0000 -1372.7020   161.0242    81.0950     0.0275     4.0000
  1455.3344  6213.3511 6213351.0000    -999.25   118.9894     0.0000    -999.25   169.9117     2.5471     2.6596  1455.3344     0.5562  -669.5570    -999.25     0.0198     0.0336     0.0336 20385.0098     2.4256     2.5471     6.4877    88.9939     1.0000     1.0000     1.0000 -1372.8544   161.0327    71.8340     0.0336     4.0000
  1455.4868  6355.4189 6355419.0000    -999.25   116.4734     0.0000    -999.25   170.6824     2.3870     2.5558  1455.4868     0.5587  -669.6313    -999.25     0.0139     0.0403     0.0403 20851.1133     2.4286     2.3870     5.6978    89.2235     1.0000     1.0000     1.0000 -1373.0067   161.0412    68.6080     0.0403     4.0000
  1455.6392  6317.3311 6317330.5000    -999.25   119.3854     0.0000    -999.25   168.7609     2.1565     2.4277  1455.6392     0.5498  -669.7056    -999.25     0.0199     0.0467     0.0467 20726.1484     2.4744     2.1565     4.6505    89.3473     1.0000     1.0000     1.0000 -1373.1592   161.0497    68.9930     0.0467     4.0000
  1455.7916  6259.5361 6259536.0000    -999.25   122.6984     0.0000    -999.25   163.7304     2.0469     2.2421  1455.7916     0.5102  -669.7800    -999.25     0.0511     0.0508     0.0508 20536.5352     2.5198     2.0469     4.1898    89.5915     1.0000     1.0000     1.0000 -1373.3115   161.0582    67.5620     0.0508     4.0000
  1455.9440  6101.3647 6101307.0000    -999.25   125.9791     0.0000    -999.25   158.1958     2.2184     2.3026  1455.9440     0.4940  -669.8543    -999.25     0.0669     0.0535     0.0535 20017.4121     2.5218     2.2184     4.9213    89.9632     1.0000     1.0000     1.0000 -1373.4640   161.0666    68.2340     0.0535     4.0000
  1456.0964  5903.0542 5903054.5000    -999.25   128.5229     0.0000    -999.25   155.2523     2.3394     2.4041  1456.0963     0.5268  -669.9286    -999.25     0.0377     0.0534     0.0534 19366.9766     2.4891     2.3394     5.4728    90.5495     1.0000     1.0000     1.0000 -1373.6163   161.0751    72.1450     0.0534     4.0000
  1456.2487  5705.0771 5705077.0000    -999.25   130.9699     0.0000    -999.25   155.4171     2.0257     2.1083  1456.2487     0.5782  -670.0029    -999.25     0.0198     0.0458     0.0458 18717.4434     2.4514     2.0257     4.1035    91.0773     1.0000     1.0000     1.0000 -1373.7687   161.0836    77.0861     0.0458     4.0000
  1456.4012  5527.2559 5527256.0000    -999.25   134.0297     0.0000    -999.25   156.5511     1.6831     1.8376  1456.4011     0.6089  -670.0773    -999.25     0.0112     0.0372     0.0372 18134.0410     2.4305     1.6831     2.8328    91.5845     1.0000     1.0000     1.0000 -1373.9211   161.0921    81.4200     0.0372     4.0000
  1456.5536  5384.3950 5384395.0000    -999.25   137.5745     0.0000    -999.25   157.0735     1.5803     1.6978  1456.5536     0.6138  -670.1516    -999.25     0.0106     0.0336     0.0336 17665.3379     2.4303     1.5803     2.4973    91.8291     1.0000     1.0000     1.0000 -1374.0736   161.1006    83.1930     0.0336     4.0000
  1456.7060  5372.4756 5372476.0000    -999.25   137.8627     0.0000    -999.25   157.5297     1.6040     1.6546  1456.7059     0.6013  -670.2260    -999.25     0.0119     0.0353     0.0353 17626.2324     2.4300     1.6040     2.5728    91.9177     1.0000     1.0000     1.0000 -1374.2260   161.1091    82.3300     0.0353     4.0000
