~Version ---------------------------------------------------
VERS. 2.0 : CWLS log ASCII Standard -VERSION 2.0
WRAP.  NO : 
~Well ------------------------------------------------------
STRT.m                                                1295.9144 : 
STOP.m                                                1639.8812 : 
STEP.m                                                   0.1524 : 
NULL.                                                   -999.25 : 
COMP.                                                           : COMPANY
WELL.                                                    Well-1 : WELL
FLD .                                                           : FIELD
LOC .                                                           : LOCATION
SRVC.                                                           : SERVICE COMPANY
DATE. 2021-01-20 14:33:59   : Log Export Date {yyyy-MM-dd HH:mm : ss}
PROV.                                                           : PROVINCE
UWI .                                                    Well-1 : UNIQUE WELL ID
API .                                                           : API NUMBER
~Curve Information -----------------------------------------
DEPTH             .m        : DEPTH
ACOUSTICIMPEDANCE1.kPa.s/m  : ACOUSTICIMPEDANCE1
AI                .kPa.s/m  : AI
AVG_PIGN          .m3/m3    : AVG_PIGN
CALI              .in       : CALI
CALI[DERIVED]1    .in       : CALI[DERIVED]1
DFL               .ohm.m    : DFL
DT                .us/ft    : DT
FACIES            ._        : FACIES
FLD1              ._        : FLD1
GR                .gAPI     : GR
HDRS              .ohm.m    : HDRS
HMRS              .ohm.m    : HMRS
DEPTH_1           .m        : DEPTH_1
NPHI              .m3/m3    : NPHI
ONE-WAYTIME1      .ms       : ONE-WAYTIME1
PERF_INT          ._        : PERF_INT
PERMEABILITY      .mD       : PERMEABILITY
PIGN              .m3/m3    : PIGN
PIGN_MODELLING    .m3/m3    : PIGN_MODELLING
PIMP              .kPa.s/m  : PIMP
RHOB              .g/cm3    : RHOB
RT_MODELLING      .ohm.m    : RT_MODELLING
RT_POWER          .ohm.m    : RT_POWER
SP                .mV       : SP
SUWI              ._        : SUWI
SUWI_MODELLING    ._        : SUWI_MODELLING
TDVSS             .m        : TDVSS
VCL               .%        : VCL
WATER_VOL         ._        : WATER_VOL
ZLT               ._        : ZLT
~Params ----------------------------------------------------
~Other -----------------------------------------------------
~ASCII -----------------------------------------------------
# ...
  1478.7944  6803.4624 6803462.5000    -999.25     8.9652     8.9652     2.3613   110.8854     4.0000    -999.25    50.6398     1.8541     1.9038  1478.7944     0.5105  -675.6260    -999.25     0.0383     0.0317     0.0317 22321.0703     2.4751     2.3613     5.5757   286.9340     1.0000     1.0000 -1400.3044    65.0840     0.0317    12.0000
  1478.9468  6935.5732 6935573.0000    -999.25     8.9635     8.9635     2.7541   110.2402     4.0000    -999.25    51.4411     1.9251     1.9822  1478.9468     0.5026  -675.6995    -999.25     0.0370     0.0300     0.0300 22754.5059     2.5085     2.7541     7.5851   286.1441     1.0000     1.0000 -1400.4568    66.9610     0.0300    12.0000
  1479.0992  7181.2808 7181281.0000    -999.25     8.9653     8.9653     3.0776   108.8188     4.0000    -999.25    52.5436     1.9621     2.0269  1479.0992     0.5022  -675.7731    -999.25     0.0390     0.0278     0.0278 23560.6328     2.5638     3.0776     9.4716   285.6286     1.0000     1.0000 -1400.6091    69.4070     0.0278    12.0000
  1479.2516  7454.0288 7454028.5000    -999.25     8.9697     8.9697     3.1908   106.4960     4.0000    -999.25    53.7658     1.9811     2.0505  1479.2516     0.5046  -675.8466    -999.25     0.0448     0.0271     0.0271 24455.4746     2.6044     3.1908    10.1810   285.3348     1.0000     1.0000 -1400.7616    70.1890     0.0271    12.0000
  1479.4040  7598.4561 7598456.0000    -999.25     8.9773     8.9773     3.1434   104.5247     4.0000    -999.25    54.6945     1.9761     2.0579  1479.4039     0.5080  -675.9201    -999.25     0.0521     0.0279     0.0279 24929.3164     2.6057     3.1434     9.8808   285.2741     1.0000     1.0000 -1400.9139    69.2690     0.0279    12.0000
  1479.5564  7524.0654 7524065.5000    -999.25     8.9930     8.9930     3.0119   104.2618     4.0000    -999.25    54.6838     2.0629     2.1661  1479.5564     0.5139  -675.9937    -999.25     0.0558     0.0290     0.0290 24685.2539     2.5737     3.0119     9.0716   285.5612     1.0000     1.0000 -1401.0664    68.1550     0.0290    12.0000
  1479.7088  7278.5820 7278582.0000    -999.25     9.0133     9.0133     3.0670   105.9600     4.0000    -999.25    54.2021     2.3506     2.4489  1479.7087     0.5236  -676.0672    -999.25     0.0527     0.0286     0.0286 23879.8613     2.5303     3.0670     9.4063   286.1168     1.0000     1.0000 -1401.2188    68.5760     0.0286    12.0000
  1479.8612  7039.5718 7039572.0000    -999.25     9.0311     9.0311     3.2385   108.5401     4.0000    -999.25    53.8204     2.4650     2.5655  1479.8612     0.5347  -676.1407    -999.25     0.0482     0.0275     0.0275 23095.7090     2.5068     3.2385    10.4882   286.6902     1.0000     1.0000 -1401.3712    69.7490     0.0275    12.0000
  1480.0136  6875.6387 6875638.5000    -999.25     9.0392     9.0392     3.0944   110.6550     4.0000    -999.25    53.8934     2.1816     2.3093  1480.0135     0.5440  -676.2142    -999.25     0.0453     0.0272     0.0272 22557.8691     2.4961     3.0944     9.5756   287.0640     1.0000     1.0000 -1401.5236    70.0760     0.0272    12.0000
  1480.1660  6723.3369 6723337.0000    -999.25     9.0333     9.0333     2.6683   111.9521     4.0000    -999.25    55.4816     1.9795     2.0987  1480.1660     0.5469  -676.2878    -999.25     0.0454     0.0280     0.0280 22058.1934     2.4695     2.6683     7.1201   287.3662     1.0000     1.0000 -1401.6760    69.2290     0.0280    12.0000
  1480.3184  6553.3984 6553398.5000    -999.25     9.0160     9.0160     2.4258   113.0138     4.0000    -999.25    58.3863     2.0213     2.1068  1480.3184     0.5456  -676.3613    -999.25     0.0466     0.0289     0.0289 21500.6504     2.4299     2.4258     5.8845   287.7090     1.0000     1.0000 -1401.8284    68.2170     0.0289    12.0000
  1480.4708  6387.1011 6387101.5000    -999.25     8.9993     8.9993     2.5113   114.1467     4.0000    -999.25    61.0691     2.1019     2.1624  1480.4708     0.5456  -676.4348    -999.25     0.0448     0.0290     0.0290 20955.0566     2.3919     2.5113     6.3066   288.1947     1.0000     1.0000 -1401.9808    68.1380     0.0290    12.0000
  1480.6232  6278.6587 6278659.0000    -999.25     8.9914     8.9914     2.6082   114.9803     0.0000    -999.25    63.1520     2.0616     2.1251  1480.6232     0.5510  -676.5084    -999.25     0.0409     0.0280     0.0280 20599.2754     2.3685     2.6082     6.8027   288.9453     1.0000     1.0000 -1402.1332    69.1890     0.0280    12.0000
  1480.7756  6256.7471 6256747.0000    -999.25     8.9942     8.9942     2.5670   115.2845     0.0000    -999.25    64.6514     2.0130     2.0876  1480.7756     0.5604  -676.5819    -999.25     0.0386     0.0265     0.0265 20527.3867     2.3665     2.5670     6.5893   289.7233     1.0000     1.0000 -1402.2856    70.8480     0.0265    12.0000
  1480.9280  6262.6865 6262686.5000    -999.25     8.9914     8.9914     2.5302   115.3577     0.0000    -999.25    65.6727     2.0477     2.1312  1480.9280     0.5723  -676.6554    -999.25     0.0381     0.0251     0.0251 20546.8711     2.3702     2.5302     6.4018   290.2876     1.0000     1.0000 -1402.4380    72.3890     0.0251    12.0000
  1481.0804  6242.6982 6242698.0000    -999.25     8.9886     8.9886     2.6120   115.5445     0.0000    -999.25    66.6808     2.1235     2.2235  1481.0804     0.5843  -676.7289    -999.25     0.0399     0.0244     0.0244 20481.2930     2.3665     2.6120     6.8225   290.6822     1.0000     1.0000 -1402.5903    73.1190     0.0244    12.0000
  1481.2328  6201.4414 6201441.5000    -999.25     8.9874     8.9874     2.7344   115.7425     0.0000    -999.25    67.2634     2.2020     2.3098  1481.2328     0.5915  -676.8025    -999.25     0.0450     0.0250     0.0250 20345.9355     2.3549     2.7344     7.4769   290.7795     1.0000     1.0000 -1402.7428    72.4770     0.0250    12.0000
  1481.3852  6163.3745 6163374.5000    -999.25     8.9896     8.9896     2.7605   115.8768     0.0000    -999.25    66.9620     2.2083     2.3200  1481.3851     0.5882  -676.8760    -999.25     0.0507     0.0266     0.0266 20221.0449     2.3431     2.7605     7.6205   290.6794     1.0000     1.0000 -1402.8951    70.7220     0.0266    12.0000
  1481.5376  6148.7080 6148708.0000    -999.25     8.9913     8.9913     2.7059   116.0119     0.0000    -999.25    65.9672     2.1712     2.2899  1481.5376     0.5749  -676.9495    -999.25     0.0527     0.0283     0.0283 20172.9277     2.3403     2.7059     7.3218   290.5698     1.0000     1.0000 -1403.0476    68.8830     0.0283    12.0000
  1481.6900  6157.6631 6157663.0000    -999.25     8.9943     8.9943     2.6686   116.1669     0.0000    -999.25    65.1621     2.1693     2.2822  1481.6899     0.5600  -677.0231    -999.25     0.0522     0.0294     0.0294 20202.3066     2.3468     2.6686     7.1217   290.4034     1.0000     1.0000 -1403.2000    67.6920     0.0294    12.0000
  1481.8424  6175.6025 6175602.5000    -999.25     8.9933     8.9933     2.6770   116.2411     0.0000    -999.25    65.4197     2.1914     2.2963  1481.8424     0.5502  -677.0966    -999.25     0.0519     0.0297     0.0297 20261.1641     2.3552     2.6770     7.1665   290.2577     1.0000     1.0000 -1403.3524    67.3150     0.0297    12.0000
  1481.9948  6196.2949 6196295.0000    -999.25     8.9960     8.9960     2.7041   116.1240     0.0000    -999.25    66.3909     2.2160     2.3119  1481.9948     0.5472  -677.1702    -999.25     0.0528     0.0296     0.0296 20329.0508     2.3607     2.7041     7.3123   290.1707     1.0000     1.0000 -1403.5048    67.4560     0.0296    12.0000
  1482.1472  6209.8916 6209891.5000    -999.25     9.0003     9.0003     2.7393   115.8712     0.0000    -999.25    67.2941     2.2268     2.3208  1482.1472     0.5489  -677.2437    -999.25     0.0541     0.0294     0.0294 20373.6602     2.3607     2.7393     7.5035   290.1220     1.0000     1.0000 -1403.6572    67.6660     0.0294    12.0000
  1482.2996  6213.7690 6213769.0000    -999.25     9.0026     9.0026     2.7578   115.6488     0.0000    -999.25    67.8586     2.2320     2.3354  1482.2996     0.5512  -677.3172    -999.25     0.0551     0.0293     0.0293 20386.3809     2.3577     2.7578     7.6055   289.9994     1.0000     1.0000 -1403.8096    67.7800     0.0293    12.0000
