~Version ---------------------------------------------------
VERS. 2.0 : CWLS log ASCII Standard -VERSION 2.0
WRAP.  NO : 
~Well ------------------------------------------------------
STRT.m                                                1249.0292 : 
STOP.m                                                1575.3176 : 
STEP.m                                                   0.1524 : 
NULL.                                                   -999.25 : 
COMP.                                                           : COMPANY
WELL.                                                   Well-10 : WELL
FLD .                                                           : FIELD
LOC .                                                           : LOCATION
SRVC.                                                           : SERVICE COMPANY
DATE. 2021-01-20 14:34:04   : Log Export Date {yyyy-MM-dd HH:mm : ss}
PROV.                                                           : PROVINCE
UWI .                                                   Well-10 : UNIQUE WELL ID
API .                                                           : API NUMBER
~Curve Information -----------------------------------------
DEPTH             .m        : DEPTH
ACOUSTICIMPEDANCE1.kPa.s/m  : ACOUSTICIMPEDANCE1
AI                .kPa.s/m  : AI
AVG_PIGN          .m3/m3    : AVG_PIGN
CALI              .in       : CALI
CALI[DERIVED]1    .in       : CALI[DERIVED]1
DFL               .ohm.m    : DFL
DT                .us/ft    : DT
FACIES            ._        : FACIES
FLD1              ._        : FLD1
GR                .gAPI     : GR
HDRS              .ohm.m    : HDRS
HMRS              .ohm.m    : HMRS
DEPTH_1           .m        : DEPTH_1
NPHI              .m3/m3    : NPHI
PEF               .b/e      : PEF
PERF_INT          ._        : PERF_INT
PERMEABILITY      .mD       : PERMEABILITY
PHIT              .m3/m3    : PHIT
PIGN              .m3/m3    : PIGN
PIGN_MODELLING    .m3/m3    : PIGN_MODELLING
PIMP              .kPa.s/m  : PIMP
RHOB              .g/cm3    : RHOB
RT_MODELLING      .ohm.m    : RT_MODELLING
RT_POWER          .ohm.m    : RT_POWER
SP                .mV       : SP
SUWI              ._        : SUWI
SUWI_MODELLING    ._        : SUWI_MODELLING
SXWI              ._        : SXWI
TDVSS             .m        : TDVSS
TEMP              .K        : TEMP
VCL               .%        : VCL
WATER_VOL         ._        : WATER_VOL
ZLT               ._        : ZLT
~Params ----------------------------------------------------
~Other -----------------------------------------------------
~ASCII -----------------------------------------------------
# ...
  1483.7252  3123.4973 3123497.2500    -999.25     9.9123     9.9123    11.9248   148.3943     3.0000    -999.25    51.3857     8.6497     9.0384  1483.7252     0.8857     4.5458    -999.25     0.0000     0.0001     0.0001     0.0100 10247.6943     1.5207    11.9248   142.2009   123.1545     1.0000     1.0000     1.0000 -1403.7252   172.8032    16.4210     0.0001    20.0000
  1483.8776  2815.4192 2815419.2500    -999.25    11.2055    11.2055    12.6010   149.7574     3.0000    -999.25    46.8400    10.2048    10.5997  1483.8776     0.8668     5.6882    -999.25     0.0000     0.0001     0.0001     0.0100  9236.9395     1.3833    12.6010   158.7852   122.4242     1.0000     1.0000     1.0000 -1403.8776   172.8127     4.2370     0.0001    20.0000
  1484.0300  2542.1326 2542132.5000    -999.25    12.1410    12.1410    15.2345   151.2770     3.0000    -999.25    40.2729    13.5487    13.7066  1484.0300     0.7794     7.0054     1.0000     0.0000     0.0001     0.0001     0.0100  8340.3301     1.2617    15.2345   232.0900   121.9424     1.0000     1.0000     1.0000 -1404.0300   172.8222     0.3870     0.0001    20.0000
  1484.1824  2386.4695 2386469.5000    -999.25    12.3779    12.3779    23.6623   152.0379     3.0000    -999.25    32.8384    19.8150    19.5470  1484.1824     0.7537     8.0935     1.0000     0.0000     0.0001     0.0001     0.0100  7829.6240     1.1904    23.6623   559.9044   121.2319     1.0000     1.0000     1.0000 -1404.1824   172.8318     0.0000     0.0001    21.0000
  1484.3348  2337.6279 2337628.0000    -999.25    12.4455    12.4455    37.3725   151.8245     3.0000    -999.25    26.7167    26.5511    25.6143  1484.3348     0.7809     8.7952     1.0000     0.0000     0.0001     0.0001     0.0100  7669.3833     1.1644    37.3725  1396.7039   120.5596     1.0000     1.0000     1.0000 -1404.3348   172.8413     0.0000     0.0001    21.0000
  1484.4872  2374.0955 2374095.5000    -999.25    13.4804    13.4804    47.1224   151.2769     3.0000    -999.25    23.3052    31.0831    29.4113  1484.4872     0.8428     9.0452     1.0000     0.0000     0.0001     0.0001     0.0100  7789.0273     1.1783    47.1224  2220.5205   120.1589     1.0000     1.0000     1.0000 -1404.4872   172.8508     0.0000     0.0001    21.0000
  1484.6396  2426.8264 2426826.2500    -999.25    14.6297    14.6297    44.9002   150.8033     3.0000    -999.25    21.6612    35.0003    33.2935  1484.6396     0.8290     9.0098     1.0000     0.0000     0.0001     0.0001     0.0100  7962.0283     1.2007    44.9002  2016.0280   119.6163     1.0000     1.0000     1.0000 -1404.6396   172.8604     0.0000     0.0001    21.0000
  1484.7920  2475.8953 2475895.2500    -999.25    16.4624    16.4624    44.5661   150.4244     3.0000    -999.25    20.8874    38.1506    37.9086  1484.7920     0.8144     8.8371     1.0000     0.0000     0.0001     0.0001     0.0100  8123.0161     1.2219    44.5661  1986.1373   119.1096     1.0000     1.0000     1.0000 -1404.7920   172.8699     0.0000     0.0001    21.0000
  1484.9444  2513.9846 2513984.5000    -999.25    18.4228    18.4228    43.1101   150.1701     3.0000    -999.25    20.4589    38.5950    39.7288  1484.9445     0.8070     8.6278     1.0000     0.0000     0.0001     0.0001     0.0100  8247.9805     1.2386    43.1101  1858.4807   118.6965     1.0000     1.0000     1.0000 -1404.9445   172.8794     0.0000     0.0001    21.0000
  1485.0968  2537.0059 2537006.0000    -999.25    19.5952    19.5952    39.8994   150.2852     3.0000    -999.25    19.9705    38.4621    38.9545  1485.0968     0.8651     8.4731     1.0000     0.0000     0.0001     0.0001     0.0100  8323.5098     1.2509    39.8994  1591.9620   118.3662     1.0000     1.0000     1.0000 -1405.0968   172.8890     0.0000     0.0001    21.0000
  1485.2492  2544.1111 2544111.0000    -999.25    18.0451    18.0451    35.7701   150.7280     3.0000    -999.25    19.0249    40.4094    39.8066  1485.2491     0.8427     8.4520     1.0000     0.0000     0.0001     0.0001     0.0100  8346.8213     1.2581    35.7701  1279.5000   118.1638     1.0000     1.0000     1.0000 -1405.2491   172.8985     0.0000     0.0001    21.0000
  1485.4016  2537.9470 2537947.0000    -999.25    16.0691    16.0691    33.6333   151.2022     3.0000    -999.25    18.0906    41.7209    42.5830  1485.4016     0.8569     8.5641     1.0000     0.0000     0.0001     0.0001     0.0100  8326.5977     1.2590    33.6333  1131.1990   117.7743     1.0000     1.0000     1.0000 -1405.4016   172.9080     0.0000     0.0001    21.0000
  1485.5540  2527.9485 2527948.5000    -999.25    15.6352    15.6352    33.0423   151.3059     3.0000    -999.25    17.5497    39.9079    43.9200  1485.5540     0.8981     8.6922     1.0000     0.0000     0.0001     0.0001     0.0100  8293.7949     1.2549    33.0423  1091.7937   117.5657     1.0000     1.0000     1.0000 -1405.5540   172.9176     0.0000     0.0001    21.0000
  1485.7064  2524.8398 2524840.0000    -999.25    14.2615    14.2615    34.3075   150.7196     3.0000    -999.25    17.1145    38.0052    42.8823  1485.7064     0.8413     8.6994     1.0000     0.0000     0.0001     0.0001     0.0100  8283.5957     1.2485    34.3075  1177.0045   117.4419     1.0000     1.0000     1.0000 -1405.7064   172.9271     0.0000     0.0001    21.0000
  1485.8588  2528.7227 2528722.5000    -999.25    14.6093    14.6093    35.4499   149.7649     3.0000    -999.25    17.4741    38.5673    41.5477  1485.8588     0.8633     8.5496     1.0000     0.0000     0.0001     0.0001     0.0100  8296.3340     1.2425    35.4499  1256.6956   117.0272     1.0000     1.0000     1.0000 -1405.8588   172.9366     0.0000     0.0001    21.0000
  1486.0112  2522.5354 2522535.2500    -999.25    14.9216    14.9216    35.4290   149.2261     3.0000    -999.25    18.3470    41.5608    41.7074  1486.0112     0.8769     8.2919     1.0000     0.0000     0.0001     0.0001     0.0100  8276.0342     1.2350    35.4290  1255.2141   116.7912     1.0000     1.0000     1.0000 -1406.0112   172.9462     0.0000     0.0001    21.0000
  1486.1636  2492.9482 2492948.2500    -999.25    13.5481    13.5481    36.5750   149.4077     3.0000    -999.25    18.8442    46.1120    44.1437  1486.1636     0.8718     8.1016     1.0000     0.0000     0.0001     0.0001     0.0100  8178.9644     1.2220    36.5750  1337.7307   116.6732     1.0000     1.0000     1.0000 -1406.1636   172.9557     0.0000     0.0001    21.0000
  1486.3160  2448.0698 2448069.7500    -999.25    13.5799    13.5799    38.9627   150.1794     3.0000    -999.25    19.0911    50.2736    47.7412  1486.3160     0.8303     8.0661     1.0000     0.0000     0.0001     0.0001     0.0100  8031.7251     1.2062    38.9627  1518.0920   116.5194     1.0000     1.0000     1.0000 -1406.3160   172.9652     0.0000     0.0001    21.0000
  1486.4684  2399.0225 2399022.5000    -999.25    14.5037    14.5037    39.8388   151.0772     3.0000    -999.25    19.2876    49.5076    48.0301  1486.4684     0.8631     8.1768     1.0000     0.0000     0.0001     0.0001     0.0100  7870.8086     1.1891    39.8388  1587.1299   116.4849     1.0000     1.0000     1.0000 -1406.4684   172.9747     0.0000     0.0001    21.0000
  1486.6208  2365.1331 2365133.2500    -999.25    15.7797    15.7797    39.0420   151.6697     3.0000    -999.25    19.5254    42.7398    42.4515  1486.6208     0.9021     8.4138     1.0000     0.0000     0.0001     0.0001     0.0100  7759.6230     1.1769    39.0420  1524.2777   116.4606     1.0000     1.0000     1.0000 -1406.6209   172.9843     0.0000     0.0001    21.0000
  1486.7732  2364.3281 2364328.2500    -999.25    17.0333    17.0333    36.3754   151.8890     3.0000    -999.25    19.6524    36.4375    36.5684  1486.7732     0.9310     8.7087     1.0000     0.0000     0.0001     0.0001     0.0100  7756.9824     1.1782    36.3754  1323.1698   116.6177     1.0000     1.0000     1.0000 -1406.7732   172.9938     0.0000     0.0001    21.0000
  1486.9256  2388.6111 2388611.2500    -999.25    17.9214    17.9214    36.3359   151.8123     3.0000    -999.25    19.9195    35.3824    35.7426  1486.9257     0.8750     9.0157     1.0000     0.0000     0.0001     0.0001     0.0100  7836.6509     1.1897    36.3359  1320.2976   116.6950     1.0000     1.0000     1.0000 -1406.9257   173.0033     0.0000     0.0001    21.0000
