~Version ---------------------------------------------------
VERS. 2.0 : CWLS log ASCII Standard -VERSION 2.0
WRAP.  NO : 
~Well ------------------------------------------------------
STRT.m                                                1249.0292 : 
STOP.m                                                1575.3176 : 
STEP.m                                                   0.1524 : 
NULL.                                                   -999.25 : 
COMP.                                                           : COMPANY
WELL.                                                   Well-10 : WELL
FLD .                                                           : FIELD
LOC .                                                           : LOCATION
SRVC.                                                           : SERVICE COMPANY
DATE. 2021-01-20 14:34:04   : Log Export Date {yyyy-MM-dd HH:mm : ss}
PROV.                                                           : PROVINCE
UWI .                                                   Well-10 : UNIQUE WELL ID
API .                                                           : API NUMBER
~Curve Information -----------------------------------------
DEPTH             .m        : DEPTH
ACOUSTICIMPEDANCE1.kPa.s/m  : ACOUSTICIMPEDANCE1
AI                .kPa.s/m  : AI
AVG_PIGN          .m3/m3    : AVG_PIGN
CALI              .in       : CALI
CALI[DERIVED]1    .in       : CALI[DERIVED]1
DFL               .ohm.m    : DFL
DT                .us/ft    : DT
FACIES            ._        : FACIES
FLD1              ._        : FLD1
GR                .gAPI     : GR
HDRS              .ohm.m    : HDRS
HMRS              .ohm.m    : HMRS
DEPTH_1           .m        : DEPTH_1
NPHI              .m3/m3    : NPHI
PEF               .b/e      : PEF
PERF_INT          ._        : PERF_INT
PERMEABILITY      .mD       : PERMEABILITY
PHIT              .m3/m3    : PHIT
PIGN              .m3/m3    : PIGN
PIGN_MODELLING    .m3/m3    : PIGN_MODELLING
PIMP              .kPa.s/m  : PIMP
RHOB              .g/cm3    : RHOB
RT_MODELLING      .ohm.m    : RT_MODELLING
RT_POWER          .ohm.m    : RT_POWER
SP                .mV       : SP
SUWI              ._        : SUWI
SUWI_MODELLING    ._        : SUWI_MODELLING
SXWI              ._        : SXWI
TDVSS             .m        : TDVSS
TEMP              .K        : TEMP
VCL               .%        : VCL
WATER_VOL         ._        : WATER_VOL
ZLT               ._        : ZLT
~Params ----------------------------------------------------
~Other -----------------------------------------------------
~ASCII -----------------------------------------------------
# ...
  1570.8980  7203.8813 7203881.5000    -999.25     8.5641     8.5641     2.1443    92.0000     0.0000    -999.25    76.4676     1.6064     1.6738  1570.8979     0.5076     6.7394    -999.25    -999.25    -999.25    -999.25    -999.25 23634.7812     2.1744     2.1443     4.5980    88.6672    -999.25    -999.25    -999.25 -1490.8979   178.2556    -999.25    -999.25    -999.25
  1571.0504  7135.3013 7135301.5000    -999.25     8.5751     8.5751     2.5620    92.0000     0.0000    -999.25    76.5026     1.6804     1.8673  1571.0504     0.5285     6.8524    -999.25    -999.25    -999.25    -999.25    -999.25 23409.7812     2.1537     2.5620     6.5638    89.0718    -999.25    -999.25    -999.25 -1491.0504   178.2651    -999.25    -999.25    -999.25
  1571.2028  7114.7612 7114761.0000    -999.25     8.5807     8.5807     2.9441    92.0000     0.0000    -999.25    76.5325     1.7009     2.1258  1571.2028     0.5261     6.6873    -999.25    -999.25    -999.25    -999.25    -999.25 23342.3926     2.1475     2.9441     8.6677    89.6164    -999.25    -999.25    -999.25 -1491.2028   178.2747    -999.25    -999.25    -999.25
  1571.3552  7145.5723 7145572.5000    -999.25     8.5955     8.5955     3.5057    92.0000     0.0000    -999.25    76.5979     1.6791     2.4623  1571.3552     0.5426     6.3717    -999.25    -999.25    -999.25    -999.25    -999.25 23443.4785     2.1568     3.5057    12.2899    90.3181    -999.25    -999.25    -999.25 -1491.3552   178.2842    -999.25    -999.25    -999.25
  1571.5076  7210.1768 7210176.5000    -999.25     8.6386     8.6386     4.0747    92.0000     0.0000    -999.25    76.7195     1.5874     2.7494  1571.5076     0.5445     6.1640    -999.25    -999.25    -999.25    -999.25    -999.25 23655.4355     2.1763     4.0747    16.6032    90.9352    -999.25    -999.25    -999.25 -1491.5076   178.2937    -999.25    -999.25    -999.25
  1571.6600  7298.9668 7298967.0000    -999.25     8.6668     8.6668     4.3642    92.0000     0.0000    -999.25    76.8266     1.4256     2.7791  1571.6600     0.5564     6.2021    -999.25    -999.25    -999.25    -999.25    -999.25 23946.7422     2.2031     4.3642    19.0462    91.2152    -999.25    -999.25    -999.25 -1491.6600   178.3033    -999.25    -999.25    -999.25
  1571.8124  7378.4795 7378479.5000    -999.25     8.6916     8.6916     3.8320    92.0000     0.0000    -999.25    76.9326     1.2539     2.5345  1571.8124     0.5460     6.4112    -999.25    -999.25    -999.25    -999.25    -999.25 24207.6094     2.2271     3.8320    14.6842    91.2837    -999.25    -999.25    -999.25 -1491.8124   178.3128    -999.25    -999.25    -999.25
  1571.9648  7423.8682 7423868.5000    -999.25     8.7404     8.7404     3.2419    92.0000     0.0000    -999.25    77.0809     1.1097     2.1677  1571.9648     0.5260     6.7225    -999.25    -999.25    -999.25    -999.25    -999.25 24356.5234     2.2408     3.2419    10.5099    91.0285    -999.25    -999.25    -999.25 -1491.9648   178.3223    -999.25    -999.25    -999.25
  1572.1172  7422.2109 7422211.0000    -999.25     8.7802     8.7802     2.8470    92.0000     0.0000    -999.25    77.2054     0.9948     1.7540  1572.1172     0.5138     7.0403    -999.25    -999.25    -999.25    -999.25    -999.25 24351.0859     2.2403     2.8470     8.1054    90.6801    -999.25    -999.25    -999.25 -1492.1172   178.3319    -999.25    -999.25    -999.25
  1572.2696  7354.6250 7354625.0000    -999.25     8.7894     8.7894     2.7431    92.0000     0.0000    -999.25    77.2370     0.9096     1.4090  1572.2697     0.5261     7.3064    -999.25    -999.25    -999.25    -999.25    -999.25 24129.3457     2.2199     2.7431     7.5246    90.3549    -999.25    -999.25    -999.25 -1492.2697   178.3414    -999.25    -999.25    -999.25
  1572.4220  7280.4131 7280413.0000    -999.25     8.7671     8.7671     2.8672    92.0000     0.0000    -999.25    77.1795     0.8434     1.1563  1572.4220     0.5974     7.5317    -999.25    -999.25    -999.25    -999.25    -999.25 23885.8691     2.1975     2.8672     8.2208    90.0385    -999.25    -999.25    -999.25 -1492.4220   178.3509    -999.25    -999.25    -999.25
  1572.5744  7252.2520 7252252.0000    -999.25     8.7430     8.7430     3.0542    92.0000     0.0000    -999.25    77.0409     0.8003     1.0088  1572.5745     0.5945     7.5455    -999.25    -999.25    -999.25    -999.25    -999.25 23793.4766     2.1890     3.0542     9.3281 351393.7188    -999.25    -999.25    -999.25 -1492.5745   178.3605    -999.25    -999.25    -999.25
  1572.7268  7292.0088 7292008.5000    -999.25     8.6391     8.6391     3.2253    92.0000     0.0000    -999.25    76.7274     0.8427     0.9862  1572.7268     0.5428     7.3336    -999.25    -999.25    -999.25    -999.25    -999.25 23923.9121     2.2010     3.2253    10.4026 1425602.1250    -999.25    -999.25    -999.25 -1492.7268   178.3700    -999.25    -999.25    -999.25
  1572.8792  7414.9229 7414923.0000    -999.25     8.5295     8.5295     3.2614    92.0000     0.0000    -999.25    76.4135     1.7537     1.8545  1572.8792     0.4773     6.9832    -999.25    -999.25    -999.25    -999.25    -999.25 24327.1738     2.2381     3.2614    10.6367 3215441.5000    -999.25    -999.25    -999.25 -1492.8791   178.3795    -999.25    -999.25    -999.25
  1573.0316  7642.8594 7642859.5000    -999.25     8.5176     8.5176    -999.25    92.0000     0.0000    -999.25    76.2560    -999.25    -999.25  1573.0316     0.4591     6.7262    -999.25    -999.25    -999.25    -999.25    -999.25 25074.9980     2.3069    -999.25    -999.25 5392121.5000    -999.25    -999.25    -999.25 -1493.0316   178.3891    -999.25    -999.25    -999.25
  1573.1840  7944.6782 7944678.5000    -999.25     8.4372     8.4372    -999.25    92.0000     0.0000    -999.25    76.1333    -999.25    -999.25  1573.1840     0.4558     6.8526    -999.25    -999.25    -999.25    -999.25    -999.25 26065.2168     2.3980    -999.25    -999.25 7498651.0000    -999.25    -999.25    -999.25 -1493.1840   178.3986    -999.25    -999.25    -999.25
  1573.3364  8213.0352 8213035.0000    -999.25     8.5196     8.5196    -999.25    92.0000     0.0000    -999.25    76.6474    -999.25    -999.25  1573.3364     0.4726     7.3829    -999.25    -999.25    -999.25    -999.25    -999.25 26945.6523     2.4790    -999.25    -999.25 9110968.0000    -999.25    -999.25    -999.25 -1493.3364   178.4081    -999.25    -999.25    -999.25
  1573.4888  8377.0303 8377030.5000    -999.25     9.0903     9.0903    -999.25    92.0000     0.0000    -999.25    78.1225    -999.25    -999.25  1573.4888     0.4852     8.2491    -999.25    -999.25    -999.25    -999.25    -999.25 27483.6973     2.5285    -999.25    -999.25 10032531.0000    -999.25    -999.25    -999.25 -1493.4888   178.4176    -999.25    -999.25    -999.25
  1573.6412  8232.2510 8232251.0000    -999.25     9.3975     9.3975    -999.25    92.0000     0.0000    -999.25    79.3119    -999.25    -999.25  1573.6412     0.4722     9.1519    -999.25    -999.25    -999.25    -999.25    -999.25 27008.6973     2.4848    -999.25    -999.25 10192350.0000    -999.25    -999.25    -999.25 -1493.6412   178.4272    -999.25    -999.25    -999.25
  1573.7936  7826.0713 7826071.5000    -999.25     9.6253     9.6253    -999.25    92.0000     0.0000    -999.25    80.3652    -999.25    -999.25  1573.7936     0.4547     9.8928    -999.25    -999.25    -999.25    -999.25    -999.25 25676.0879     2.3622    -999.25    -999.25 10192350.0000    -999.25    -999.25    -999.25 -1493.7936   178.4367    -999.25    -999.25    -999.25
  1573.9460  7371.5215 7371521.5000    -999.25    10.1851    10.1851    -999.25    92.0000     0.0000    -999.25    81.6973    -999.25    -999.25  1573.9460     0.4831    10.3920    -999.25    -999.25    -999.25    -999.25    -999.25 24184.7812     2.2250    -999.25    -999.25 10192350.0000    -999.25    -999.25    -999.25 -1493.9460   178.4462    -999.25    -999.25    -999.25
  1574.0984  6997.4795 6997479.5000    -999.25    10.2393    10.2393    -999.25    92.0000     0.0000    -999.25    82.0496    -999.25    -999.25  1574.0984     0.5171    10.6131    -999.25    -999.25    -999.25    -999.25    -999.25 22957.6094     2.1121    -999.25    -999.25 10192350.0000    -999.25    -999.25    -999.25 -1494.0984   178.4558    -999.25    -999.25    -999.25
