~Version ---------------------------------------------------
VERS. 2.0 : CWLS log ASCII Standard -VERSION 2.0
WRAP.  NO : 
~Well ------------------------------------------------------
STRT.m                                                   1260.0 : 
STOP.m                                                1659.7452 : 
STEP.m                                                   0.1524 : 
NULL.                                                   -999.25 : 
COMP.                                                           : COMPANY
WELL.                                                    Well-6 : WELL
FLD .                                                           : FIELD
LOC .                                                           : LOCATION
SRVC.                                                           : SERVICE COMPANY
DATE. 2021-01-20 14:34:00   : Log Export Date {yyyy-MM-dd HH:mm : ss}
PROV.                                                           : PROVINCE
UWI .                                                    Well-6 : UNIQUE WELL ID
API .                                                           : API NUMBER
~Curve Information -----------------------------------------
DEPTH             .m        : DEPTH
ACOUSTICIMPEDANCE1.kPa.s/m  : ACOUSTICIMPEDANCE1
AI                .kPa.s/m  : AI
AVG_PIGN          .m3/m3    : AVG_PIGN
CALI              .in       : CALI
CALI[DERIVED]1    .in       : CALI[DERIVED]1
DT                .us/ft    : DT
FACIES            ._        : FACIES
FLD1              ._        : FLD1
GR                .gAPI     : GR
LLD               .ohm.m    : LLD
LLS               .ohm.m    : LLS
LL3               .ohm.m    : LL3
DEPTH_1           .m        : DEPTH_1
NPHI              .m3/m3    : NPHI
ONE-WAYTIME1      .ms       : ONE-WAYTIME1
PERF_INT          ._        : PERF_INT
PERMEABILITY      .mD       : PERMEABILITY
PHIT              .m3/m3    : PHIT
PIGE              .m3/m3    : PIGE
PIGN              .m3/m3    : PIGN
PIGN_MODELLING    .m3/m3    : PIGN_MODELLING
PIMP              .kPa.s/m  : PIMP
RHOB              .g/cm3    : RHOB
LLD_1             .ohm.m    : LLD_1
RT_MODELLING      .ohm.m    : RT_MODELLING
RT_POWER          .ohm.m    : RT_POWER
SP                .mV       : SP
SUWI              ._        : SUWI
SUWI_MODELLING    ._        : SUWI_MODELLING
SXWI              ._        : SXWI
TDVSS             .m        : TDVSS
VCL               .%        : VCL
WATER_VOL         ._        : WATER_VOL
ZLT               ._        : ZLT
~Params ----------------------------------------------------
~Other -----------------------------------------------------
~ASCII -----------------------------------------------------
# ...
  1287.1708  4170.8296 4170829.2500    -999.25     9.7605     9.7605   159.5450     0.0000    -999.25    39.0595     0.7326     0.7072     0.9148  1287.1708     0.5900  -583.5516    -999.25    -999.25     0.2949     0.0573     0.0573     0.0573 13683.8232     2.1832     0.7326     0.7326     0.5367    37.0052     1.0000     1.0000     1.0000 -1209.4708    77.9157     0.0573    -999.25
  1287.2796  4157.0825 4155817.5000    -999.25     9.7880     9.7880   159.8705     0.0000    -999.25    39.9193     0.7294     0.7041     0.9080  1287.2795     0.5951  -583.6041    -999.25    -999.25     0.2953     0.0546     0.0546     0.0546 13634.5713     2.1804     0.7294     0.7294     0.5321    36.9496     1.0000     1.0000     1.0000 -1209.5796    78.9530     0.0546    -999.25
  1287.3232  4149.8018 4149801.7500    -999.25     9.7835     9.7835   160.0010     0.0000    -999.25    39.9931     0.7274     0.7032     0.9060  1287.3231     0.6015  -583.6251    -999.25    -999.25     0.2958     0.0517     0.0517     0.0517 13614.8350     2.1784     0.7274     0.7274     0.5291    36.9411     1.0000     1.0000     1.0000 -1209.6232    80.0481     0.0517    -999.25
  1287.4320  4132.8076 4132761.5000    -999.25     9.7723     9.7723   160.2830     0.0000    -999.25    40.1774     0.7223     0.7009     0.9010  1287.4320     0.6173  -583.6776    -999.25    -999.25     0.2971     0.0446     0.0446     0.0446 13558.9277     2.1733     0.7223     0.7223     0.5217    36.9199     1.0000     1.0000     1.0000 -1209.7319    82.7810     0.0446    -999.25
  1287.4756  4125.9326 4125932.7500    -999.25     9.7528     9.7528   160.3960     0.0000    -999.25    40.4048     0.7204     0.7000     0.8988  1287.4756     0.6254  -583.6987    -999.25    -999.25     0.2976     0.0415     0.0415     0.0415 13536.5244     2.1712     0.7204     0.7204     0.5190    36.9174     1.0000     1.0000     1.0000 -1209.7755    83.9789     0.0415    -999.25
  1287.5844  4114.6689 4115892.2500    -999.25     9.7042     9.7042   160.4496     0.0000    -999.25    40.9725     0.7157     0.6979     0.8933  1287.5844     0.6457  -583.7512    -999.25    -999.25     0.2990     0.0338     0.0338     0.0338 13503.5840     2.1660     0.7157     0.7157     0.5123    36.9113     1.0000     1.0000     1.0000 -1209.8844    86.9680     0.0338    -999.25
  1287.6280  4111.8687 4111868.7500    -999.25     9.6908     9.6908   160.4710     0.0000    -999.25    41.0585     0.7142     0.6974     0.8928  1287.6279     0.6503  -583.7722    -999.25    -999.25     0.2991     0.0329     0.0329     0.0329 13490.3838     2.1648     0.7142     0.7142     0.5101    36.9157     1.0000     1.0000     1.0000 -1209.9280    87.2936     0.0329    -999.25
  1287.7368  4109.4180 4111246.5000    -999.25     9.6574     9.6574   160.3475     0.0000    -999.25    41.2733     0.7104     0.6963     0.8917  1287.7368     0.6618  -583.8247    -999.25    -999.25     0.2995     0.0308     0.0308     0.0308 13488.3418     2.1619     0.7104     0.7104     0.5047    36.9268     1.0000     1.0000     1.0000 -1210.0367    88.1060     0.0308    -999.25
  1287.7804  4110.9971 4110997.0000    -999.25     9.6474     9.6474   160.2980     0.0000    -999.25    41.3159     0.7096     0.6964     0.8900  1287.7804     0.6599  -583.8457    -999.25    -999.25     0.2995     0.0308     0.0308     0.0308 13487.5234     2.1620     0.7096     0.7096     0.5036    36.9362     1.0000     1.0000     1.0000 -1210.0803    88.1060     0.0308    -999.25
  1287.8892  4126.3994 4128649.7500    -999.25     9.6223     9.6223   159.7297     0.0000    -999.25    41.4223     0.7076     0.6967     0.8856  1287.8892     0.6550  -583.8982    -999.25    -999.25     0.2995     0.0308     0.0308     0.0308 13545.4395     2.1624     0.7076     0.7076     0.5007    36.9597     1.0000     1.0000     1.0000 -1210.1892    88.1060     0.0308    -999.25
  1287.9328  4135.7241 4135724.0000    -999.25     9.6151     9.6151   159.5020     0.0000    -999.25    41.5912     0.7074     0.6972     0.8881  1287.9327     0.6481  -583.9193    -999.25    -999.25     0.2992     0.0329     0.0329     0.0329 13568.6484     2.1642     0.7074     0.7074     0.5004    36.9782     1.0000     1.0000     1.0000 -1210.2328    87.2989     0.0329    -999.25
  1288.0416  4165.9585 4166977.5000    -999.25     9.5970     9.5970   158.6724     0.0000    -999.25    42.0126     0.7070     0.6984     0.8944  1288.0416     0.6310  -583.9717    -999.25    -999.25     0.2982     0.0382     0.0382     0.0382 13671.1855     2.1687     0.7070     0.7070     0.4998    37.0243     1.0000     1.0000     1.0000 -1210.3416    85.2850     0.0382    -999.25
  1288.0852  4179.5015 4179501.7500    -999.25     9.5975     9.5975   158.3400     0.0000    -999.25    42.1418     0.7072     0.6992     0.8965  1288.0852     0.6232  -583.9928    -999.25    -999.25     0.2977     0.0414     0.0414     0.0414 13712.2754     2.1712     0.7072     0.7072     0.5001    37.0470     1.0000     1.0000     1.0000 -1210.3851    84.0457     0.0414    -999.25
  1288.1940  4209.6733 4208994.5000    -999.25     9.5989     9.5989   157.6554     0.0000    -999.25    42.4641     0.7077     0.7011     0.9019  1288.1940     0.6037  -584.0453    -999.25    -999.25     0.2962     0.0494     0.0494     0.0494 13809.0361     2.1774     0.7077     0.7077     0.5009    37.1038     1.0000     1.0000     1.0000 -1210.4940    80.9530     0.0494    -999.25
  1288.2376  4220.8130 4220813.0000    -999.25     9.6061     9.6061   157.3810     0.0000    -999.25    42.4654     0.7082     0.7020     0.9038  1288.2375     0.5993  -584.0663    -999.25    -999.25     0.2959     0.0513     0.0513     0.0513 13847.8115     2.1794     0.7082     0.7082     0.5016    37.1207     1.0000     1.0000     1.0000 -1210.5376    80.2055     0.0513    -999.25
  1288.3464  4235.9663 4235071.0000    -999.25     9.6241     9.6241   157.1704     0.0000    -999.25    42.4686     0.7094     0.7041     0.9087  1288.3464     0.5882  -584.1188    -999.25    -999.25     0.2951     0.0562     0.0562     0.0562 13894.5898     2.1843     0.7094     0.7094     0.5033    37.1627     1.0000     1.0000     1.0000 -1210.6464    78.3400     0.0562    -999.25
  1288.3900  4240.7847 4240785.0000    -999.25     9.6610     9.6610   157.0860     0.0000    -999.25    42.5611     0.7102     0.7050     0.9120  1288.3900     0.5872  -584.1398    -999.25    -999.25     0.2950     0.0565     0.0565     0.0565 13913.3359     2.1856     0.7102     0.7102     0.5044    37.1752     1.0000     1.0000     1.0000 -1210.6899    78.2087     0.0565    -999.25
  1288.4988  4240.9043 4239263.0000    -999.25     9.7529     9.7529   157.3166     0.0000    -999.25    42.7917     0.7121     0.7071     0.9203  1288.4988     0.5850  -584.1923    -999.25    -999.25     0.2948     0.0573     0.0573     0.0573 13908.3418     2.1889     0.7121     0.7121     0.5071    37.2063     1.0000     1.0000     1.0000 -1210.7988    77.8810     0.0573    -999.25
  1288.5424  4238.6528 4238653.0000    -999.25     9.8455     9.8455   157.4090     0.0000    -999.25    42.8232     0.7132     0.7080     0.9242  1288.5424     0.5858  -584.2134    -999.25    -999.25     0.2949     0.0570     0.0570     0.0570 13906.3408     2.1890     0.7132     0.7132     0.5087    37.2200     1.0000     1.0000     1.0000 -1210.8424    78.0132     0.0570    -999.25
  1288.6512  4222.6431 4222105.5000    -999.25    10.0765    10.0765   158.0280     0.0000    -999.25    42.9017     0.7159     0.7101     0.9340  1288.6512     0.5879  -584.2659    -999.25    -999.25     0.2951     0.0562     0.0562     0.0562 13852.0518     2.1893     0.7159     0.7159     0.5125    37.2544     1.0000     1.0000     1.0000 -1210.9512    78.3430     0.0562    -999.25
  1288.6948  4215.4741 4215474.0000    -999.25    10.2180    10.2180   158.2760     0.0000    -999.25    42.9770     0.7174     0.7110     0.9351  1288.6948     0.5900  -584.2869    -999.25    -999.25     0.2952     0.0552     0.0552     0.0552 13830.2959     2.1890     0.7174     0.7174     0.5147    37.2612     1.0000     1.0000     1.0000 -1210.9948    78.7186     0.0552    -999.25
