~Version ---------------------------------------------------
VERS. 2.0 : CWLS log ASCII Standard -VERSION 2.0
WRAP.  NO : 
~Well ------------------------------------------------------
STRT.m                                                1290.3698 : 
STOP.m                                                1526.7422 : 
STEP.m                                                   0.1524 : 
NULL.                                                   -999.25 : 
COMP.                                                           : COMPANY
WELL.                                                   Well-18 : WELL
FLD .                                                           : FIELD
LOC .                                                           : LOCATION
SRVC.                                                           : SERVICE COMPANY
DATE. 2021-01-20 14:34:10   : Log Export Date {yyyy-MM-dd HH:mm : ss}
PROV.                                                           : PROVINCE
UWI .                                                   Well-18 : UNIQUE WELL ID
API .                                                           : API NUMBER
~Curve Information -----------------------------------------
DEPTH             .m        : DEPTH
ACOUSTICIMPEDANCE1.kPa.s/m  : ACOUSTICIMPEDANCE1
AI                .kPa.s/m  : AI
AVG_PIGN          .m3/m3    : AVG_PIGN
BS                .in       : BS
CALI              .in       : CALI
CALI[DERIVED]1    .in       : CALI[DERIVED]1
DT                .us/ft    : DT
FACIES            ._        : FACIES
FLD1              ._        : FLD1
GR                .gAPI     : GR
DEPTH_1           .m        : DEPTH_1
NPHI              .m3/m3    : NPHI
PEF               .b/e      : PEF
PERF_INT          ._        : PERF_INT
PHIT              .m3/m3    : PHIT
PIGN              .m3/m3    : PIGN
PIGN_MODELLING    .m3/m3    : PIGN_MODELLING
PIMP              .kPa.s/m  : PIMP
RHOB              .g/cm3    : RHOB
LLD               .ohm.m    : LLD
RT_MODELLING      .ohm.m    : RT_MODELLING
RT_POWER          .ohm.m    : RT_POWER
RXO               .ohm.m    : RXO
SP                .mV       : SP
SUWI              ._        : SUWI
SUWI_MODELLING    ._        : SUWI_MODELLING
SXWI              ._        : SXWI
TDVSS             .m        : TDVSS
TEMP              .K        : TEMP
VCL               .%        : VCL
WATER_VOL         ._        : WATER_VOL
ZLT               ._        : ZLT
~Params ----------------------------------------------------
~Other -----------------------------------------------------
~ASCII -----------------------------------------------------
# ...
  1307.1338  4812.6382 4812638.5000    -999.25     8.5000     8.7037     8.7037   140.6606    -999.25    -999.25    70.2220  1307.1338     0.4881     6.0189    -999.25     0.1940     0.0247     0.0247 15789.4951     2.2210     1.0257     1.0257     1.0520     0.5749   -69.1875     1.0000     1.0000     1.0000 -1215.7540   154.3374    84.6420     0.0247    -999.25
  1307.2862  4855.9272 4855927.5000    -999.25     8.5000     8.7450     8.7450   139.9063    -999.25    -999.25    70.9263  1307.2863     0.5088     6.2239    -999.25     0.1932     0.0276     0.0276 15931.5205     2.2289     1.0423     1.0423     1.0864     0.6082   -69.5625     1.0000     1.0000     1.0000 -1215.9038   154.3461    82.7760     0.0276    -999.25
  1307.4386  4900.2178 4900218.0000    -999.25     8.5000     8.5683     8.5683   138.9826    -999.25    -999.25    72.5416  1307.4386     0.4495     6.2668    -999.25     0.1920     0.0312     0.0312 16076.8311     2.2344     1.0481     1.0481     1.0985     0.5336   -69.3125     1.0000     1.0000     1.0000 -1216.0536   154.3548    80.4060     0.0312    -999.25
  1307.5910  4912.4771 4912477.0000    -999.25     8.5000     8.5500     8.5500   138.6451    -999.25    -999.25    70.9253  1307.5911     0.4447     6.5247    -999.25     0.1914     0.0331     0.0331 16117.0508     2.2345     1.0714     1.0714     1.1480     0.7453   -68.6250     1.0000     1.0000     1.0000 -1216.2034   154.3634    79.1700     0.0331    -999.25
  1307.7434  4888.2075 4888207.5000    -999.25     8.5000     8.5181     8.5181   138.7598    -999.25    -999.25    66.7725  1307.7434     0.4411     6.8304    -999.25     0.1919     0.0310     0.0310 16037.4258     2.2254     1.0731     1.0731     1.1514     0.7076   -69.5000     1.0000     1.0000     1.0000 -1216.3531   154.3721    80.4310     0.0310    -999.25
  1307.8958  4901.6289 4901629.0000    -999.25     8.5000     8.3573     8.3573   137.5223    -999.25    -999.25    63.1787  1307.8959     0.4787     6.9866    -999.25     0.1933     0.0267     0.0267 16081.4600     2.2116     1.0859     1.0859     1.1792     0.7171   -68.5000     1.0000     1.0000     1.0000 -1216.5029   154.3808    83.2650     0.0267    -999.25
  1308.0482  4934.0547 4934055.0000    -999.25     8.5000     8.3894     8.3894   136.9614    -999.25    -999.25    62.5111  1308.0482     0.4896     6.6516    -999.25     0.1939     0.0261     0.0261 16187.8438     2.2171     1.0992     1.0992     1.2082     0.6841   -67.9375     1.0000     1.0000     1.0000 -1216.6527   154.3894    83.9090     0.0261    -999.25
  1308.2006  4875.6211 4875621.0000    -999.25     8.5000     8.4520     8.4520   139.2943    -999.25    -999.25    65.2620  1308.2007     0.4970     6.0097    -999.25     0.1940     0.0265     0.0265 15996.1318     2.2282     1.0748     1.0748     1.1552     0.5633   -68.8750     1.0000     1.0000     1.0000 -1216.8025   154.3981    83.7710     0.0265    -999.25
  1308.3530  4944.4067 4944407.0000    -999.25     8.5000     8.4651     8.4651   138.1048    -999.25    -999.25    69.9231  1308.3530     0.4800     5.9471    -999.25     0.1935     0.0280     0.0280 16221.8076     2.2403     1.0658     1.0658     1.1360     0.5780   -68.5625     1.0000     1.0000     1.0000 -1216.9523   154.4068    82.7260     0.0280    -999.25
  1308.5054  4931.7603 4931760.0000    -999.25     8.5000     8.6096     8.6096   138.9071    -999.25    -999.25    71.4397  1308.5054     0.4547     5.9084    -999.25     0.1923     0.0319     0.0319 16180.3154     2.2476     1.0776     1.0776     1.1613     0.4547   -68.0000     1.0000     1.0000     1.0000 -1217.1021   154.4154    80.1860     0.0319    -999.25
  1308.6578  4929.5273 4929527.0000    -999.25     8.5000     8.7396     8.7396   139.4937    -999.25    -999.25    70.8669  1308.6578     0.4351     6.3353    -999.25     0.1913     0.0357     0.0357 16172.9893     2.2560     1.0861     1.0861     1.1796     0.4720   -69.1250     1.0000     1.0000     1.0000 -1217.2520   154.4241    77.8030     0.0357    -999.25
  1308.8102  4890.2451 4890245.5000    -999.25     8.5000     8.7314     8.7314   140.4366    -999.25    -999.25    69.0691  1308.8102     0.4179     6.1086    -999.25     0.1911     0.0361     0.0361 16044.1123     2.2532     1.0655     1.0655     1.1352     0.7522   -68.6875     1.0000     1.0000     1.0000 -1217.4017   154.4328    77.5000     0.0361    -999.25
  1308.9626  4870.7402 4870740.5000    -999.25     8.5000     8.8333     8.8333   140.4433    -999.25    -999.25    70.3491  1308.9626     0.4270     6.1446    -999.25     0.1922     0.0312     0.0312 15980.1191     2.2443     1.0632     1.0632     1.1304     0.6756   -68.0625     1.0000     1.0000     1.0000 -1217.5515   154.4414    80.4750     0.0312    -999.25
  1309.1150  4835.2178 4835217.5000    -999.25     8.5000     8.8964     8.8964   140.7596    -999.25    -999.25    72.5842  1309.1150     0.4563     6.2112    -999.25     0.1931     0.0265     0.0265 15863.5752     2.2329     1.0265     1.0265     1.0536     0.6611   -69.4375     1.0000     1.0000     1.0000 -1217.7013   154.4501    83.3230     0.0265    -999.25
  1309.2674  4796.8291 4796829.5000    -999.25     8.5000     8.9056     8.9056   141.2150    -999.25    -999.25    73.5137  1309.2675     0.4621     6.4162    -999.25     0.1930     0.0264     0.0264 15737.6289     2.2224     0.9875     0.9875     0.9751     0.6542   -68.5000     1.0000     1.0000     1.0000 -1217.8511   154.4588    83.2910     0.0264    -999.25
  1309.4198  4783.1714 4783171.0000    -999.25     8.5000     8.9171     8.9171   141.5099    -999.25    -999.25    72.6683  1309.4198     0.4525     6.4953    -999.25     0.1928     0.0281     0.0281 15692.8193     2.2207     0.9815     0.9815     0.9634     0.6210   -68.3750     1.0000     1.0000     1.0000 -1218.0009   154.4675    82.3880     0.0281    -999.25
  1309.5722  4789.3188 4789319.0000    -999.25     8.5000     8.8610     8.8610   141.0610    -999.25    -999.25    73.0270  1309.5723     0.4467     5.9486    -999.25     0.1931     0.0288     0.0288 15712.9893     2.2165     0.9872     0.9872     0.9746     0.7062   -68.7500     1.0000     1.0000     1.0000 -1218.1506   154.4761    82.1380     0.0288    -999.25
  1309.7246  4841.6104 4841610.0000    -999.25     8.5000     8.8620     8.8620   139.7830    -999.25    -999.25    71.1427  1309.7246     0.4525     5.5861    -999.25     0.1936     0.0275     0.0275 15884.5479     2.2204     0.9848     0.9848     0.9698     0.7323   -69.6250     1.0000     1.0000     1.0000 -1218.3004   154.4848    83.0380     0.0275    -999.25
  1309.8770  4819.0586 4819059.0000    -999.25     8.5000     8.8804     8.8804   139.9723    -999.25    -999.25    72.2398  1309.8771     0.4641     5.6029    -999.25     0.1937     0.0257     0.0257 15810.5605     2.2130     0.9838     0.9838     0.9678     0.6323   -69.7500     1.0000     1.0000     1.0000 -1218.4502   154.4935    84.0290     0.0257    -999.25
  1310.0294  4767.7896 4767790.0000    -999.25     8.5000     8.8941     8.8941   140.6758    -999.25    -999.25    71.2073  1310.0294     0.4656     6.1136    -999.25     0.1937     0.0243     0.0243 15642.3545     2.2005     0.9723     0.9723     0.9454     0.6128   -69.5625     1.0000     1.0000     1.0000 -1218.6000   154.5021    84.6980     0.0243    -999.25
  1310.1818  4744.3691 4744369.0000    -999.25     8.5000     8.9420     8.9420   141.1935    -999.25    -999.25    71.4491  1310.1818     0.4745     6.5632    -999.25     0.1938     0.0233     0.0233 15565.5156     2.1978     0.9776     0.9776     0.9557     0.6532   -69.4375     1.0000     1.0000     1.0000 -1218.7498   154.5108    85.2730     0.0233    -999.25
  1310.3342  4828.2651 4828265.0000    -999.25     8.5000     8.9354     8.9354   139.7022    -999.25    -999.25    69.4441  1310.3342     0.4828     6.5285    -999.25     0.1935     0.0260     0.0260 15840.7646     2.2130     1.0009     1.0009     1.0019     0.5941   -69.6875     1.0000     1.0000     1.0000 -1218.8995   154.5195    83.7430     0.0260    -999.25
