~Version ---------------------------------------------------
VERS. 2.0 : CWLS log ASCII Standard -VERSION 2.0
WRAP.  NO : 
~Well ------------------------------------------------------
STRT.m                                                   1260.0 : 
STOP.m                                                1659.7452 : 
STEP.m                                                   0.1524 : 
NULL.                                                   -999.25 : 
COMP.                                                           : COMPANY
WELL.                                                    Well-6 : WELL
FLD .                                                           : FIELD
LOC .                                                           : LOCATION
SRVC.                                                           : SERVICE COMPANY
DATE. 2021-01-20 14:34:00   : Log Export Date {yyyy-MM-dd HH:mm : ss}
PROV.                                                           : PROVINCE
UWI .                                                    Well-6 : UNIQUE WELL ID
API .                                                           : API NUMBER
~Curve Information -----------------------------------------
DEPTH             .m        : DEPTH
ACOUSTICIMPEDANCE1.kPa.s/m  : ACOUSTICIMPEDANCE1
AI                .kPa.s/m  : AI
AVG_PIGN          .m3/m3    : AVG_PIGN
CALI              .in       : CALI
CALI[DERIVED]1    .in       : CALI[DERIVED]1
DT                .us/ft    : DT
FACIES            ._        : FACIES
FLD1              ._        : FLD1
GR                .gAPI     : GR
LLD               .ohm.m    : LLD
LLS               .ohm.m    : LLS
LL3               .ohm.m    : LL3
DEPTH_1           .m        : DEPTH_1
NPHI              .m3/m3    : NPHI
ONE-WAYTIME1      .ms       : ONE-WAYTIME1
PERF_INT          ._        : PERF_INT
PERMEABILITY      .mD       : PERMEABILITY
PHIT              .m3/m3    : PHIT
PIGE              .m3/m3    : PIGE
PIGN              .m3/m3    : PIGN
PIGN_MODELLING    .m3/m3    : PIGN_MODELLING
PIMP              .kPa.s/m  : PIMP
RHOB              .g/cm3    : RHOB
LLD_1             .ohm.m    : LLD_1
RT_MODELLING      .ohm.m    : RT_MODELLING
RT_POWER          .ohm.m    : RT_POWER
SP                .mV       : SP
SUWI              ._        : SUWI
SUWI_MODELLING    ._        : SUWI_MODELLING
SXWI              ._        : SXWI
TDVSS             .m        : TDVSS
VCL               .%        : VCL
WATER_VOL         ._        : WATER_VOL
ZLT               ._        : ZLT
~Params ----------------------------------------------------
~Other -----------------------------------------------------
~ASCII -----------------------------------------------------
# ...
  1312.7740  4135.7163 4135716.2500    -999.25    11.8663    11.8663   141.9320     0.0000    -999.25    46.1951     1.1264     1.1380     1.3586  1312.7739     0.6288  -595.9048    -999.25    -999.25     0.2941     0.0623     0.0623     0.0623 13568.6230     1.9258     1.1264     1.1264     1.2688    36.7346     1.0000     1.0000     1.0000 -1235.0740    75.9831     0.0623    -999.25
  1312.8828  4130.0420 4133377.5000    -999.25    12.0085    12.0085   140.7498     0.0000    -999.25    46.4329     1.1174     1.1292     1.3420  1312.8828     0.6209  -595.9573    -999.25    -999.25     0.2933     0.0669     0.0669     0.0669 13560.9502     1.9072     1.1174     1.1174     1.2486    36.7276     1.0000     1.0000     1.0000 -1235.1827    74.1840     0.0669    -999.25
  1312.9264  4132.4404 4132440.2500    -999.25    12.0137    12.0137   140.2760     0.0000    -999.25    46.5410     1.1144     1.1268     1.3385  1312.9264     0.6186  -595.9783    -999.25    -999.25     0.2931     0.0682     0.0682     0.0682 13557.8750     1.9018     1.1144     1.1144     1.2419    36.7347     1.0000     1.0000     1.0000 -1235.2263    73.6773     0.0682    -999.25
  1313.0352  4147.7578 4152523.0000    -999.25    12.0269    12.0269   138.7832     0.0000    -999.25    46.8107     1.1069     1.1210     1.3299  1313.0352     0.6130  -596.0308    -999.25    -999.25     0.2925     0.0715     0.0715     0.0715 13623.7637     1.8886     1.1068     1.1069     1.2251    36.7527     1.0000     1.0000     1.0000 -1235.3352    72.4130     0.0715    -999.25
  1313.0788  4160.5708 4160571.0000    -999.25    11.9742    11.9742   138.1850     0.0000    -999.25    46.8155     1.1038     1.1200     1.3347  1313.0787     0.6102  -596.0518    -999.25    -999.25     0.2922     0.0730     0.0730     0.0730 13650.1670     1.8862     1.1038     1.1038     1.2184    36.7596     1.0000     1.0000     1.0000 -1235.3788    71.8457     0.0730    -999.25
  1313.1876  4182.7881 4190157.2500    -999.25    11.8428    11.8428   137.0270     0.0000    -999.25    46.8275     1.0962     1.1176     1.3468  1313.1876     0.6032  -596.1043    -999.25    -999.25     0.2916     0.0767     0.0767     0.0767 13747.2354     1.8804     1.0961     1.0962     1.2015    36.7768     1.0000     1.0000     1.0000 -1235.4875    70.4300     0.0767    -999.25
  1313.2312  4202.0137 4202013.5000    -999.25    11.8118    11.8118   136.5630     0.0000    -999.25    46.9198     1.0930     1.1170     1.3491  1313.2312     0.5992  -596.1254    -999.25    -999.25     0.2913     0.0783     0.0783     0.0783 13786.1338     1.8827     1.0930     1.0930     1.1947    36.7805     1.0000     1.0000     1.0000 -1235.5311    69.7791     0.0783    -999.25
  1313.3400  4235.5127 4247445.5000    -999.25    11.7343    11.7343   135.8862     0.0000    -999.25    47.1502     1.0852     1.1156     1.3547  1313.3400     0.5893  -596.1779    -999.25    -999.25     0.2905     0.0826     0.0826     0.0826 13935.1895     1.8883     1.0851     1.0852     1.1776    36.7897     1.0000     1.0000     1.0000 -1235.6400    68.1550     0.0826    -999.25
  1313.3836  4265.6523 4265652.0000    -999.25    11.6541    11.6541   135.6150     0.0000    -999.25    47.4639     1.0832     1.1142     1.3581  1313.3835     0.5858  -596.1989    -999.25    -999.25     0.2904     0.0835     0.0835     0.0835 13994.9219     1.8979     1.0832     1.0832     1.1734    36.7953     1.0000     1.0000     1.0000 -1235.6836    67.7885     0.0835    -999.25
  1313.4924  4308.5884 4318867.5000    -999.25    11.4539    11.4539   135.9655     0.0000    -999.25    48.2469     1.0784     1.1107     1.3664  1313.4924     0.5771  -596.2514    -999.25    -999.25     0.2900     0.0859     0.0859     0.0859 14169.5117     1.9220     1.0784     1.0784     1.1630    36.8091     1.0000     1.0000     1.0000 -1235.7924    66.8740     0.0859    -999.25
  1313.5360  4340.1924 4340192.5000    -999.25    11.3397    11.3397   136.1060     0.0000    -999.25    48.7439     1.0803     1.1082     1.3734  1313.5360     0.5744  -596.2724    -999.25    -999.25     0.2899     0.0861     0.0861     0.0861 14239.4766     1.9381     1.0803     1.0803     1.1670    36.8205     1.0000     1.0000     1.0000 -1235.8359    66.8008     0.0861    -999.25
  1313.6448  4373.1978 4367908.0000    -999.25    11.0546    11.0546   137.8786     0.0000    -999.25    49.9843     1.0848     1.1019     1.3910  1313.6448     0.5676  -596.3249    -999.25    -999.25     0.2898     0.0865     0.0865     0.0865 14330.4072     1.9783     1.0849     1.0848     1.1769    36.8488     1.0000     1.0000     1.0000 -1235.9448    66.6180     0.0865    -999.25
  1313.6884  4379.0146 4379014.5000    -999.25    10.9963    10.9963   138.5890     0.0000    -999.25    50.7971     1.0931     1.1010     1.3959  1313.6884     0.5670  -596.3459    -999.25    -999.25     0.2899     0.0861     0.0861     0.0861 14366.8457     1.9911     1.0932     1.0931     1.1950    36.8561     1.0000     1.0000     1.0000 -1235.9884    66.8034     0.0861    -999.25
  1313.7972  4371.6660 4348337.0000    -999.25    10.8506    10.8506   141.0554     0.0000    -999.25    52.8254     1.1137     1.0990     1.4083  1313.7972     0.5657  -596.3984    -999.25    -999.25     0.2901     0.0849     0.0849     0.0849 14266.1973     2.0231     1.1138     1.1137     1.2403    36.8741     1.0000     1.0000     1.0000 -1236.0972    67.2660     0.0849    -999.25
  1313.8409  4336.0151 4336015.0000    -999.25    10.7738    10.7738   142.0460     0.0000    -999.25    53.4941     1.1318     1.1049     1.4081  1313.8409     0.5687  -596.4195    -999.25    -999.25     0.2911     0.0793     0.0793     0.0793 14225.7715     2.0207     1.1319     1.1318     1.2818    36.8600     1.0000     1.0000     1.0000 -1236.1409    69.4109     0.0793    -999.25
  1313.9496  4255.7949 4224145.5000    -999.25    10.5826    10.5826   144.2950     0.0000    -999.25    55.1574     1.1768     1.1197     1.4077  1313.9496     0.5760  -596.4720    -999.25    -999.25     0.2936     0.0655     0.0655     0.0655 13858.7451     2.0147     1.1770     1.1768     1.3849    36.8248     1.0000     1.0000     1.0000 -1236.2496    74.7460     0.0655    -999.25
  1313.9932  4179.2739 4179274.0000    -999.25    10.4748    10.4748   145.1970     0.0000    -999.25    55.6145     1.2057     1.1398     1.4246  1313.9932     0.5818  -596.4930    -999.25    -999.25     0.2335     0.0515     0.0515     0.0515 13711.5293     1.9909     1.2060     1.2057     1.4559    36.7648     1.0000     1.0000     1.0000 -1236.2932    59.6554     0.0515    -999.25
  1314.1020  4026.3877 4002358.2500    -999.25    10.2056    10.2056   146.2036     0.0000    -999.25    56.7551     1.2779     1.1901     1.4667  1314.1019     0.5964  -596.5455    -999.25    -999.25     0.0837     0.0165     0.0165     0.0165 13131.0967     1.9313     1.2782     1.2779     1.6331    36.6153     1.0000     1.0000     1.0000 -1236.4020    21.9980     0.0165    -999.25
  1314.1456  3931.4619 3931462.0000    -999.25    10.1035    10.1035   146.6070     0.0000    -999.25    56.9524     1.3167     1.2323     1.5919  1314.1455     0.6042  -596.5665    -999.25    -999.25     0.0598     0.0118     0.0118     0.0147 12898.4971     1.8910     1.3171     1.3167     1.7375    36.5086     1.0000     1.0000     1.0000 -1236.4456    15.7046     0.0118    -999.25
  1314.2544  3738.5583 3736185.0000    -999.25     9.8486     9.8486   145.9666     0.0000    -999.25    57.4445     1.4135     1.3378     1.9043  1314.2544     0.6237  -596.6190    -999.25    -999.25     0.0001     0.0001     0.0001     0.0100 12257.8252     1.7904     1.4139     1.4135     1.9980    36.2424     1.0000     1.0000     1.0000 -1236.5544     0.0000     0.0001    -999.25
  1314.2980  3657.9307 3657930.7500    -999.25     9.7492     9.7492   145.7100     3.0000    -999.25    56.9064     1.4583     1.4086     2.2433  1314.2980     0.6336  -596.6401    -999.25    -999.25     0.0001     0.0001     0.0001     0.0100 12001.0850     1.7487     1.4587     1.4583     2.1315    36.0922     1.0000     1.0000     1.0000 -1236.5980     0.0000     0.0001    -999.25
