~Version ---------------------------------------------------
VERS. 2.0 : CWLS log ASCII Standard -VERSION 2.0
WRAP.  NO : 
~Well ------------------------------------------------------
STRT.m                                                1295.9144 : 
STOP.m                                                1639.8812 : 
STEP.m                                                   0.1524 : 
NULL.                                                   -999.25 : 
COMP.                                                           : COMPANY
WELL.                                                    Well-1 : WELL
FLD .                                                           : FIELD
LOC .                                                           : LOCATION
SRVC.                                                           : SERVICE COMPANY
DATE. 2021-01-20 14:33:59   : Log Export Date {yyyy-MM-dd HH:mm : ss}
PROV.                                                           : PROVINCE
UWI .                                                    Well-1 : UNIQUE WELL ID
API .                                                           : API NUMBER
~Curve Information -----------------------------------------
DEPTH             .m        : DEPTH
ACOUSTICIMPEDANCE1.kPa.s/m  : ACOUSTICIMPEDANCE1
AI                .kPa.s/m  : AI
AVG_PIGN          .m3/m3    : AVG_PIGN
CALI              .in       : CALI
CALI[DERIVED]1    .in       : CALI[DERIVED]1
DFL               .ohm.m    : DFL
DT                .us/ft    : DT
FACIES            ._        : FACIES
FLD1              ._        : FLD1
GR                .gAPI     : GR
HDRS              .ohm.m    : HDRS
HMRS              .ohm.m    : HMRS
DEPTH_1           .m        : DEPTH_1
NPHI              .m3/m3    : NPHI
ONE-WAYTIME1      .ms       : ONE-WAYTIME1
PERF_INT          ._        : PERF_INT
PERMEABILITY      .mD       : PERMEABILITY
PIGN              .m3/m3    : PIGN
PIGN_MODELLING    .m3/m3    : PIGN_MODELLING
PIMP              .kPa.s/m  : PIMP
RHOB              .g/cm3    : RHOB
RT_MODELLING      .ohm.m    : RT_MODELLING
RT_POWER          .ohm.m    : RT_POWER
SP                .mV       : SP
SUWI              ._        : SUWI
SUWI_MODELLING    ._        : SUWI_MODELLING
TDVSS             .m        : TDVSS
VCL               .%        : VCL
WATER_VOL         ._        : WATER_VOL
ZLT               ._        : ZLT
~Params ----------------------------------------------------
~Other -----------------------------------------------------
~ASCII -----------------------------------------------------
# ...
  1409.3000  5226.9126 5226912.5000    -999.25     9.5820     9.5820     1.0632   132.4885     0.0000    -999.25    77.2178     1.0152     1.0313  1409.2999     0.6106  -642.0960    -999.25     0.0011     0.0126     0.0126 17148.6641     2.2720     1.0632     1.1303   272.6285     1.0000     1.0000 -1330.8099    86.1290     0.0126     2.0000
  1409.4524  5287.5000 5287500.0000    -999.25     9.5827     9.5827     1.1560   131.1888     0.0000    -999.25    77.8781     1.0801     1.0968  1409.4524     0.5986  -642.1695    -999.25     0.0013     0.0126     0.0126 17347.4414     2.2758     1.1560     1.3363   272.9386     1.0000     1.0000 -1330.9624    86.1290     0.0126     2.0000
  1409.6048  5320.0972 5320097.0000    -999.25     9.6053     9.6053     1.2905   130.2784     0.0000    -999.25    77.7550     1.1511     1.1636  1409.6047     0.5981  -642.2430    -999.25     0.0013     0.0126     0.0126 17454.3867     2.2739     1.2905     1.6655   273.2371     1.0000     1.0000 -1331.1147    86.1290     0.0126     2.0000
  1409.7572  5360.5957 5360595.5000    -999.25     9.5897     9.5897     1.4540   128.8353     0.0000    -999.25    78.0223     1.2092     1.2114  1409.7572     0.5978  -642.3166    -999.25     0.0015     0.0132     0.0132 17587.2559     2.2659     1.4540     2.1141   273.3818     1.0000     1.0000 -1331.2672    85.4220     0.0132     2.0000
  1409.9096  5469.6206 5469620.5000    -999.25     9.4592     9.4592     1.6062   126.2974     0.0000    -999.25    78.9259     1.2356     1.2423  1409.9095     0.5857  -642.3901    -999.25     0.0031     0.0162     0.0162 17944.9492     2.2664     1.6062     2.5798   273.1072     1.0000     1.0000 -1331.4196    82.1400     0.0162     2.0000
  1410.0620  5632.5596 5632559.5000    -999.25     9.2982     9.2982     1.6568   123.2061     0.0000    -999.25    79.9727     1.2665     1.2807  1410.0620     0.5576  -642.4636    -999.25     0.0103     0.0219     0.0219 18479.5254     2.2768     1.6568     2.7450   272.0620     1.0000     1.0000 -1331.5720    75.9470     0.0219     2.0000
  1410.2144  5812.7817 5812781.5000    -999.25     9.2140     9.2140     1.6500   120.2183     0.0000    -999.25    81.2336     1.3295     1.3475  1410.2144     0.5195  -642.5372    -999.25     0.0327     0.0287     0.0287 19070.8066     2.2927     1.6500     2.7224   269.6942     1.0000     1.0000 -1331.7244    68.4900     0.0287     2.0000
  1410.3668  6091.7681 6091768.0000    -999.25     9.2500     9.2500     1.6861   116.5934     0.0000    -999.25    81.7605     1.4406     1.4676  1410.3668     0.4745  -642.6107    -999.25     0.0818     0.0344     0.0344 19986.1152     2.3303     1.6861     2.8429   266.0909     1.0000     1.0000 -1331.8768    62.1370     0.0344     2.0000
  1410.5192  6627.2949 6627295.0000    -999.25     9.3379     9.3379     1.8673   110.2350     0.0000    -999.25    80.0021     1.6302     1.6763  1410.5192     0.4271  -642.6842    -999.25     0.1396     0.0367     0.0367 21743.0938     2.3969     1.8673     3.4869   262.0780     1.0000     1.0000 -1332.0292    59.6570     0.0367     2.0000
  1410.6716  7358.8281 7358828.5000    -999.25     9.2959     9.2959     2.2500   101.9085     0.0000    -999.25    75.7992     1.8596     1.9392  1410.6716     0.3918  -642.7578    -999.25     0.1570     0.0353     0.0353 24143.1367     2.4604     2.2500     5.0624   258.3647     1.0000     1.0000 -1332.1816    61.1210     0.0353     2.0000
  1410.8240  7978.8535 7978853.5000    -999.25     9.1089     9.1089     2.7322    95.4371     0.0000    -999.25    70.4620     2.1123     2.1960  1410.8240     0.3839  -642.8313    -999.25     0.1207     0.0318     0.0318 26177.3418     2.4983     2.7322     7.4651   255.8384     1.0000     1.0000 -1332.3340    65.0370     0.0318     2.0000
  1410.9764  8050.1709 8050171.0000    -999.25     9.0045     9.0045     3.3075    94.8627     0.0000    -999.25    66.6736     2.5182     2.5839  1410.9764     0.4047  -642.9048    -999.25     0.0948     0.0306     0.0306 26411.3223     2.5055     3.3075    10.9397   255.1359     1.0000     1.0000 -1332.4863    66.3880     0.0306     2.0000
  1411.1288  7284.2065 7284206.5000    -999.25     9.0859     9.0859     4.2138   101.4055     0.0000    -999.25    66.2787     3.1442     3.2215  1411.1288     0.4452  -642.9783    -999.25     0.0645     0.0302     0.0302 23898.3164     2.4234     4.2138    17.7561   256.4933     1.0000     1.0000 -1332.6388    66.7860     0.0302     2.0000
  1411.2812  6386.1587 6386158.5000    -999.25     9.2010     9.2010     5.2330   111.1944     0.0000    -999.25    69.6467     3.4320     3.4844  1411.2811     0.4807  -643.0519    -999.25     0.0369     0.0283     0.0283 20951.9648     2.3297     5.2330    27.3846   259.1857     1.0000     1.0000 -1332.7911    68.8100     0.0283     2.0000
  1411.4336  5933.3408 5933341.0000    -999.25     9.1855     9.1855     5.0210   118.9494     0.0000    -999.25    76.1055     2.7782     2.7808  1411.4336     0.4922  -643.1254    -999.25     0.0355     0.0284     0.0284 19466.3418     2.3155     5.0210    25.2106   262.2549     1.0000     1.0000 -1332.9436    68.7230     0.0284     2.0000
  1411.5860  6000.1133 6000113.5000    -999.25     9.0259     9.0259     3.2103   119.9995     0.0000    -999.25    82.4691     1.9357     1.8826  1411.5859     0.4793  -643.1989    -999.25     0.0394     0.0273     0.0273 19685.4121     2.3622     3.2103    10.3060   264.4386     1.0000     1.0000 -1333.0959    69.6060     0.0273     2.0000
  1411.7384  6623.2275 6623227.5000    -999.25     8.8885     8.8885     2.1008   113.2820     0.0000    -999.25    85.5805     1.5198     1.4836  1411.7384     0.4550  -643.2725    -999.25     0.0199     0.0198     0.0198 21729.7500     2.4616     2.1008     4.4134   264.8578     1.0000     1.0000 -1333.2484    74.2650     0.0198     2.0000
  1411.8908  7682.4917 7682491.5000    -999.25     8.8605     8.8605     1.7067   102.1154     0.0000    -999.25    83.5740     1.4979     1.4841  1411.8907     0.4377  -643.3460    -999.25     0.0099     0.0147     0.0147 25205.0254     2.5738     1.7067     2.9128   263.6912     1.0000     1.0000 -1333.4008    77.5520     0.0147     2.0000
  1412.0432  8439.5664 8439567.0000    -999.25     8.9059     8.9059     1.9283    94.2119     0.0000    -999.25    77.1312     1.8260     1.8827  1412.0432     0.4383  -643.4196    -999.25     0.0231     0.0194     0.0194 27688.8672     2.6086     1.9283     3.7183   261.9425     1.0000     1.0000 -1333.5532    77.6610     0.0194     2.0000
  1412.1956  7982.0430 7982043.0000    -999.25     9.0444     9.0444     3.0917    96.9539     0.0000    -999.25    70.0433     2.4421     2.6526  1412.1956     0.4617  -643.4930    -999.25     0.0267     0.0220     0.0220 26187.8047     2.5390     3.0917     9.5589   260.9787     1.0000     1.0000 -1333.7056    75.8110     0.0220     2.0000
  1412.3480  6818.6245 6818624.5000    -999.25     9.2519     9.2519     6.0335   107.7726     0.0000    -999.25    65.8609     3.0197     3.3429  1412.3480     0.4995  -643.5666    -999.25     0.0175     0.0221     0.0221 22370.8145     2.4110     6.0335    36.4025   261.5688     1.0000     1.0000 -1333.8580    75.6620     0.0221     2.0000
  1412.5004  5942.9868 5942986.5000    -999.25     9.4467     9.4467     8.7618   118.3932     0.0000    -999.25    66.3323     2.9743     3.1896  1412.5004     0.5320  -643.6401    -999.25     0.0095     0.0206     0.0206 19497.9883     2.3084     8.7618    76.7684   263.5147     1.0000     1.0000 -1334.0104    77.2960     0.0206     2.0000
  1412.6528  5617.4028 5617403.0000    -999.25     9.5385     9.5385     6.4613   124.1137     0.0000    -999.25    71.4748     2.3886     2.4603  1412.6528     0.5418  -643.7137    -999.25     0.0097     0.0212     0.0212 18429.8008     2.2874     6.4613    41.7480   265.7655     1.0000     1.0000 -1334.1628    76.6870     0.0212     2.0000
  1412.8052  5678.3545 5678354.5000    -999.25     9.4332     9.4332     2.9881   123.9178     0.0000    -999.25    79.5289     1.6546     1.6227  1412.8052     0.5288  -643.7872    -999.25     0.0167     0.0236     0.0236 18629.7715     2.3086     2.9881     8.9288   267.3456     1.0000     1.0000 -1334.3152    74.0520     0.0236     2.0000
