~Version ---------------------------------------------------
VERS. 2.0 : CWLS log ASCII Standard -VERSION 2.0
WRAP.  NO : 
~Well ------------------------------------------------------
STRT.m                                                1171.1084 : 
STOP.m                                                  1705.88 : 
STEP.m                                                   0.1524 : 
NULL.                                                   -999.25 : 
COMP.                                                           : COMPANY
WELL.                                                   Well-12 : WELL
FLD .                                                           : FIELD
LOC .                                                           : LOCATION
SRVC.                                                           : SERVICE COMPANY
DATE. 2021-01-20 14:34:05   : Log Export Date {yyyy-MM-dd HH:mm : ss}
PROV.                                                           : PROVINCE
UWI .                                                   Well-12 : UNIQUE WELL ID
API .                                                           : API NUMBER
~Curve Information -----------------------------------------
DEPTH             .m        : DEPTH
ACOUSTICIMPEDANCE1.kPa.s/m  : ACOUSTICIMPEDANCE1
AI                .kPa.s/m  : AI
AVG_PIGN          .m3/m3    : AVG_PIGN
DT                .us/ft    : DT
FACIES            ._        : FACIES
FLD1              ._        : FLD1
GR                .gAPI     : GR
HDRS              .ohm.m    : HDRS
HMRS              .ohm.m    : HMRS
DEPTH_1           .m        : DEPTH_1
NPHI              .m3/m3    : NPHI
ONE-WAYTIME1      .ms       : ONE-WAYTIME1
PERF_INT          ._        : PERF_INT
PERMEABILITY      .mD       : PERMEABILITY
PIGN              .m3/m3    : PIGN
PIGN_MODELLING    .m3/m3    : PIGN_MODELLING
PIMP              .kPa.s/m  : PIMP
RHOB              .g/cm3    : RHOB
RT_MODELLING      .ohm.m    : RT_MODELLING
RT_POWER          .ohm.m    : RT_POWER
SP                .mV       : SP
SUWI              ._        : SUWI
SUWI_MODELLING    ._        : SUWI_MODELLING
SXWI              ._        : SXWI
TDVSS             .m        : TDVSS
TEMP              .K        : TEMP
VCL               .%        : VCL
WATER_VOL         ._        : WATER_VOL
ZLT               ._        : ZLT
~Params ----------------------------------------------------
~Other -----------------------------------------------------
~ASCII -----------------------------------------------------
# ...
  1312.0784  5857.0415 5857103.0000    -999.25   121.9191     0.0000    -999.25   131.2951     1.1181     1.2217  1312.0784     0.6399  -599.6894    -999.25    -999.25    -999.25    -999.25 19216.2188     2.3428     1.1181     1.2501    90.7166    -999.25    -999.25    -999.25 -1229.5984   153.0562    -999.25    -999.25    -999.25
  1312.2308  6797.2183 6797218.5000    -999.25   109.0061     0.0000    -999.25   124.6538     1.3863     1.5669  1312.2307     0.5748  -599.7637    -999.25    -999.25    -999.25    -999.25 22300.5840     2.4309     1.3863     1.9218    90.3890    -999.25    -999.25    -999.25 -1229.7507   153.0647    -999.25    -999.25    -999.25
  1312.3831  7236.2930 7236293.0000    -999.25   103.8906     0.0000    -999.25   121.7727     1.3910     1.5709  1312.3831     0.5598  -599.8380    -999.25    -999.25    -999.25    -999.25 23741.1191     2.4665     1.3910     1.9349    90.3011    -999.25    -999.25    -999.25 -1229.9031   153.0732    -999.25    -999.25    -999.25
  1312.5356  6722.6431 6722643.0000    -999.25   109.2224     0.0000    -999.25   124.3778     1.4576     1.6590  1312.5355     0.5967  -599.9124    -999.25    -999.25    -999.25    -999.25 22055.9160     2.4090     1.4576     2.1246    90.5413    -999.25    -999.25    -999.25 -1230.0555   153.0817    -999.25    -999.25    -999.25
  1312.6880  5821.0225 5821036.5000    -999.25   120.6786     0.0000    -999.25   129.9446     1.2195     1.3583  1312.6880     0.6556  -599.9867    -999.25    -999.25    -999.25    -999.25 19097.8887     2.3047     1.2195     1.4872    90.9358    -999.25    -999.25    -999.25 -1230.2080   153.0902    -999.25    -999.25    -999.25
  1312.8404  5234.2954 5234295.5000    -999.25   131.2243     0.0000    -999.25   134.4249     1.0394     1.1473  1312.8403     0.6898  -600.0610    -999.25    -999.25    -999.25    -999.25 17172.8867     2.2535     1.0394     1.0804    91.5560    -999.25    -999.25    -999.25 -1230.3604   153.0986    -999.25    -999.25    -999.25
  1312.9928  5016.7598 5016760.0000    -999.25   136.5985     0.0000    -999.25   136.1409     0.9500     1.0465  1312.9928     0.7009  -600.1353    -999.25    -999.25    -999.25    -999.25 16459.1855     2.2483     0.9500     0.9025    92.1814    -999.25    -999.25    -999.25 -1230.5128   153.1071    -999.25    -999.25    -999.25
  1313.1452  4979.5093 4979509.5000    -999.25   137.4612     0.0000    -999.25   136.0516     0.8826     0.9778  1313.1451     0.7012  -600.2097    -999.25    -999.25    -999.25    -999.25 16336.9736     2.2457     0.8826     0.7790    92.7986    -999.25    -999.25    -999.25 -1230.6652   153.1156    -999.25    -999.25    -999.25
  1313.2976  4933.2974 4933297.0000    -999.25   138.0939     0.0000    -999.25   135.7099     0.8219     0.9093  1313.2976     0.6771  -600.2840    -999.25    -999.25    -999.25    -999.25 16185.3574     2.2351     0.8219     0.6755    93.2310    -999.25    -999.25    -999.25 -1230.8176   153.1241    -999.25    -999.25    -999.25
  1313.4500  4855.6108 4855611.0000    -999.25   139.6568     0.0000    -999.25   135.7208     0.7810     0.8517  1313.4500     0.6755  -600.3583    -999.25    -999.25    -999.25    -999.25 15930.4814     2.2248     0.7810     0.6100    93.2662    -999.25    -999.25    -999.25 -1230.9700   153.1326    -999.25    -999.25    -999.25
  1313.6024  4783.5410 4783541.0000    -999.25   141.2129     0.0000    -999.25   136.0425     0.7495     0.8048  1313.6024     0.7250  -600.4327    -999.25    -999.25    -999.25    -999.25 15694.0322     2.2162     0.7495     0.5618    93.0718    -999.25    -999.25    -999.25 -1231.1223   153.1411    -999.25    -999.25    -999.25
  1313.7548  4745.4136 4745416.0000    -999.25   142.1355     0.0000    -999.25   136.5287     0.7275     0.7712  1313.7548     0.7197  -600.5070    -999.25    -999.25    -999.25    -999.25 15568.9492     2.2129     0.7275     0.5293    92.8150    -999.25    -999.25    -999.25 -1231.2748   153.1496    -999.25    -999.25    -999.25
  1313.9072  4690.6670 4690669.0000    -999.25   143.6580     0.0000    -999.25   136.7131     0.7196     0.7555  1313.9072     0.6813  -600.5813    -999.25    -999.25    -999.25    -999.25 15389.3350     2.2108     0.7196     0.5178    92.6583    -999.25    -999.25    -999.25 -1231.4271   153.1581    -999.25    -999.25    -999.25
  1314.0596  4638.5376 4638591.0000    -999.25   146.2056     0.0000    -999.25   136.2160     0.7478     0.7886  1314.0596     0.6748  -600.6556    -999.25    -999.25    -999.25    -999.25 15218.4736     2.2250     0.7478     0.5592    92.5134    -999.25    -999.25    -999.25 -1231.5796   153.1665    -999.25    -999.25    -999.25
  1314.2120  4704.0400 4704040.0000    -999.25   147.3641     0.0000    -999.25   135.2262     0.8213     0.8777  1314.2119     0.6505  -600.7300    -999.25    -999.25    -999.25    -999.25 15433.2031     2.2743     0.8213     0.6745    92.3975    -999.25    -999.25    -999.25 -1231.7319   153.1750    -999.25    -999.25    -999.25
  1314.3643  4876.5830 4876583.0000    -999.25   145.3171     0.0000    -999.25   134.1937     0.9214     0.9961  1314.3643     0.5986  -600.8043    -999.25    -999.25    -999.25    -999.25 15999.2881     2.3250     0.9214     0.8491    92.1842    -999.25    -999.25    -999.25 -1231.8843   153.1835    -999.25    -999.25    -999.25
  1314.5168  5056.7480 5056747.5000    -999.25   142.0823     0.0000    -999.25   133.6550     0.9937     1.0764  1314.5167     0.5717  -600.8786    -999.25    -999.25    -999.25    -999.25 16590.3789     2.3572     0.9937     0.9874    91.9343    -999.25    -999.25    -999.25 -1232.0367   153.1920    -999.25    -999.25    -999.25
  1314.6692  5227.9990 5227999.0000    -999.25   138.8391     0.0000    -999.25   134.1663     1.0197     1.0981  1314.6692     0.5724  -600.9529    -999.25    -999.25    -999.25    -999.25 17152.2285     2.3814     1.0197     1.0398    91.5984    -999.25    -999.25    -999.25 -1232.1892   153.2005    -999.25    -999.25    -999.25
  1314.8216  5376.2251 5376225.0000    -999.25   134.7731     0.0000    -999.25   135.8990     1.0397     1.1140  1314.8215     0.5791  -601.0273    -999.25    -999.25    -999.25    -999.25 17638.5332     2.3772     1.0397     1.0810    91.4279    -999.25    -999.25    -999.25 -1232.3416   153.2090    -999.25    -999.25    -999.25
  1314.9740  5476.8301 5476830.0000    -999.25   130.6668     0.0000    -999.25   138.2268     1.0709     1.1499  1314.9740     0.5925  -601.1016    -999.25    -999.25    -999.25    -999.25 17968.6016     2.3479     1.0709     1.1468    91.3359    -999.25    -999.25    -999.25 -1232.4940   153.2174    -999.25    -999.25    -999.25
  1315.1264  5605.0884 5605090.0000    -999.25   127.4593     0.0000    -999.25   140.0087     1.0958     1.1858  1315.1263     0.6166  -601.1759    -999.25    -999.25    -999.25    -999.25 18389.4023     2.3439     1.0958     1.2008    91.4323    -999.25    -999.25    -999.25 -1232.6464   153.2259    -999.25    -999.25    -999.25
  1315.2788  5704.7939 5704793.5000    -999.25   125.4240     0.0000    -999.25   140.8242     1.0992     1.1873  1315.2788     0.6524  -601.2502    -999.25    -999.25     0.0635     0.0635 18716.5156     2.3475     1.0992     1.2082    91.6094     1.0000     1.0000     1.0000 -1232.7988   153.2344    68.2340     0.0635    -999.25
  1315.4312  5747.1616 5747162.0000    -999.25   124.8494     0.0000    -999.25   141.3009     1.0709     1.1442  1315.4312     0.6172  -601.3246    -999.25    -999.25     0.0697     0.0697 18855.5176     2.3541     1.0709     1.1468    91.9091     1.0000     1.0000     1.0000 -1232.9512   153.2429    65.1650     0.0697    -999.25
  1315.5836  5690.2056 5690205.5000    -999.25   126.1205     0.0000    -999.25   142.0771     1.0153     1.0707  1315.5836     0.5942  -601.3989    -999.25    -999.25     0.0685     0.0685 18668.6543     2.3545     1.0153     1.0308    92.1926     1.0000     1.0000     1.0000 -1233.1035   153.2514    65.7230     0.0685    -999.25
  1315.7360  5483.3628 5483333.0000    -999.25   129.7385     0.0000    -999.25   143.2846     0.9409     0.9810  1315.7360     0.6111  -601.4732    -999.25    -999.25     0.0600     0.0600 17989.9375     2.3340     0.9409     0.8853    92.4103     1.0000     1.0000     1.0000 -1233.2560   153.2599    69.9730     0.0600    -999.25
