~Version ---------------------------------------------------
VERS. 2.0 : CWLS log ASCII Standard -VERSION 2.0
WRAP.  NO : 
~Well ------------------------------------------------------
STRT.m                                                1295.9144 : 
STOP.m                                                1639.8812 : 
STEP.m                                                   0.1524 : 
NULL.                                                   -999.25 : 
COMP.                                                           : COMPANY
WELL.                                                    Well-1 : WELL
FLD .                                                           : FIELD
LOC .                                                           : LOCATION
SRVC.                                                           : SERVICE COMPANY
DATE. 2021-01-20 14:33:59   : Log Export Date {yyyy-MM-dd HH:mm : ss}
PROV.                                                           : PROVINCE
UWI .                                                    Well-1 : UNIQUE WELL ID
API .                                                           : API NUMBER
~Curve Information -----------------------------------------
DEPTH             .m        : DEPTH
ACOUSTICIMPEDANCE1.kPa.s/m  : ACOUSTICIMPEDANCE1
AI                .kPa.s/m  : AI
AVG_PIGN          .m3/m3    : AVG_PIGN
CALI              .in       : CALI
CALI[DERIVED]1    .in       : CALI[DERIVED]1
DFL               .ohm.m    : DFL
DT                .us/ft    : DT
FACIES            ._        : FACIES
FLD1              ._        : FLD1
GR                .gAPI     : GR
HDRS              .ohm.m    : HDRS
HMRS              .ohm.m    : HMRS
DEPTH_1           .m        : DEPTH_1
NPHI              .m3/m3    : NPHI
ONE-WAYTIME1      .ms       : ONE-WAYTIME1
PERF_INT          ._        : PERF_INT
PERMEABILITY      .mD       : PERMEABILITY
PIGN              .m3/m3    : PIGN
PIGN_MODELLING    .m3/m3    : PIGN_MODELLING
PIMP              .kPa.s/m  : PIMP
RHOB              .g/cm3    : RHOB
RT_MODELLING      .ohm.m    : RT_MODELLING
RT_POWER          .ohm.m    : RT_POWER
SP                .mV       : SP
SUWI              ._        : SUWI
SUWI_MODELLING    ._        : SUWI_MODELLING
TDVSS             .m        : TDVSS
VCL               .%        : VCL
WATER_VOL         ._        : WATER_VOL
ZLT               ._        : ZLT
~Params ----------------------------------------------------
~Other -----------------------------------------------------
~ASCII -----------------------------------------------------
# ...
  1387.3544  5298.5479 5298547.5000    -999.25     9.6950     9.6950     2.4419   130.7968     0.0000    -999.25    80.2517     1.8869     1.9012  1387.3544     0.5731  -631.5076    -999.25     0.0165     0.0277     0.0277 17383.6875     2.2737     2.4419     5.9627   259.6383     1.0000     1.0000 -1308.8644    69.5090     0.0277     2.0000
  1387.5068  5060.9033 5060903.5000    -999.25     9.9253     9.9253     2.3078   137.0843     0.0000    -999.25    79.1911     1.7366     1.7908  1387.5068     0.5772  -631.5811    -999.25     0.0163     0.0278     0.0278 16604.0137     2.2761     2.3078     5.3261   261.6295     1.0000     1.0000 -1309.0168    69.4170     0.0278     2.0000
  1387.6592  5029.9648 5029964.5000    -999.25     9.9697     9.9697     2.0255   138.6632     0.0000    -999.25    77.7898     1.4948     1.5199  1387.6592     0.5739  -631.6546    -999.25     0.0184     0.0281     0.0281 16502.5078     2.2883     2.0255     4.1025   263.1982     1.0000     1.0000 -1309.1692    69.0300     0.0281     2.0000
  1387.8116  5218.9370 5218937.0000    -999.25     9.8583     9.8583     1.5985   135.0405     0.0000    -999.25    76.7168     1.2749     1.2681  1387.8116     0.5679  -631.7281    -999.25     0.0208     0.0281     0.0281 17122.4961     2.3122     1.5985     2.5553   264.3794     1.0000     1.0000 -1309.3215    69.1280     0.0281     2.0000
  1387.9640  5493.2417 5493241.5000    -999.25     9.6307     9.6307     1.2957   129.8131     0.0000    -999.25    75.4172     1.1757     1.1689  1387.9640     0.5666  -631.8017    -999.25     0.0199     0.0271     0.0271 18022.4453     2.3396     1.2957     1.6789   264.9815     1.0000     1.0000 -1309.4740    70.2250     0.0271     2.0000
  1388.1164  5679.7354 5679735.0000    -999.25     9.4806     9.4806     1.2269   126.5054     0.0000    -999.25    74.2882     1.1903     1.1866  1388.1163     0.5750  -631.8752    -999.25     0.0161     0.0256     0.0256 18634.3008     2.3573     1.2269     1.5053   265.0054     1.0000     1.0000 -1309.6263    71.7990     0.0256     2.0000
  1388.2688  5704.9639 5704964.0000    -999.25     9.5277     9.5277     1.3056   126.3221     0.0000    -999.25    73.6397     1.2900     1.2893  1388.2688     0.5881  -631.9487    -999.25     0.0132     0.0251     0.0251 18717.0742     2.3644     1.3056     1.7045   264.8272     1.0000     1.0000 -1309.7788    72.3710     0.0251     2.0000
  1388.4212  5630.5488 5630549.0000    -999.25     9.6067     9.6067     1.4931   128.0376     0.0000    -999.25    73.7656     1.4542     1.4646  1388.4211     0.5927  -632.0223    -999.25     0.0144     0.0264     0.0264 18472.9297     2.3652     1.4931     2.2293   264.6976     1.0000     1.0000 -1309.9312    70.9220     0.0264     2.0000
  1388.5736  5597.5864 5597586.5000    -999.25     9.5029     9.5029     1.6983   128.8629     0.0000    -999.25    75.5702     1.5715     1.5830  1388.5736     0.5804  -632.0958    -999.25     0.0217     0.0291     0.0291 18364.7852     2.3665     1.6983     2.8841   264.6329     1.0000     1.0000 -1310.0836    67.9530     0.0291     2.0000
  1388.7260  5723.7812 5723781.0000    -999.25     9.3138     9.3138     1.7647   126.9463     0.0000    -999.25    78.7750     1.5124     1.4968  1388.7260     0.5541  -632.1693    -999.25     0.0358     0.0314     0.0314 18778.8105     2.3839     1.7647     3.1141   264.4854     1.0000     1.0000 -1310.2360    65.5140     0.0314     2.0000
  1388.8784  5949.8979 5949898.0000    -999.25     9.2038     9.2038     1.6613   123.0824     0.0000    -999.25    81.9566     1.3989     1.3625  1388.8784     0.5333  -632.2429    -999.25     0.0455     0.0317     0.0317 19520.6621     2.4026     1.6613     2.7599   264.0692     1.0000     1.0000 -1310.3884    65.1710     0.0317     2.0000
  1389.0308  6107.2417 6107241.5000    -999.25     9.1883     9.1883     1.5699   119.7881     0.0000    -999.25    84.1928     1.4429     1.4135  1389.0308     0.5324  -632.3164    -999.25     0.0367     0.0295     0.0295 20036.8809     2.4002     1.5699     2.4646   263.2239     1.0000     1.0000 -1310.5408    67.5590     0.0295     2.0000
  1389.1832  6052.2476 6052247.5000    -999.25     9.1863     9.1863     1.7421   119.4564     0.0000    -999.25    85.2300     1.6133     1.6019  1389.1832     0.5552  -632.3900    -999.25     0.0179     0.0252     0.0252 19856.4551     2.3720     1.7421     3.0350   262.2094     1.0000     1.0000 -1310.6932    72.2530     0.0252     2.0000
  1389.3356  5835.1440 5835144.0000    -999.25     9.2121     9.2121     2.1664   121.7159     0.0000    -999.25    85.8148     1.7813     1.7802  1389.3356     0.5963  -632.4634    -999.25     0.0060     0.0207     0.0207 19144.1738     2.3301     2.1664     4.6933   261.6281     1.0000     1.0000 -1310.8456    77.1950     0.0207     2.0000
  1389.4880  5602.3525 5602352.5000    -999.25     9.3275     9.3275     2.5310   124.6653     0.0000    -999.25    86.1410     1.8726     1.8697  1389.4880     0.6368  -632.5370    -999.25     0.0021     0.0180     0.0180 18380.4219     2.2914     2.5310     6.4061   261.8044     1.0000     1.0000 -1310.9979    80.1680     0.0180     2.0000
  1389.6404  5432.6201 5432620.0000    -999.25     9.5136     9.5136     2.6342   127.4229     0.0000    -999.25    85.3140     1.8416     1.8341  1389.6404     0.6590  -632.6105    -999.25     0.0013     0.0180     0.0180 17823.5566     2.2711     2.6342     6.9392   262.7448     1.0000     1.0000 -1311.1504    80.2510     0.0180     2.0000
  1389.7928  5396.0254 5396025.0000    -999.25     9.6112     9.6112     2.3705   128.8345     0.0000    -999.25    83.3078     1.6855     1.6692  1389.7927     0.6562  -632.6840    -999.25     0.0019     0.0197     0.0197 17703.4941     2.2808     2.3705     5.6194   264.2217     1.0000     1.0000 -1311.3027    78.3050     0.0197     2.0000
  1389.9452  5477.9761 5477976.0000    -999.25     9.4956     9.4956     1.9623   128.2046     0.0000    -999.25    80.6831     1.4823     1.4571  1389.9452     0.6376  -632.7576    -999.25     0.0041     0.0220     0.0220 17972.3613     2.3041     1.9623     3.8507   265.6655     1.0000     1.0000 -1311.4552    75.8450     0.0220     2.0000
  1390.0976  5566.9473 5566947.5000    -999.25     9.3599     9.3599     1.6444   126.7256     0.0000    -999.25    78.3105     1.3469     1.3252  1390.0975     0.6176  -632.8311    -999.25     0.0073     0.0238     0.0238 18264.2637     2.3146     1.6444     2.7039   266.8253     1.0000     1.0000 -1311.6075    73.7700     0.0238     2.0000
  1390.2500  5579.3755 5579375.5000    -999.25     9.4269     9.4269     1.5295   126.1281     0.0000    -999.25    76.8329     1.3610     1.3508  1390.2500     0.6031  -632.9047    -999.25     0.0099     0.0251     0.0251 18305.0391     2.3088     1.5295     2.3394   267.7605     1.0000     1.0000 -1311.7600    72.4360     0.0251     2.0000
  1390.4024  5488.7046 5488704.5000    -999.25     9.6506     9.6506     1.5917   126.8995     0.0000    -999.25    76.1300     1.4738     1.4899  1390.4023     0.5961  -632.9781    -999.25     0.0105     0.0253     0.0253 18007.5605     2.2851     1.5917     2.5334   268.4225     1.0000     1.0000 -1311.9124    72.1530     0.0253     2.0000
  1390.5548  5407.8828 5407882.5000    -999.25     9.7314     9.7314     1.7105   127.7522     0.0000    -999.25    75.8495     1.4911     1.5268  1390.5548     0.5961  -633.0517    -999.25     0.0097     0.0250     0.0250 17742.3965     2.2666     1.7105     2.9259   268.6875     1.0000     1.0000 -1312.0648    72.5260     0.0250     2.0000
  1390.7072  5450.2729 5450273.0000    -999.25     9.5569     9.5569     1.6655   127.2082     0.0000    -999.25    75.6720     1.3601     1.3686  1390.7072     0.5984  -633.1252    -999.25     0.0099     0.0251     0.0251 17881.4727     2.2747     1.6655     2.7739   268.5488     1.0000     1.0000 -1312.2172    72.4020     0.0251     2.0000
  1390.8596  5585.7515 5585751.5000    -999.25     9.3324     9.3324     1.5091   125.8041     0.0000    -999.25    76.0931     1.2754     1.2610  1390.8596     0.5943  -633.1988    -999.25     0.0122     0.0259     0.0259 18325.9570     2.3055     1.5091     2.2774   268.0267     1.0000     1.0000 -1312.3696    71.5260     0.0259     2.0000
