~Version ---------------------------------------------------
VERS. 2.0 : CWLS log ASCII Standard -VERSION 2.0
WRAP.  NO : 
~Well ------------------------------------------------------
STRT.m                                                1236.0668 : 
STOP.m                                                1579.8812 : 
STEP.m                                                   0.1524 : 
NULL.                                                   -999.25 : 
COMP.                                                           : COMPANY
WELL.                                                   Well-17 : WELL
FLD .                                                           : FIELD
LOC .                                                           : LOCATION
SRVC.                                                           : SERVICE COMPANY
DATE. 2021-01-20 14:34:08   : Log Export Date {yyyy-MM-dd HH:mm : ss}
PROV.                                                           : PROVINCE
UWI .                                                   Well-17 : UNIQUE WELL ID
API .                                                           : API NUMBER
~Curve Information -----------------------------------------
DEPTH             .m        : DEPTH
ACOUSTICIMPEDANCE1.kPa.s/m  : ACOUSTICIMPEDANCE1
AI                .kPa.s/m  : AI
AVG_PIGN          .m3/m3    : AVG_PIGN
CALI              .in       : CALI
NPHI              .m3/m3    : NPHI
DT                .us/ft    : DT
FACIES            ._        : FACIES
FLD1              ._        : FLD1
GR                .gAPI     : GR
M2R2              .ohm.m    : M2R2
LLS               .ohm.m    : LLS
LLD               .ohm.m    : LLD
DEPTH_1           .m        : DEPTH_1
NPHI_1            .m3/m3    : NPHI_1
PERF_INT          ._        : PERF_INT
PERMEABILITY      .mD       : PERMEABILITY
PHIT              .m3/m3    : PHIT
PIGN              .m3/m3    : PIGN
PIGN_MODELLING    .m3/m3    : PIGN_MODELLING
PIMP              .kPa.s/m  : PIMP
RHOB              .g/cm3    : RHOB
RT_MODELLING      .ohm.m    : RT_MODELLING
RT_POWER          .ohm.m    : RT_POWER
SP                .mV       : SP
SUWI              ._        : SUWI
SUWI_MODELLING    ._        : SUWI_MODELLING
SXWI              ._        : SXWI
TDVSS             .m        : TDVSS
VCL               .%        : VCL
WATER_VOL         ._        : WATER_VOL
RHOB_1            .g/cm3    : RHOB_1
ZLT               ._        : ZLT
~Params ----------------------------------------------------
~Other -----------------------------------------------------
~ASCII -----------------------------------------------------
# ...
  1373.5316  6331.5322 6331532.0000    -999.25     8.9540     0.5011   116.7838     0.0000    -999.25    89.3257     1.8236     1.7663     1.7719  1373.5316     0.5011    -999.25    -999.25     0.2415     0.0397     0.0397 20772.7441     2.4259     1.7719     3.1398   222.9679     1.0000     1.0000     1.0000 -1300.0416    80.1330     0.0397     2.4259     0.0000
  1373.6840  6263.6787 6263679.0000    -999.25     8.9510     0.4942   117.1229     0.0000    -999.25    87.8607     1.8675     1.8065     1.8125  1373.6841     0.4942    -999.25    -999.25     0.2480     0.0434     0.0434 20550.1270     2.4069     1.8125     3.2852   222.6212     1.0000     1.0000     1.0000 -1300.1941    78.3220     0.0434     2.4069     0.0000
  1373.8364  6247.1909 6247191.0000    -999.25     8.9376     0.4964   117.2271     0.0000    -999.25    85.6876     1.8867     1.8247     1.8307  1373.8364     0.4964    -999.25    -999.25     0.2473     0.0427     0.0427 20496.0332     2.4027     1.8307     3.3515   222.3668     1.0000     1.0000     1.0000 -1300.3464    78.6410     0.0427     2.4027     0.0000
  1373.9888  6312.9009 6312900.5000    -999.25     8.9199     0.4974   116.4916     0.0000    -999.25    84.5167     1.8833     1.8199     1.8266  1373.9889     0.4974    -999.25    -999.25     0.2437     0.0416     0.0416 20711.6172     2.4127     1.8266     3.3365   222.0787     1.0000     1.0000     1.0000 -1300.4988    79.1890     0.0416     2.4127     0.0000
  1374.1412  6375.2427 6375242.5000    -999.25     8.9026     0.4824   115.5887     0.0000    -999.25    84.8075     1.8753     1.8099     1.8169  1374.1412     0.4824    -999.25    -999.25     0.2478     0.0469     0.0469 20916.1504     2.4177     1.8169     3.3013   221.6992     1.0000     1.0000     1.0000 -1300.6512    76.5290     0.0469     2.4177     0.0000
  1374.2936  6394.2651 6394265.0000    -999.25     8.8869     0.4630   115.1004     0.0000    -999.25    85.5626     1.8757     1.8077     1.8147  1374.2936     0.4630    -999.25    -999.25     0.2511     0.0523     0.0523 20978.5605     2.4146     1.8147     3.2930   221.2751     1.0000     1.0000     1.0000 -1300.8036    73.8470     0.0523     2.4146     0.0000
  1374.4460  6391.6538 6391653.5000    -999.25     8.8726     0.4609   114.9409     0.0000    -999.25    86.9716     1.8797     1.8093     1.8163  1374.4460     0.4609    -999.25    -999.25     0.2521     0.0528     0.0528 20969.9922     2.4103     1.8163     3.2991   220.9250     1.0000     1.0000     1.0000 -1300.9561    73.6170     0.0528     2.4103     0.0000
  1374.5984  6387.9946 6387994.5000    -999.25     8.8586     0.4766   114.9442     0.0000    -999.25    88.8884     1.8830     1.8120     1.8190  1374.5984     0.4766    -999.25    -999.25     0.2516     0.0488     0.0488 20957.9883     2.4090     1.8190     3.3088   220.6974     1.0000     1.0000     1.0000 -1301.1084    75.5940     0.0488     2.4090     0.0000
  1374.7508  6382.9380 6382938.0000    -999.25     8.8479     0.4905   114.9388     0.0000    -999.25    88.7566     1.8887     1.8197     1.8267  1374.7509     0.4905    -999.25    -999.25     0.2489     0.0445     0.0445 20941.3984     2.4070     1.8267     3.3369   220.5137     1.0000     1.0000     1.0000 -1301.2609    77.7280     0.0445     2.4070     0.0000
  1374.9032  6315.5815 6315581.5000    -999.25     8.8497     0.5030   115.7607     0.0000    -999.25    86.0669     1.8776     1.8136     1.8206  1374.9032     0.5030    -999.25    -999.25     0.2467     0.0406     0.0406 20720.4121     2.3986     1.8206     3.3145   220.3593     1.0000     1.0000     1.0000 -1301.4132    79.6860     0.0406     2.3986     0.0000
  1375.0556  6105.8809 6105881.0000    -999.25     8.9031     0.5229   119.1204     0.0000    -999.25    83.7582     1.8038     1.7499     1.7569  1375.0557     0.5229    -999.25    -999.25     0.2454     0.0348     0.0348 20032.4180     2.3863     1.7569     3.0866   220.4232     1.0000     1.0000     1.0000 -1301.5657    82.6080     0.0348     2.3863     0.0000
  1375.2080  5798.1914 5798191.5000    -999.25     9.0429     0.5318   124.5107     0.0000    -999.25    83.4830     1.6669     1.6243     1.6306  1375.2080     0.5318    -999.25    -999.25     0.2529     0.0342     0.0342 19022.9375     2.3686     1.6306     2.6588   220.9412     1.0000     1.0000     1.0000 -1301.7180    82.9220     0.0342     2.3686     0.0000
  1375.3604  5584.5205 5584520.5000    -999.25     9.2058     0.5140   128.6601     0.0000    -999.25    84.7234     1.5441     1.5091     1.5145  1375.3605     0.5140    -999.25    -999.25     0.2601     0.0394     0.0394 18321.9180     2.3573     1.5145     2.2936   221.8943     1.0000     1.0000     1.0000 -1301.8705    80.3100     0.0394     2.3573     0.0000
  1375.5128  5595.7446 5595744.5000    -999.25     9.2486     0.4882   128.5693     0.0000    -999.25    86.4865     1.5083     1.4760     1.4810  1375.5128     0.4882    -999.25    -999.25     0.2593     0.0443     0.0443 18358.7422     2.3604     1.4810     2.1934   222.9182     1.0000     1.0000     1.0000 -1302.0228    77.8320     0.0443     2.3604     0.0000
  1375.6652  5812.6001 5812600.0000    -999.25     9.1607     0.4744   124.9677     0.0000    -999.25    87.5297     1.5624     1.5264     1.5314  1375.6653     0.4744    -999.25    -999.25     0.2564     0.0478     0.0478 19070.2109     2.3832     1.5314     2.3452   223.6058     1.0000     1.0000     1.0000 -1302.1753    76.1150     0.0478     2.3832     0.0000
  1375.8176  6064.7827 6064782.5000    -999.25     9.0992     0.4732   121.3801     0.0000    -999.25    86.8128     1.6286     1.5866     1.5909  1375.8176     0.4732    -999.25    -999.25     0.2546     0.0498     0.0498 19897.5801     2.4152     1.5909     2.5311   223.8814     1.0000     1.0000     1.0000 -1302.3276    75.0800     0.0498     2.4152     0.0000
  1375.9700  6220.0034 6220003.5000    -999.25     9.1219     0.4876   119.5075     0.0000    -999.25    84.6532     1.6372     1.5919     1.5952  1375.9701     0.4876    -999.25    -999.25     0.2473     0.0452     0.0452 20406.8359     2.4388     1.5952     2.5448   223.9904     1.0000     1.0000     1.0000 -1302.4800    77.3830     0.0452     2.4388     0.0000
  1376.1224  6173.0806 6173080.5000    -999.25     9.1333     0.5204   120.6574     0.0000    -999.25    82.4128     1.6085     1.5645     1.5668  1376.1224     0.5204    -999.25    -999.25     0.2358     0.0334     0.0334 20252.8887     2.4437     1.5668     2.4550   224.1315     1.0000     1.0000     1.0000 -1302.6324    83.3110     0.0334     2.4437     0.0000
  1376.2748  5984.8271 5984827.0000    -999.25     9.1209     0.5537   123.8716     0.0000    -999.25    81.2977     1.5768     1.5352     1.5365  1376.2748     0.5537    -999.25    -999.25     0.2287     0.0222     0.0222 19635.2598     2.4323     1.5365     2.3609   224.2666     1.0000     1.0000     1.0000 -1302.7848    88.9070     0.0222     2.4323     0.0000
  1376.4272  5899.6104 5899610.5000    -999.25     9.1462     0.5676   124.8688     0.0000    -999.25    82.2197     1.5341     1.4958     1.4954  1376.4272     0.5676    -999.25    -999.25     0.2309     0.0187     0.0187 19355.6777     2.4169     1.4954     2.2363   224.3537     1.0000     1.0000     1.0000 -1302.9373    90.6490     0.0187     2.4169     0.0000
  1376.5796  5911.2446 5911244.5000    -999.25     9.1885     0.5629   124.0924     0.0000    -999.25    84.7224     1.4978     1.4615     1.4605  1376.5796     0.5629    -999.25    -999.25     0.2381     0.0216     0.0216 19393.8477     2.4066     1.4605     2.1331   224.4932     1.0000     1.0000     1.0000 -1303.0896    89.1800     0.0216     2.4066     0.0000
  1376.7320  5926.2397 5926240.0000    -999.25     9.2208     0.5473   123.5393     0.0000    -999.25    86.8192     1.5014     1.4641     1.4624  1376.7321     0.5473    -999.25    -999.25     0.2455     0.0278     0.0278 19443.0449     2.4020     1.4624     2.1387   224.7186     1.0000     1.0000     1.0000 -1303.2421    86.1210     0.0278     2.4020     0.0000
