~Version ---------------------------------------------------
VERS. 2.0 : CWLS log ASCII Standard -VERSION 2.0
WRAP.  NO : 
~Well ------------------------------------------------------
STRT.m                                                1249.0292 : 
STOP.m                                                1575.3176 : 
STEP.m                                                   0.1524 : 
NULL.                                                   -999.25 : 
COMP.                                                           : COMPANY
WELL.                                                   Well-10 : WELL
FLD .                                                           : FIELD
LOC .                                                           : LOCATION
SRVC.                                                           : SERVICE COMPANY
DATE. 2021-01-20 14:34:04   : Log Export Date {yyyy-MM-dd HH:mm : ss}
PROV.                                                           : PROVINCE
UWI .                                                   Well-10 : UNIQUE WELL ID
API .                                                           : API NUMBER
~Curve Information -----------------------------------------
DEPTH             .m        : DEPTH
ACOUSTICIMPEDANCE1.kPa.s/m  : ACOUSTICIMPEDANCE1
AI                .kPa.s/m  : AI
AVG_PIGN          .m3/m3    : AVG_PIGN
CALI              .in       : CALI
CALI[DERIVED]1    .in       : CALI[DERIVED]1
DFL               .ohm.m    : DFL
DT                .us/ft    : DT
FACIES            ._        : FACIES
FLD1              ._        : FLD1
GR                .gAPI     : GR
HDRS              .ohm.m    : HDRS
HMRS              .ohm.m    : HMRS
DEPTH_1           .m        : DEPTH_1
NPHI              .m3/m3    : NPHI
PEF               .b/e      : PEF
PERF_INT          ._        : PERF_INT
PERMEABILITY      .mD       : PERMEABILITY
PHIT              .m3/m3    : PHIT
PIGN              .m3/m3    : PIGN
PIGN_MODELLING    .m3/m3    : PIGN_MODELLING
PIMP              .kPa.s/m  : PIMP
RHOB              .g/cm3    : RHOB
RT_MODELLING      .ohm.m    : RT_MODELLING
RT_POWER          .ohm.m    : RT_POWER
SP                .mV       : SP
SUWI              ._        : SUWI
SUWI_MODELLING    ._        : SUWI_MODELLING
SXWI              ._        : SXWI
TDVSS             .m        : TDVSS
TEMP              .K        : TEMP
VCL               .%        : VCL
WATER_VOL         ._        : WATER_VOL
ZLT               ._        : ZLT
~Params ----------------------------------------------------
~Other -----------------------------------------------------
~ASCII -----------------------------------------------------
# ...
  1269.1460  4280.1504 4280150.5000    -999.25     9.1469     9.1469     1.4537   151.5971    -999.25    -999.25    60.6905     1.0986     1.1390  1269.1460     0.5679     5.5528    -999.25    -999.25    -999.25    -999.25    -999.25 14042.4883     2.1288     1.4537     2.1132   145.1485    -999.25    -999.25    -999.25 -1189.1460   159.3818    -999.25    -999.25    -999.25
  1269.2984  4257.3208 4257320.5000    -999.25     9.1873     9.1873     1.5513   151.8874    -999.25    -999.25    60.4452     1.1614     1.1731  1269.2985     0.5675     5.5768    -999.25    -999.25    -999.25    -999.25    -999.25 13967.5879     2.1215     1.5513     2.4065   145.2244    -999.25    -999.25    -999.25 -1189.2985   159.3913    -999.25    -999.25    -999.25
  1269.4508  4298.6572 4298657.0000    -999.25     9.2282     9.2282     1.7003   150.7246    -999.25    -999.25    60.6216     1.1765     1.1630  1269.4508     0.5752     5.6528    -999.25    -999.25    -999.25    -999.25    -999.25 14103.2061     2.1257     1.7003     2.8910   145.2280    -999.25    -999.25    -999.25 -1189.4508   159.4009    -999.25    -999.25    -999.25
  1269.6032  4391.5845 4391584.0000    -999.25     9.2790     9.2790     1.7148   148.5416    -999.25    -999.25    61.2365     1.1175     1.0869  1269.6031     0.6233     5.8198    -999.25    -999.25    -999.25    -999.25    -999.25 14408.0850     2.1402     1.7148     2.9405   145.2222    -999.25    -999.25    -999.25 -1189.6031   159.4104    -999.25    -999.25    -999.25
  1269.7556  4498.3398 4498339.5000    -999.25     9.2956     9.2956     1.4427   146.2157    -999.25    -999.25    62.0008     1.0478     1.0065  1269.7556     0.6348     6.0500    -999.25    -999.25    -999.25    -999.25    -999.25 14758.3320     2.1579     1.4427     2.0814   145.2929    -999.25    -999.25    -999.25 -1189.7556   159.4199    -999.25    -999.25    -999.25
  1269.9080  4584.9683 4584968.0000    -999.25     9.3100     9.3100     1.1822   144.2243    -999.25    -999.25    62.3555     1.0615     0.9991  1269.9080     0.6228     6.2811    -999.25    -999.25    -999.25    -999.25    -999.25 15042.5469     2.1695     1.1822     1.3976   145.3803    -999.25    -999.25    -999.25 -1189.9080   159.4295    -999.25    -999.25    -999.25
  1270.0604  4634.1689 4634169.0000    -999.25     9.2871     9.2871     1.2470   142.7193    -999.25    -999.25    62.6663     1.2107     1.0993  1270.0604     0.5976     6.4464    -999.25    -999.25    -999.25    -999.25    -999.25 15203.9668     2.1699     1.2470     1.5550   145.4597    -999.25    -999.25    -999.25 -1190.0604   159.4390    -999.25    -999.25    -999.25
  1270.2128  4641.1284 4641128.5000    -999.25     9.2818     9.2818     1.5607   141.8486    -999.25    -999.25    63.5587     1.4546     1.2603  1270.2128     0.5600     6.5004    -999.25    -999.25    -999.25    -999.25    -999.25 15226.7988     2.1599     1.5607     2.4358   145.5604    -999.25    -999.25    -999.25 -1190.2128   159.4485    -999.25    -999.25    -999.25
  1270.3652  4613.0488 4613049.0000    -999.25     9.3454     9.3454     1.9016   141.6945    -999.25    -999.25    64.6761     1.6881     1.3950  1270.3652     0.5590     6.4532    -999.25    -999.25    -999.25    -999.25    -999.25 15134.6748     2.1445     1.9016     3.6161   145.7665    -999.25    -999.25    -999.25 -1190.3652   159.4581    -999.25    -999.25    -999.25
  1270.5176  4555.4224 4555422.5000    -999.25     9.1790     9.1790     2.0682   142.6305    -999.25    -999.25    65.8618     1.8819     1.4893  1270.5176     0.5847     6.3574    -999.25    -999.25    -999.25    -999.25    -999.25 14945.6123     2.1317     2.0682     4.2775   146.1509    -999.25    -999.25    -999.25 -1190.5176   159.4676    -999.25    -999.25    -999.25
  1270.6700  4477.6895 4477689.0000    -999.25     9.0426     9.0426     1.9980   144.6165    -999.25    -999.25    67.3758     2.1659     1.6252  1270.6700     0.6132     6.2472    -999.25    -999.25    -999.25    -999.25    -999.25 14690.5811     2.1245     1.9980     3.9920   146.8452    -999.25    -999.25    -999.25 -1190.6700   159.4771    -999.25    -999.25    -999.25
  1270.8224  4403.3911 4403391.5000    -999.25     9.0966     9.0966     1.9511   146.9181    -999.25    -999.25    68.4838     2.6707     1.8439  1270.8224     0.5947     6.1647    -999.25    -999.25    -999.25    -999.25    -999.25 14446.8223     2.1225     1.9511     3.8068   147.7915    -999.25    -999.25    -999.25 -1190.8224   159.4866    -999.25    -999.25    -999.25
  1270.9748  4383.5977 4383598.0000    -999.25     9.1317     9.1317     2.0217   148.1586    -999.25    -999.25    67.9161     2.5478     1.6479  1270.9749     0.5998     6.1457    -999.25    -999.25    -999.25    -999.25    -999.25 14381.8828     2.1308     2.0217     4.0873   148.8829    -999.25    -999.25    -999.25 -1190.9749   159.4962    -999.25    -999.25    -999.25
  1271.1272  4441.4907 4441490.5000    -999.25     9.1282     9.1282     2.2120   147.2294    -999.25    -999.25    64.9570     1.4963     1.0396  1271.1272     0.5809     6.2455    -999.25    -999.25    -999.25    -999.25    -999.25 14571.8193     2.1454     2.2120     4.8929   149.9318    -999.25    -999.25    -999.25 -1191.1272   159.5057    -999.25    -999.25    -999.25
  1271.2796  4576.7690 4576769.0000    -999.25     8.8934     8.8934     1.6634   144.8223    -999.25    -999.25    60.4722     0.6713     0.5415  1271.2797     0.5942     6.5111    -999.25    -999.25    -999.25    -999.25    -999.25 15015.6465     2.1746     1.6634     2.7669   150.5123    -999.25    -999.25    -999.25 -1191.2797   159.5152    -999.25    -999.25    -999.25
  1271.4320  4734.3608 4734360.5000    -999.25     8.7751     8.7751     0.7908   142.3837    -999.25    -999.25    57.6403     0.3718     0.3327  1271.4320     0.5974     6.8345    -999.25    -999.25    -999.25    -999.25    -999.25 15532.6797     2.2116     0.7908     0.6254   150.4877    -999.25    -999.25    -999.25 -1191.4320   159.5248    -999.25    -999.25    -999.25
  1271.5844  4838.4805 4838480.0000    -999.25     9.1013     9.1013     0.3996   141.1781    -999.25    -999.25    58.5232     0.3596     0.3231  1271.5844     0.6312     7.0833    -999.25    -999.25    -999.25    -999.25    -999.25 15874.2793     2.2411     0.3996     0.1597   149.8655    -999.25    -999.25    -999.25 -1191.5844   159.5343    -999.25    -999.25    -999.25
  1271.7368  4881.5088 4881508.5000    -999.25     9.4296     9.4296     0.5668   141.2137    -999.25    -999.25    61.9626     0.5618     0.4630  1271.7368     0.6325     7.1078    -999.25    -999.25    -999.25    -999.25    -999.25 16015.4482     2.2616     0.5668     0.3213   149.0056    -999.25    -999.25    -999.25 -1191.7368   159.5439    -999.25    -999.25    -999.25
  1271.8892  4856.6841 4856684.5000    -999.25     9.2598     9.2598     1.2088   141.6468    -999.25    -999.25    65.3935     1.1676     0.8496  1271.8892     0.6086     6.8410    -999.25    -999.25    -999.25    -999.25    -999.25 15934.0039     2.2570     1.2088     1.4612   148.1556    -999.25    -999.25    -999.25 -1191.8892   159.5534    -999.25    -999.25    -999.25
  1272.0416  4805.9048 4805904.5000    -999.25     9.2763     9.2763     1.9159   141.9511    -999.25    -999.25    67.0689     1.9890     1.3841  1272.0416     0.5767     6.4686    -999.25    -999.25    -999.25    -999.25    -999.25 15767.4033     2.2382     1.9159     3.6707   147.4711    -999.25    -999.25    -999.25 -1192.0416   159.5629    -999.25    -999.25    -999.25
  1272.1940  4775.6958 4775696.0000    -999.25     9.2647     9.2647     1.8549   141.7448    -999.25    -999.25    65.9350     2.0845     1.5542  1272.1940     0.5827     6.1634    -999.25    -999.25    -999.25    -999.25    -999.25 15668.2939     2.2209     1.8549     3.4407   147.0367    -999.25    -999.25    -999.25 -1192.1940   159.5724    -999.25    -999.25    -999.25
  1272.3464  4768.8228 4768823.0000    -999.25     9.2273     9.2273     1.7930   141.0543    -999.25    -999.25    62.6935     1.8584     1.4655  1272.3464     0.6000     6.0255    -999.25    -999.25    -999.25    -999.25    -999.25 15645.7441     2.2069     1.7930     3.2148   146.7868    -999.25    -999.25    -999.25 -1192.3464   159.5820    -999.25    -999.25    -999.25
