~Version ---------------------------------------------------
VERS. 2.0 : CWLS log ASCII Standard -VERSION 2.0
WRAP.  NO : 
~Well ------------------------------------------------------
STRT.m                                                1236.0668 : 
STOP.m                                                1579.8812 : 
STEP.m                                                   0.1524 : 
NULL.                                                   -999.25 : 
COMP.                                                           : COMPANY
WELL.                                                   Well-17 : WELL
FLD .                                                           : FIELD
LOC .                                                           : LOCATION
SRVC.                                                           : SERVICE COMPANY
DATE. 2021-01-20 14:34:08   : Log Export Date {yyyy-MM-dd HH:mm : ss}
PROV.                                                           : PROVINCE
UWI .                                                   Well-17 : UNIQUE WELL ID
API .                                                           : API NUMBER
~Curve Information -----------------------------------------
DEPTH             .m        : DEPTH
ACOUSTICIMPEDANCE1.kPa.s/m  : ACOUSTICIMPEDANCE1
AI                .kPa.s/m  : AI
AVG_PIGN          .m3/m3    : AVG_PIGN
CALI              .in       : CALI
NPHI              .m3/m3    : NPHI
DT                .us/ft    : DT
FACIES            ._        : FACIES
FLD1              ._        : FLD1
GR                .gAPI     : GR
M2R2              .ohm.m    : M2R2
LLS               .ohm.m    : LLS
LLD               .ohm.m    : LLD
DEPTH_1           .m        : DEPTH_1
NPHI_1            .m3/m3    : NPHI_1
PERF_INT          ._        : PERF_INT
PERMEABILITY      .mD       : PERMEABILITY
PHIT              .m3/m3    : PHIT
PIGN              .m3/m3    : PIGN
PIGN_MODELLING    .m3/m3    : PIGN_MODELLING
PIMP              .kPa.s/m  : PIMP
RHOB              .g/cm3    : RHOB
RT_MODELLING      .ohm.m    : RT_MODELLING
RT_POWER          .ohm.m    : RT_POWER
SP                .mV       : SP
SUWI              ._        : SUWI
SUWI_MODELLING    ._        : SUWI_MODELLING
SXWI              ._        : SXWI
TDVSS             .m        : TDVSS
VCL               .%        : VCL
WATER_VOL         ._        : WATER_VOL
RHOB_1            .g/cm3    : RHOB_1
ZLT               ._        : ZLT
~Params ----------------------------------------------------
~Other -----------------------------------------------------
~ASCII -----------------------------------------------------
# ...
  1397.0012  5677.2310 5677231.0000    -999.25     9.8075     0.5058   122.2436     0.0000    -999.25    86.4245     1.5136     1.5089     1.5043  1397.0012     0.5058    -999.25     0.4778     0.2890     0.0683     0.0683 18626.0859     2.2769     1.5043     2.2628   223.9614     1.0000     1.0000     1.0000 -1323.5112    71.1680     0.0683     2.2769     1.0000
  1397.1536  5448.3916 5448391.5000    -999.25    10.1046     0.5520   127.6667     0.0000    -999.25    81.5644     1.3805     1.3721     1.3665  1397.1537     0.5520    -999.25     0.2496     0.2929     0.0623     0.0623 17875.3008     2.2821     1.3665     1.8672   225.0640     1.0000     1.0000     1.0000 -1323.6637    78.2980     0.0623     2.2821     1.0000
  1397.3060  5265.4800 5265480.0000    -999.25    10.2841     0.5850   133.0474     0.0000    -999.25    79.2442     1.3285     1.3152     1.3085  1397.3060     0.5850    -999.25     0.0969     0.2856     0.0502     0.0502 17275.1973     2.2984     1.3085     1.7121   226.0812     1.0000     1.0000     1.0000 -1323.8160    84.7000     0.0502     2.2984     1.0000
  1397.4584  5182.8042 5182804.5000    -999.25    10.4616     0.5788   135.4585     0.0000    -999.25    78.1005     1.3002     1.2812     1.2735  1397.4585     0.5788    -999.25     0.0867     0.2854     0.0471     0.0471 17003.9512     2.3033     1.2735     1.6218   226.7985     1.0000     1.0000     1.0000 -1323.9684    84.0870     0.0471     2.3033     1.0000
  1397.6108  5248.3018 5248302.0000    -999.25    10.5065     0.5473   133.5148     0.0000    -999.25    77.1519     1.2789     1.2545     1.2472  1397.6108     0.5473    -999.25     0.1504     0.2914     0.0512     0.0512 17218.8379     2.2990     1.2472     1.5556   227.1865     1.0000     1.0000     1.0000 -1324.1209    78.7340     0.0512     2.2990     1.0000
  1397.7632  5425.6353 5425635.0000    -999.25    10.2098     0.5083   129.7195     0.0000    -999.25    77.2760     1.3113     1.2813     1.2736  1397.7632     0.5083    -999.25     0.2769     0.2922     0.0562     0.0562 17800.6406     2.3091     1.2736     1.6220   227.1991     1.0000     1.0000     1.0000 -1324.2732    72.9530     0.0562     2.3091     1.0000
  1397.9156  5777.7568 5777757.0000    -999.25     9.6787     0.4608   123.9330     0.0000    -999.25    80.1683     1.4335     1.3954     1.3861  1397.9156     0.4608    -999.25     0.4926     0.2863     0.0602     0.0602 18955.8945     2.3493     1.3861     1.9212   226.7200     1.0000     1.0000     1.0000 -1324.4257    69.8760     0.0602     2.3493     1.0000
  1398.0680  6250.6567 6250657.0000    -999.25     9.2293     0.4230   117.1748     0.0000    -999.25    86.1738     1.6076     1.5612     1.5506  1398.0680     0.4230    -999.25     0.7124     0.2734     0.0624     0.0624 20507.4043     2.4030     1.5506     2.4043   225.7142     1.0000     1.0000     1.0000 -1324.5780    68.8040     0.0624     2.4030     1.0000
  1398.2204  6562.5366 6562536.5000    -999.25     9.0607     0.4219   114.3478     0.0000    -999.25    92.4873     1.7285     1.6808     1.6691  1398.2205     0.4219    -999.25     0.6101     0.2526     0.0582     0.0582 21530.6309     2.4620     1.6691     2.7860   224.4539     1.0000     1.0000     1.0000 -1324.7305    70.8860     0.0582     2.4620     1.0000
  1398.3728  6542.9712 6542971.5000    -999.25     9.1294     0.4555   115.7164     0.0000    -999.25    95.8968     1.7305     1.6895     1.6775  1398.3728     0.4555    -999.25     0.2730     0.2370     0.0471     0.0471 21466.4414     2.4840     1.6775     2.8140   223.5016     1.0000     1.0000     1.0000 -1324.8828    76.4320     0.0471     2.4840     1.0000
  1398.5252  6428.0298 6428030.0000    -999.25     9.2838     0.4881   117.2906     0.0000    -999.25    95.8687     1.6586     1.6252     1.6139  1398.5253     0.4881    -999.25     0.1180     0.2336     0.0382     0.0382 21089.3379     2.4736     1.6139     2.6047   223.2712     1.0000     1.0000     1.0000 -1325.0353    80.8990     0.0382     2.4736     1.0000
  1398.6776  6389.1084 6389108.5000    -999.25     9.3985     0.4926   117.6425     0.0000    -999.25    93.4824     1.6098     1.5775     1.5665  1398.6776     0.4926    -999.25     0.1116     0.2372     0.0379     0.0379 20961.6426     2.4660     1.5665     2.4539   223.5810     1.0000     1.0000     1.0000 -1325.1876    81.0390     0.0379     2.4660     1.0000
  1398.8300  6395.9985 6395998.5000    -999.25     9.4354     0.4705   117.5010     0.0000    -999.25    90.6028     1.6363     1.5946     1.5829  1398.8301     0.4705    -999.25     0.2210     0.2478     0.0454     0.0454 20984.2480     2.4657     1.5829     2.5055   223.8268     1.0000     1.0000     1.0000 -1325.3401    77.2760     0.0454     2.4657     1.0000
  1398.9824  6490.7349 6490734.5000    -999.25     9.4222     0.4400   116.1800     0.0000    -999.25    88.8046     1.7413     1.6779     1.6645  1398.9824     0.4400    -999.25     0.4830     0.2426     0.0555     0.0555 21295.0605     2.4741     1.6645     2.7707   223.5737     1.0000     1.0000     1.0000 -1325.4924    72.2530     0.0555     2.4741     1.0000
  1399.1348  6903.4307 6903430.5000    -999.25     9.3723     0.4175   111.1292     0.0000    -999.25    85.9765     1.9627     1.8571     1.8404  1399.1349     0.4175    -999.25     0.7592     0.2294     0.0614     0.0614 22649.0508     2.5170     1.8404     3.3872   222.9188     1.0000     1.0000     1.0000 -1325.6449    69.3140     0.0614     2.5170     1.0000
  1399.2872  7841.8701 7841870.0000    -999.25     9.3278     0.4038   100.7897     0.0000    -999.25    78.9603     2.4760     2.2753     2.2493  1399.2872     0.4038    -999.25     0.9369     0.2067     0.0635     0.0635 25727.9199     2.5931     2.2493     5.0593   222.3700     1.0000     1.0000     1.0000 -1325.7972    68.2710     0.0635     2.5931     1.0000
  1399.4396  8885.0166 8885017.0000    -999.25     9.3570     0.3967    90.0285     0.0000    -999.25    69.1659     3.2792     2.8958     2.8517  1399.4397     0.3967    -999.25     0.9416     0.1882     0.0631     0.0631 29150.3164     2.6244     2.8517     8.1322   222.4366     1.0000     1.0000     1.0000 -1325.9496    68.4770     0.0631     2.6244     1.0000
  1399.5920  8953.1670 8953167.0000    -999.25     9.4623     0.4086    86.8832     0.0000    -999.25    61.9425     3.4827     3.0569     3.0079  1399.5920     0.4086    -999.25     0.6655     0.1934     0.0587     0.0587 29373.9062     2.5521     3.0079     9.0474   223.2390     1.0000     1.0000     1.0000 -1326.1021    70.6630     0.0587     2.5521     1.0000
  1399.7444  7849.9487 7849949.0000    -999.25     9.6290     0.4446    94.3791     0.0000    -999.25    61.7247     2.6781     2.4334     2.4016  1399.7444     0.4446    -999.25     0.3400     0.2188     0.0514     0.0514 25754.4258     2.4307     2.4016     5.7674   224.5065     1.0000     1.0000     1.0000 -1326.2544    74.3050     0.0514     2.4307     1.0000
  1399.8968  6500.3594 6500359.5000    -999.25     9.8499     0.4762   109.9090     0.0000    -999.25    68.1193     1.7887     1.6875     1.6716  1399.8969     0.4762    -999.25     0.2179     0.2519     0.0479     0.0479 21326.6387     2.3440     1.6716     2.7941   225.8653     1.0000     1.0000     1.0000 -1326.4069    76.0280     0.0479     2.3440     1.0000
  1400.0492  5804.1982 5804198.5000    -999.25    10.0174     0.4878   121.7252     0.0000    -999.25    75.9809     1.3432     1.2903     1.2797  1400.0492     0.4878    -999.25     0.2124     0.2741     0.0488     0.0488 19042.6445     2.3180     1.2797     1.6376   227.0490     1.0000     1.0000     1.0000 -1326.5592    75.6210     0.0488     2.3180     1.0000
  1400.2016  5901.8262 5901826.0000    -999.25    10.0388     0.5049   120.1997     0.0000    -999.25    80.9920     1.2000     1.1600     1.1507  1400.2017     0.5049    -999.25     0.1664     0.2766     0.0465     0.0465 19362.9453     2.3274     1.1507     1.3240   227.9196     1.0000     1.0000     1.0000 -1326.7117    76.7560     0.0465     2.3274     1.0000
