~Version ---------------------------------------------------
VERS. 2.0 : CWLS log ASCII Standard -VERSION 2.0
WRAP.  NO : 
~Well ------------------------------------------------------
STRT.m                                                1171.1084 : 
STOP.m                                                  1705.88 : 
STEP.m                                                   0.1524 : 
NULL.                                                   -999.25 : 
COMP.                                                           : COMPANY
WELL.                                                   Well-12 : WELL
FLD .                                                           : FIELD
LOC .                                                           : LOCATION
SRVC.                                                           : SERVICE COMPANY
DATE. 2021-01-20 14:34:05   : Log Export Date {yyyy-MM-dd HH:mm : ss}
PROV.                                                           : PROVINCE
UWI .                                                   Well-12 : UNIQUE WELL ID
API .                                                           : API NUMBER
~Curve Information -----------------------------------------
DEPTH             .m        : DEPTH
ACOUSTICIMPEDANCE1.kPa.s/m  : ACOUSTICIMPEDANCE1
AI                .kPa.s/m  : AI
AVG_PIGN          .m3/m3    : AVG_PIGN
DT                .us/ft    : DT
FACIES            ._        : FACIES
FLD1              ._        : FLD1
GR                .gAPI     : GR
HDRS              .ohm.m    : HDRS
HMRS              .ohm.m    : HMRS
DEPTH_1           .m        : DEPTH_1
NPHI              .m3/m3    : NPHI
ONE-WAYTIME1      .ms       : ONE-WAYTIME1
PERF_INT          ._        : PERF_INT
PERMEABILITY      .mD       : PERMEABILITY
PIGN              .m3/m3    : PIGN
PIGN_MODELLING    .m3/m3    : PIGN_MODELLING
PIMP              .kPa.s/m  : PIMP
RHOB              .g/cm3    : RHOB
RT_MODELLING      .ohm.m    : RT_MODELLING
RT_POWER          .ohm.m    : RT_POWER
SP                .mV       : SP
SUWI              ._        : SUWI
SUWI_MODELLING    ._        : SUWI_MODELLING
SXWI              ._        : SXWI
TDVSS             .m        : TDVSS
TEMP              .K        : TEMP
VCL               .%        : VCL
WATER_VOL         ._        : WATER_VOL
ZLT               ._        : ZLT
~Params ----------------------------------------------------
~Other -----------------------------------------------------
~ASCII -----------------------------------------------------
# ...
  1628.3084  5481.0195 5481019.5000    -999.25   134.6376     0.0000    -999.25   198.0740     4.2004     4.4842  1628.3083     0.6221  -753.9184    -999.25     0.2573     0.0245     0.0245 17982.3477     2.4211     4.2004    17.6434    91.8718     1.0000     1.0000     1.0000 -1545.8284   170.6639    87.7730     0.0245    20.0000
  1628.4608  5030.5596 5030559.5000    -999.25   147.0148     0.0000    -999.25   196.2470     4.1954     4.4949  1628.4608     0.6545  -753.9927    -999.25     0.2166     0.0070     0.0100 16504.4609     2.4264     4.1954    17.6014    92.4304     1.0000     1.0000     1.0000 -1545.9807   170.6723    96.4860     0.0070    20.0000
  1628.6132  4817.7495 4817719.0000    -999.25   153.4012     0.0000    -999.25   195.9460     4.1324     4.4504  1628.6132     0.6747  -754.0671    -999.25     0.0007     0.0003     0.0100 15806.1650     2.4247     4.1324    17.0767    93.1532     1.0000     1.0000     1.0000 -1546.1332   170.6808    99.8710     0.0003    20.0000
  1628.7656  4751.3423 4751342.5000    -999.25   153.7939     0.0000    -999.25   194.9659     4.0907     4.3486  1628.7656     0.6944  -754.1414    -999.25     0.0019     0.0022     0.0100 15588.3936     2.3974     4.0907    16.7338    94.2483     1.0000     1.0000     1.0000 -1546.2855   170.6893    98.9170     0.0022    20.0000
  1628.9180  4704.1577 4704125.5000    -999.25   152.0256     0.0000    -999.25   191.1456     3.8216     4.0262  1628.9180     0.7135  -754.2157    -999.25     0.0029     0.0027     0.0100 15433.4824     2.3463     3.8216    14.6046    95.1976     1.0000     1.0000     1.0000 -1546.4380   170.6978    90.4490     0.0027    20.0000
  1629.0704  4664.6138 4664614.0000    -999.25   148.5247     0.0000    -999.25   184.8584     3.2182     3.4616  1629.0703     0.7387  -754.2900    -999.25     0.0000     0.0001     0.0100 15303.8516     2.2730     3.2182    10.3568    95.9267     1.0000     1.0000     1.0000 -1546.5903   170.7063    78.7990     0.0001    20.0000
  1629.2227  4615.5723 4615572.0000    -999.25   143.5822     0.0000    -999.25   178.8739     2.6881     2.9528  1629.2227     0.7702  -754.3643    -999.25     0.0007     0.0001     0.0100 15142.9531     2.1743     2.6881     7.2261    96.1175     1.0000     1.0000     1.0000 -1546.7427   170.7148    73.7340     0.0001    20.0000
  1629.3752  4584.2998 4584299.5000    -999.25   138.9063     0.0000    -999.25   175.2547     2.4026     2.6176  1629.3751     0.7828  -754.4387    -999.25     0.0049     0.0001     0.0100 15040.3535     2.0892     2.4026     5.7725    95.8795     1.0000     1.0000     1.0000 -1546.8951   170.7233    69.8860     0.0001    20.0000
  1629.5276  4527.6880 4527688.0000    -999.25   138.1725     0.0000    -999.25   173.4398     2.1676     2.3006  1629.5276     0.8312  -754.5130    -999.25     0.0131     0.0001     0.0100 14854.6201     2.0525     2.1676     4.6985    95.2691     1.0000     1.0000     1.0000 -1547.0476   170.7317    67.1210     0.0001    20.0000
  1629.6800  4404.2852 4404285.5000    -999.25   140.5214     0.0000    -999.25   171.8174     1.8975     1.9765  1629.6799     0.8640  -754.5873    -999.25     0.0177     0.0001     0.0100 14449.7549     2.0305     1.8975     3.6005    94.6983     1.0000     1.0000     1.0000 -1547.2000   170.7402    65.5780     0.0001    20.0000
  1629.8324  4343.0278 4343027.5000    -999.25   142.2508     0.0000    -999.25   169.8497     1.6732     1.7378  1629.8324     0.8717  -754.6617    -999.25     0.0165     0.0001     0.0100 14248.7783     2.0269     1.6732     2.7996    94.2548     1.0000     1.0000     1.0000 -1547.3524   170.7487    65.1260     0.0001    20.0000
  1629.9848  4333.9795 4333979.5000    -999.25   142.8994     0.0000    -999.25   167.9586     1.5560     1.6323  1629.9847     0.8816  -754.7360    -999.25     0.0172     0.0001     0.0100 14219.0938     2.0319     1.5560     2.4211    94.0732     1.0000     1.0000     1.0000 -1547.5048   170.7572    65.1040     0.0001    20.0000
  1630.1372  4311.6982 4311698.5000    -999.25   143.3763     0.0000    -999.25   166.4542     1.5921     1.7079  1630.1372     0.8602  -754.8104    -999.25     0.0229     0.0001     0.0100 14145.9922     2.0282     1.5921     2.5348    94.0982     1.0000     1.0000     1.0000 -1547.6572   170.7657    65.3900     0.0001    20.0000
  1630.2896  4264.1460 4264146.0000    -999.25   143.8458     0.0000    -999.25   165.4440     1.7545     1.9307  1630.2896     0.8115  -754.8846    -999.25     0.0340     0.0001     0.0100 13989.9805     2.0124     1.7545     3.0783    94.1818     1.0000     1.0000     1.0000 -1547.8096   170.7742    65.0500     0.0001    20.0000
  1630.4420  4203.4072 4203407.5000    -999.25   143.8795     0.0000    -999.25   165.1406     2.0353     2.2368  1630.4420     0.8088  -754.9590    -999.25     0.0664     0.0001     0.0100 13790.7070     1.9842     2.0353     4.1424    94.2540     1.0000     1.0000     1.0000 -1547.9619   170.7827    63.2330     0.0001    20.0000
  1630.5944  4130.3936 4130389.2500    -999.25   143.6261     0.0000    -999.25   165.6730     2.4181     2.5619  1630.5944     0.8395  -755.0333    -999.25     0.1404     0.0001     0.0100 13551.1455     1.9463     2.4181     5.8472    94.1481     1.0000     1.0000     1.0000 -1548.1144   170.7911    60.9100     0.0001    20.0000
  1630.7468  4050.0830 4050083.0000    -999.25   143.4111     3.0000    -999.25   166.6249     2.7621     2.8754  1630.7468     0.8463  -755.1077    -999.25     0.2158     0.0001     0.0100 13287.6738     1.9056     2.7621     7.6292    93.9024     1.0000     1.0000     1.0000 -1548.2667   170.7996    59.7150     0.0001    20.0000
  1630.8992  4010.2903 4010291.0000    -999.25   143.4888     3.0000    -999.25   167.0888     3.0388     3.1556  1630.8992     0.8120  -755.1819    -999.25     0.2279     0.0001     0.0100 13157.1221     1.8879     3.0388     9.2343    93.4971     1.0000     1.0000     1.0000 -1548.4192   170.8081    59.3570     0.0001    20.0000
  1631.0516  3953.8604 3953860.2500    -999.25   144.2108     3.0000    -999.25   166.3434     3.2663     3.4914  1631.0515     0.7977  -755.2563    -999.25     0.2955     0.0001     0.0100 12971.9824     1.8707     3.2663    10.6687    93.1493     1.0000     1.0000     1.0000 -1548.5715   170.8166    57.5960     0.0001    20.0000
  1631.2039  3809.8574 3809857.2500    -999.25   145.5039     3.0000    -999.25   164.1175     3.5491     3.8755  1631.2039     0.8000  -755.3306    -999.25     0.5644     0.0001     0.0100 12499.5322     1.8187     3.5491    12.5964    92.8470     1.0000     1.0000     1.0000 -1548.7239   170.8251    53.0897     0.0001    20.0000
  1631.3564  3534.8096 3534809.7500    -999.25   147.8295     3.0000    -999.25   160.4528     3.8489     4.1299  1631.3563     0.8191  -755.4050    -999.25     1.2551     0.0001     0.0100 11597.1445     1.7144     3.8489    14.8140    92.7746     1.0000     1.0000     1.0000 -1548.8763   170.8336    46.7150     0.0001    20.0000
  1631.5088  3237.0806 3237080.5000    -999.25   152.0949     3.0000    -999.25   156.2791     3.8769     4.0031  1631.5088     0.8506  -755.4793    -999.25     2.3217     0.0001     0.0100 10620.3428     1.6153     3.8769    15.0304    92.6116     1.0000     1.0000     1.0000 -1549.0288   170.8421    41.3550     0.0001    20.0000
  1631.6612  3037.2798 3037279.7500    -999.25   157.9656     3.0000    -999.25   153.3740     3.5527     3.6606  1631.6611     0.9147  -755.5536    -999.25     3.2631     0.0001     0.0100  9964.8281     1.5741     3.5527    12.6217    92.4869     1.0000     1.0000     1.0000 -1549.1812   170.8505    40.4200     0.0001    20.0000
  1631.8136  2997.9482 2997948.2500    -999.25   162.1629     3.0000    -999.25   153.2632     3.3029     3.4659  1631.8136     0.8468  -755.6279    -999.25     2.0037     0.0001     0.0100  9835.7891     1.5950     3.3029    10.9091    92.2177     1.0000     1.0000     1.0000 -1549.3336   170.8590    44.3480     0.0001    20.0000
  1631.9660  3135.0000 3135000.0000    -999.25   162.2586     3.0000    -999.25   156.0829     3.4617     3.6353  1631.9659     0.8152  -755.7023    -999.25     0.9731     0.0001     0.0100 10285.4326     1.6689     3.4617    11.9834    91.9352     1.0000     1.0000     1.0000 -1549.4860   170.8675    50.5480     0.0001    20.0000
