~Version ---------------------------------------------------
VERS. 2.0 : CWLS log ASCII Standard -VERSION 2.0
WRAP.  NO : 
~Well ------------------------------------------------------
STRT.m                                                1171.1084 : 
STOP.m                                                  1705.88 : 
STEP.m                                                   0.1524 : 
NULL.                                                   -999.25 : 
COMP.                                                           : COMPANY
WELL.                                                   Well-12 : WELL
FLD .                                                           : FIELD
LOC .                                                           : LOCATION
SRVC.                                                           : SERVICE COMPANY
DATE. 2021-01-20 14:34:05   : Log Export Date {yyyy-MM-dd HH:mm : ss}
PROV.                                                           : PROVINCE
UWI .                                                   Well-12 : UNIQUE WELL ID
API .                                                           : API NUMBER
~Curve Information -----------------------------------------
DEPTH             .m        : DEPTH
ACOUSTICIMPEDANCE1.kPa.s/m  : ACOUSTICIMPEDANCE1
AI                .kPa.s/m  : AI
AVG_PIGN          .m3/m3    : AVG_PIGN
DT                .us/ft    : DT
FACIES            ._        : FACIES
FLD1              ._        : FLD1
GR                .gAPI     : GR
HDRS              .ohm.m    : HDRS
HMRS              .ohm.m    : HMRS
DEPTH_1           .m        : DEPTH_1
NPHI              .m3/m3    : NPHI
ONE-WAYTIME1      .ms       : ONE-WAYTIME1
PERF_INT          ._        : PERF_INT
PERMEABILITY      .mD       : PERMEABILITY
PIGN              .m3/m3    : PIGN
PIGN_MODELLING    .m3/m3    : PIGN_MODELLING
PIMP              .kPa.s/m  : PIMP
RHOB              .g/cm3    : RHOB
RT_MODELLING      .ohm.m    : RT_MODELLING
RT_POWER          .ohm.m    : RT_POWER
SP                .mV       : SP
SUWI              ._        : SUWI
SUWI_MODELLING    ._        : SUWI_MODELLING
SXWI              ._        : SXWI
TDVSS             .m        : TDVSS
TEMP              .K        : TEMP
VCL               .%        : VCL
WATER_VOL         ._        : WATER_VOL
ZLT               ._        : ZLT
~Params ----------------------------------------------------
~Other -----------------------------------------------------
~ASCII -----------------------------------------------------
  1171.1084  4400.7397 4400740.0000    -999.25   159.2520    -999.25    -999.25   131.5694     1.2245     1.3359  1171.1084     0.6631  -530.9366    -999.25    -999.25    -999.25    -999.25 14438.1230     2.2993     1.2245     1.4994    86.1087    -999.25    -999.25    -999.25 -1088.6284   145.2070    -999.25    -999.25    -999.25
  1171.2608  4444.9941 4444994.5000    -999.25   156.9122    -999.25    -999.25   130.5435     1.2272     1.3395  1171.2607     0.6701  -531.0110    -999.25    -999.25    -999.25    -999.25 14583.3145     2.2883     1.2272     1.5060    86.1218    -999.25    -999.25    -999.25 -1088.7808   145.2155    -999.25    -999.25    -999.25
  1171.4132  4526.3853 4526385.5000    -999.25   153.6732    -999.25    -999.25   129.0353     1.2204     1.3282  1171.4132     0.6642  -531.0853    -999.25    -999.25    -999.25    -999.25 14850.3457     2.2821     1.2204     1.4894    86.0908    -999.25    -999.25    -999.25 -1088.9332   145.2240    -999.25    -999.25    -999.25
  1171.5656  4611.1943 4611194.0000    -999.25   150.5560    -999.25    -999.25   127.8002     1.2006     1.3011  1171.5656     0.6607  -531.1597    -999.25    -999.25    -999.25    -999.25 15128.5898     2.2777     1.2006     1.4414    86.0278    -999.25    -999.25    -999.25 -1089.0856   145.2325    -999.25    -999.25    -999.25
  1171.7180  4685.8730 4685873.0000    -999.25   147.5972    -999.25    -999.25   127.5613     1.1822     1.2779  1171.7180     0.6423  -531.2340    -999.25    -999.25    -999.25    -999.25 15373.5996     2.2691     1.1822     1.3976    85.8048    -999.25    -999.25    -999.25 -1089.2379   145.2410    -999.25    -999.25    -999.25
  1171.8704  4778.1069 4778106.5000    -999.25   144.0017    -999.25    -999.25   128.2749     1.1755     1.2720  1171.8704     0.6847  -531.3083    -999.25    -999.25    -999.25    -999.25 15676.2031     2.2574     1.1755     1.3818    85.5492    -999.25    -999.25    -999.25 -1089.3904   145.2495    -999.25    -999.25    -999.25
  1172.0228  4893.1914 4893191.5000    -999.25   140.5775    -999.25    -999.25   129.3554     1.1761     1.2774  1172.0228     0.6492  -531.3826    -999.25    -999.25    -999.25    -999.25 16053.7773     2.2568     1.1761     1.3832    85.1959    -999.25    -999.25    -999.25 -1089.5427   145.2580    -999.25    -999.25    -999.25
  1172.1752  4989.9243 4989924.0000    -999.25   138.5670    -999.25    -999.25   130.4338     1.1725     1.2760  1172.1752     0.6336  -531.4570    -999.25    -999.25    -999.25    -999.25 16371.1426     2.2685     1.1725     1.3748    84.9980    -999.25    -999.25    -999.25 -1089.6952   145.2664    -999.25    -999.25    -999.25
  1172.3276  5024.1929 5024192.5000    -999.25   138.4348    -999.25    -999.25   131.4246     1.1552     1.2547  1172.3275     0.6263  -531.5313    -999.25    -999.25    -999.25    -999.25 16483.5723     2.2819     1.1552     1.3345    84.8678    -999.25    -999.25    -999.25 -1089.8475   145.2749    -999.25    -999.25    -999.25
  1172.4800  4967.1836 4967183.5000    -999.25   140.0175    -999.25    -999.25   131.9356     1.1335     1.2249  1172.4800     0.6366  -531.6056    -999.25    -999.25    -999.25    -999.25 16296.5342     2.2818     1.1335     1.2848    84.8844    -999.25    -999.25    -999.25 -1090.0000   145.2834    -999.25    -999.25    -999.25
  1172.6324  4800.4238 4800423.5000    -999.25   143.4402    -999.25    -999.25   131.3663     1.1187     1.2021  1172.6323     0.6689  -531.6799    -999.25    -999.25    -999.25    -999.25 15749.4219     2.2591     1.1187     1.2515    84.9278    -999.25    -999.25    -999.25 -1090.1523   145.2919    -999.25    -999.25    -999.25
  1172.7848  4587.4980 4587498.0000    -999.25   148.2176    -999.25    -999.25   129.7749     1.1099     1.1877  1172.7848     0.7172  -531.7543    -999.25    -999.25    -999.25    -999.25 15050.8457     2.2308     1.1099     1.2319    84.9115    -999.25    -999.25    -999.25 -1090.3048   145.3004    -999.25    -999.25    -999.25
  1172.9372  4401.8545 4401854.5000    -999.25   153.0213    -999.25    -999.25   128.0665     1.1041     1.1791  1172.9371     0.7467  -531.8286    -999.25    -999.25    -999.25    -999.25 14441.7793     2.2099     1.1041     1.2190    84.9504    -999.25    -999.25    -999.25 -1090.4572   145.3089    -999.25    -999.25    -999.25
  1173.0896  4288.7212 4288721.0000    -999.25   156.0416    -999.25    -999.25   127.2362     1.1027     1.1785  1173.0896     0.7755  -531.9030    -999.25    -999.25    -999.25    -999.25 14070.6074     2.1956     1.1027     1.2159    85.0228    -999.25    -999.25    -999.25 -1090.6096   145.3174    -999.25    -999.25    -999.25
  1173.2420  4284.6401 4284640.0000    -999.25   156.2898    -999.25    -999.25   127.4569     1.1159     1.1994  1173.2419     0.7531  -531.9772    -999.25    -999.25    -999.25    -999.25 14057.2188     2.1970     1.1159     1.2452    85.2548    -999.25    -999.25    -999.25 -1090.7620   145.3258    -999.25    -999.25    -999.25
  1173.3944  4363.5820 4363582.0000    -999.25   154.5241    -999.25    -999.25   127.8748     1.1454     1.2413  1173.3944     0.7393  -532.0516    -999.25    -999.25    -999.25    -999.25 14316.2139     2.2122     1.1454     1.3119    85.4688    -999.25    -999.25    -999.25 -1090.9144   145.3343    -999.25    -999.25    -999.25
  1173.5468  4474.8545 4474854.5000    -999.25   151.2947    -999.25    -999.25   127.8012     1.1855     1.2881  1173.5468     0.7201  -532.1259    -999.25    -999.25    -999.25    -999.25 14681.2812     2.2212     1.1855     1.4054    85.7346    -999.25    -999.25    -999.25 -1091.0668   145.3428    -999.25    -999.25    -999.25
  1173.6992  4604.3052 4604305.0000    -999.25   147.5309    -999.25    -999.25   127.6747     1.2203     1.3249  1173.6992     0.7254  -532.2003    -999.25    -999.25    -999.25    -999.25 15105.9883     2.2286     1.2203     1.4891    85.8335    -999.25    -999.25    -999.25 -1091.2191   145.3513    -999.25    -999.25    -999.25
  1173.8516  4739.8096 4739809.5000    -999.25   144.3421    -999.25    -999.25   128.4474     1.2375     1.3462  1173.8516     0.7028  -532.2745    -999.25    -999.25    -999.25    -999.25 15550.5566     2.2446     1.2375     1.5314    85.9276    -999.25    -999.25    -999.25 -1091.3716   145.3598    -999.25    -999.25    -999.25
  1174.0040  4824.1191 4824119.0000    -999.25   142.3818    -999.25    -999.25   130.2896     1.2451     1.3623  1174.0040     0.6466  -532.3489    -999.25    -999.25    -999.25    -999.25 15827.1621     2.2535     1.2451     1.5503    85.9731    -999.25    -999.25    -999.25 -1091.5239   145.3683    -999.25    -999.25    -999.25
  1174.1564  4871.9409 4871941.0000    -999.25   141.1719    -999.25    -999.25   132.4374     1.2499     1.3724  1174.1564     0.5940  -532.4232    -999.25    -999.25    -999.25    -999.25 15984.0586     2.2565     1.2499     1.5623    85.9720    -999.25    -999.25    -999.25 -1091.6764   145.3768    -999.25    -999.25    -999.25
  1174.3088  4900.2104 4900210.0000    -999.25   140.0838    -999.25    -999.25   133.9384     1.2507     1.3706  1174.3087     0.6277  -532.4976    -999.25    -999.25    -999.25    -999.25 16076.8057     2.2521     1.2507     1.5643    86.0174    -999.25    -999.25    -999.25 -1091.8287   145.3852    -999.25    -999.25    -999.25
  1174.4612  4937.8784 4937878.5000    -999.25   139.1942    -999.25    -999.25   134.3297     1.2420     1.3535  1174.4612     0.6585  -532.5719    -999.25    -999.25    -999.25    -999.25 16200.3887     2.2550     1.2420     1.5426    86.0514    -999.25    -999.25    -999.25 -1091.9812   145.3937    -999.25    -999.25    -999.25
  1174.6136  4987.0337 4987034.0000    -999.25   138.5923    -999.25    -999.25   133.7481     1.2257     1.3271  1174.6135     0.6493  -532.6462    -999.25    -999.25    -999.25    -999.25 16361.6602     2.2676     1.2257     1.5023    86.1880    -999.25    -999.25    -999.25 -1092.1335   145.4022    -999.25    -999.25    -999.25
  1174.7660  4987.3408 4987341.0000    -999.25   139.1888    -999.25    -999.25   132.7403     1.2026     1.2956  1174.7660     0.6538  -532.7205    -999.25    -999.25    -999.25    -999.25 16362.6670     2.2775     1.2026     1.4462    86.2187    -999.25    -999.25    -999.25 -1092.2860   145.4107    -999.25    -999.25    -999.25
