~Version ---------------------------------------------------
VERS. 2.0 : CWLS log ASCII Standard -VERSION 2.0
WRAP.  NO : 
~Well ------------------------------------------------------
STRT.m                                                1249.0292 : 
STOP.m                                                1575.3176 : 
STEP.m                                                   0.1524 : 
NULL.                                                   -999.25 : 
COMP.                                                           : COMPANY
WELL.                                                   Well-10 : WELL
FLD .                                                           : FIELD
LOC .                                                           : LOCATION
SRVC.                                                           : SERVICE COMPANY
DATE. 2021-01-20 14:34:04   : Log Export Date {yyyy-MM-dd HH:mm : ss}
PROV.                                                           : PROVINCE
UWI .                                                   Well-10 : UNIQUE WELL ID
API .                                                           : API NUMBER
~Curve Information -----------------------------------------
DEPTH             .m        : DEPTH
ACOUSTICIMPEDANCE1.kPa.s/m  : ACOUSTICIMPEDANCE1
AI                .kPa.s/m  : AI
AVG_PIGN          .m3/m3    : AVG_PIGN
CALI              .in       : CALI
CALI[DERIVED]1    .in       : CALI[DERIVED]1
DFL               .ohm.m    : DFL
DT                .us/ft    : DT
FACIES            ._        : FACIES
FLD1              ._        : FLD1
GR                .gAPI     : GR
HDRS              .ohm.m    : HDRS
HMRS              .ohm.m    : HMRS
DEPTH_1           .m        : DEPTH_1
NPHI              .m3/m3    : NPHI
PEF               .b/e      : PEF
PERF_INT          ._        : PERF_INT
PERMEABILITY      .mD       : PERMEABILITY
PHIT              .m3/m3    : PHIT
PIGN              .m3/m3    : PIGN
PIGN_MODELLING    .m3/m3    : PIGN_MODELLING
PIMP              .kPa.s/m  : PIMP
RHOB              .g/cm3    : RHOB
RT_MODELLING      .ohm.m    : RT_MODELLING
RT_POWER          .ohm.m    : RT_POWER
SP                .mV       : SP
SUWI              ._        : SUWI
SUWI_MODELLING    ._        : SUWI_MODELLING
SXWI              ._        : SXWI
TDVSS             .m        : TDVSS
TEMP              .K        : TEMP
VCL               .%        : VCL
WATER_VOL         ._        : WATER_VOL
ZLT               ._        : ZLT
~Params ----------------------------------------------------
~Other -----------------------------------------------------
~ASCII -----------------------------------------------------
# ...
  1443.4916  6153.8623 6153862.0000    -999.25     8.5402     8.5402     4.4061   118.8667     0.0000    -999.25    85.8223     3.0082     3.2189  1443.4916     0.4651     7.6726    -999.25     0.2090     0.0249     0.0249     0.0249 20189.8359     2.3999     4.4061    19.4137   139.7721     1.0000     1.0000     1.0000 -1363.4916   170.2867    83.1550     0.0249    13.0000
  1443.6440  6398.0581 6398058.0000    -999.25     8.6457     8.6457     5.1858   116.9549     0.0000    -999.25    81.3541     3.3298     3.5250  1443.6440     0.5072     8.3387    -999.25     0.2153     0.0262     0.0262     0.0262 20991.0039     2.4550     5.1858    26.8925   140.4539     1.0000     1.0000     1.0000 -1363.6440   170.2962    82.4270     0.0262    13.0000
  1443.7964  6441.2407 6441240.5000    -999.25     8.6328     8.6328     6.0240   118.7213     0.0000    -999.25    78.5682     3.4388     3.5583  1443.7964     0.5179     8.6991    -999.25     0.2215     0.0271     0.0271     0.0271 21132.6797     2.5089     6.0240    36.2886   141.1228     1.0000     1.0000     1.0000 -1363.7964   170.3057    81.9320     0.0271    13.0000
  1443.9488  6298.1797 6298179.5000    -999.25     8.6870     8.6870     5.9136   122.1391     0.0000    -999.25    78.7012     3.4193     3.4565  1443.9489     0.5130     8.5451    -999.25     0.2278     0.0272     0.0272     0.0272 20663.3184     2.5238     5.9136    34.9707   141.5560     1.0000     1.0000     1.0000 -1363.9489   170.3153    81.9040     0.0272    13.0000
  1444.1012  6210.8779 6210878.0000    -999.25     8.5890     8.5890     5.1885   121.9813     0.0000    -999.25    82.3029     3.5249     3.5027  1444.1012     0.5297     7.9870    -999.25     0.2340     0.0272     0.0272     0.0272 20376.8965     2.4856     5.1885    26.9205   141.6227     1.0000     1.0000     1.0000 -1364.1012   170.3248    81.8740     0.0272    13.0000
  1444.2536  6451.1411 6451141.0000    -999.25     8.5451     8.5451     4.9168   116.8713     0.0000    -999.25    88.5912     3.3797     3.3957  1444.2537     0.5485     7.1369    -999.25     0.2403     0.0468     0.0468     0.0468 21165.1602     2.4736     4.9168    24.1749   141.3314     1.0000     1.0000     1.0000 -1364.2537   170.3343    68.9140     0.0468    13.0000
  1444.4060  6974.1104 6974110.0000    -999.25     8.5934     8.5934     4.3209   109.5410     0.0000    -999.25    95.5819     2.9693     3.0861  1444.4060     0.5380     6.3261    -999.25     0.2465     0.0728     0.0728     0.0728 22880.9395     2.5064     4.3209    18.6702   140.9959     1.0000     1.0000     1.0000 -1364.4060   170.3439    48.0720     0.0728    13.0000
  1444.5584  7732.8818 7732882.0000    -999.25     8.5210     8.5210     3.8891   102.1823     0.0000    -999.25   100.8720     2.8445     3.0354  1444.5583     0.5101     5.8687    -999.25     0.2528     0.0948     0.0948     0.0948 25370.3477     2.5924     3.8891    15.1251   140.4047     1.0000     1.0000     1.0000 -1364.5584   170.3534    28.7100     0.0948    13.0000
  1444.7108  8595.9277 8595928.0000    -999.25     8.5463     8.5463     3.9657    95.7703     0.0000    -999.25   102.8536     3.0827     3.3080  1444.7108     0.5083     5.7411    -999.25     0.2590     0.1021     0.1021     0.1021 28201.8633     2.7009     3.9657    15.7268   139.7220     1.0000     1.0000     1.0000 -1364.7108   170.3629    16.5560     0.1021    13.0000
  1444.8632  9204.8213 9204821.0000    -999.25     8.5864     8.5864     4.9702    91.2994     0.0000    -999.25   101.1791     3.5528     3.7086  1444.8632     0.4842     5.9454    -999.25     0.2653     0.1175     0.1175     0.1175 30199.5430     2.7572     4.9702    24.7029   139.4640     1.0000     1.0000     1.0000 -1364.8632   170.3725     6.7540     0.1175    13.0000
  1445.0156  9373.5400 9373540.0000    -999.25     8.5648     8.5648     7.0152    88.5667     0.0000    -999.25    97.3834     3.9424     3.9916  1445.0156     0.4897     6.3412    -999.25     0.2715     0.0846     0.0846     0.0846 30753.0840     2.7237     7.0152    49.2130   139.2675     1.0000     1.0000     1.0000 -1365.0156   170.3820    17.4910     0.0846    13.0000
  1445.1680  9003.3896 9003389.0000    -999.25     8.7379     8.7379     7.9021    88.2639     0.0000    -999.25    94.3976     3.9139     4.0035  1445.1680     0.4723     6.9318    -999.25     0.6152     0.0866     0.0866     0.0866 29538.6777     2.6072     7.9021    62.4432   139.1926     1.0000     1.0000     1.0000 -1365.1680   170.3915    23.3710     0.0866    13.0000
  1445.3204  8290.9463 8290946.5000    -999.25     9.3353     9.3353     7.5185    91.0656     0.0000    -999.25    94.4042     3.7480     3.9647  1445.3204     0.4574     7.6691    -999.25     0.4842     0.1049     0.1049     0.1049 27201.2676     2.4771     7.5185    56.5278   139.3245     1.0000     1.0000     1.0000 -1365.3204   170.4010    25.6000     0.1049    14.0000
  1445.4728  7628.2983 7628298.5000    -999.25     9.5439     9.5439     6.4647    96.4789     0.0000    -999.25    94.9777     3.5335     3.7826  1445.4728     0.4799     8.4200    -999.25     0.2602     0.0934     0.0934     0.0934 25027.2266     2.4146     6.4647    41.7924   139.4569     1.0000     1.0000     1.0000 -1365.4728   170.4106    37.0160     0.0934    14.0000
  1445.6252  7377.3477 7377348.0000    -999.25     9.2427     9.2427     5.9073   101.2275     0.0000    -999.25    92.6202     3.0391     3.1927  1445.6252     0.5269     8.9937    -999.25     0.3390     0.0719     0.0719     0.0719 24203.8965     2.4501     5.9073    34.8962   139.6411     1.0000     1.0000     1.0000 -1365.6252   170.4201    45.1960     0.0719    14.0000
  1445.7776  7499.1982 7499198.0000    -999.25     8.4222     8.4222     4.7134   104.2243     0.0000    -999.25    87.1238     2.6322     2.6862  1445.7776     0.4560     9.0289    -999.25     0.2673     0.0440     0.0440     0.0440 24603.6680     2.5643     4.7134    22.2161   139.6834     1.0000     1.0000     1.0000 -1365.7776   170.4296    49.7660     0.0440    14.0000
  1445.9300  7638.6880 7638688.0000    -999.25     8.4637     8.4637     4.3560   106.9337     0.0000    -999.25    81.5865     2.7612     2.7693  1445.9301     0.4124     8.5732    -999.25     0.1933     0.0283     0.0283     0.0283 25061.3125     2.6799     4.3560    18.9747   139.8077     1.0000     1.0000     1.0000 -1365.9301   170.4392    51.2110     0.0283    14.0000
  1446.0824  7574.3584 7574358.5000    -999.25     8.6104     8.6104     5.4342   108.8158     0.0000    -999.25    76.4032     3.7118     3.7525  1446.0824     0.4282     7.7928    -999.25     0.1205     0.0275     0.0275     0.0275 24850.2578     2.7041     5.4342    29.5305   140.0939     1.0000     1.0000     1.0000 -1366.0824   170.4487    53.5770     0.0275    14.0000
  1446.2348  7452.9805 7452980.5000    -999.25     8.7065     8.7065     8.5367   109.1320     0.0000    -999.25    73.1742     4.4390     4.6681  1446.2349     0.4914     6.9792    -999.25     0.0672     0.0293     0.0293     0.0293 24452.0352     2.6685     8.5367    72.8753   140.0460     1.0000     1.0000     1.0000 -1366.2349   170.4583    58.5980     0.0293    14.0000
  1446.3872  7443.1294 7443129.5000    -999.25     8.6285     8.6285     7.5543   107.9947     0.0000    -999.25    73.5012     3.6503     3.9294  1446.3872     0.5479     6.5370    -999.25     0.0548     0.0294     0.0294     0.0294 24419.7168     2.6372     7.5543    57.0674   139.9217     1.0000     1.0000     1.0000 -1366.3872   170.4678    60.7270     0.0294    14.0000
  1446.5396  7640.0347 7640035.0000    -999.25     8.5045     8.5045     5.2686   105.5704     0.0000    -999.25    76.3400     2.9054     3.1064  1446.5396     0.5428     6.6112    -999.25     0.0774     0.0283     0.0283     0.0283 25065.7305     2.6462     5.2686    27.7581   139.8749     1.0000     1.0000     1.0000 -1366.5396   170.4773    57.3870     0.0283    14.0000
  1446.6920  7896.8286 7896828.5000    -999.25     8.6113     8.6113     4.2953   104.4958     0.0000    -999.25    78.7644     2.7827     2.9422  1446.6920     0.4923     7.0747    -999.25     0.0904     0.0280     0.0280     0.0280 25908.2305     2.7073     4.2953    18.4496   139.6563     1.0000     1.0000     1.0000 -1366.6920   170.4868    54.9970     0.0280    14.0000
