~Version ---------------------------------------------------
VERS. 2.0 : CWLS log ASCII Standard -VERSION 2.0
WRAP.  NO : 
~Well ------------------------------------------------------
STRT.m                                                1290.3698 : 
STOP.m                                                1526.7422 : 
STEP.m                                                   0.1524 : 
NULL.                                                   -999.25 : 
COMP.                                                           : COMPANY
WELL.                                                   Well-18 : WELL
FLD .                                                           : FIELD
LOC .                                                           : LOCATION
SRVC.                                                           : SERVICE COMPANY
DATE. 2021-01-20 14:34:10   : Log Export Date {yyyy-MM-dd HH:mm : ss}
PROV.                                                           : PROVINCE
UWI .                                                   Well-18 : UNIQUE WELL ID
API .                                                           : API NUMBER
~Curve Information -----------------------------------------
DEPTH             .m        : DEPTH
ACOUSTICIMPEDANCE1.kPa.s/m  : ACOUSTICIMPEDANCE1
AI                .kPa.s/m  : AI
AVG_PIGN          .m3/m3    : AVG_PIGN
BS                .in       : BS
CALI              .in       : CALI
CALI[DERIVED]1    .in       : CALI[DERIVED]1
DT                .us/ft    : DT
FACIES            ._        : FACIES
FLD1              ._        : FLD1
GR                .gAPI     : GR
DEPTH_1           .m        : DEPTH_1
NPHI              .m3/m3    : NPHI
PEF               .b/e      : PEF
PERF_INT          ._        : PERF_INT
PHIT              .m3/m3    : PHIT
PIGN              .m3/m3    : PIGN
PIGN_MODELLING    .m3/m3    : PIGN_MODELLING
PIMP              .kPa.s/m  : PIMP
RHOB              .g/cm3    : RHOB
LLD               .ohm.m    : LLD
RT_MODELLING      .ohm.m    : RT_MODELLING
RT_POWER          .ohm.m    : RT_POWER
RXO               .ohm.m    : RXO
SP                .mV       : SP
SUWI              ._        : SUWI
SUWI_MODELLING    ._        : SUWI_MODELLING
SXWI              ._        : SXWI
TDVSS             .m        : TDVSS
TEMP              .K        : TEMP
VCL               .%        : VCL
WATER_VOL         ._        : WATER_VOL
ZLT               ._        : ZLT
~Params ----------------------------------------------------
~Other -----------------------------------------------------
~ASCII -----------------------------------------------------
# ...
  1431.1874  2250.4292 2250429.2500    -999.25     8.5000     8.4079     8.4079   150.4003     3.0000    -999.25    18.1356  1431.1874     0.5853     0.9662    -999.25     0.0001     0.0001     0.0100  7383.2983     1.1104    62.0318    62.0318  3847.9492    51.9677   -51.0000     1.0000     1.0000     1.0000 -1337.9470   161.3924     0.0000     0.0001     9.0000
  1431.3398  2246.8210 2246821.0000    -999.25     8.5000     8.4465     8.4465   150.0748     3.0000    -999.25    19.1044  1431.3398     0.5815     0.9601    -999.25     0.0001     0.0001     0.0100  7371.4604     1.1063    57.9425    57.9425  3357.3286    67.2212   -52.0625     1.0000     1.0000     1.0000 -1338.0973   161.4011     0.0000     0.0001     9.0000
  1431.4922  2227.5212 2227521.2500    -999.25     8.5000     8.4829     8.4829   150.7949     3.0000    -999.25    18.4305  1431.4922     0.5726     0.9859    -999.25     0.0001     0.0001     0.0100  7308.1406     1.1020    59.9984    59.9984  3599.8032   113.4307   -52.8125     1.0000     1.0000     1.0000 -1338.2476   161.4098     0.0000     0.0001     9.0000
  1431.6446  2249.1567 2249156.7500    -999.25     8.5000     8.4788     8.4788   149.4080     3.0000    -999.25    20.2201  1431.6447     0.5648     1.0187    -999.25     0.0001     0.0001     0.0100  7379.1230     1.1025    67.7229    67.7229  4586.3965    65.1593   -53.6250     1.0000     1.0000     1.0000 -1338.3979   161.4184     0.0000     0.0001     9.0000
  1431.7970  2247.6338 2247633.7500    -999.25     8.5000     8.4605     8.4605   149.0021     3.0000    -999.25    21.7730  1431.7970     0.5681     1.0088    -999.25     0.0001     0.0001     0.0100  7374.1265     1.0988    59.3645    59.3645  3524.1392    71.9667   -54.6250     1.0000     1.0000     1.0000 -1338.5482   161.4271     0.0000     0.0001     9.0000
  1431.9494  2234.2512 2234251.2500    -999.25     8.5000     8.4605     8.4605   149.5508     3.0000    -999.25    26.1571  1431.9495     0.5711     0.9712    -999.25     0.0008     0.0001     0.0100  7330.2207     1.0962    50.3766    50.3766  2537.8059   124.9635   -55.6875     1.0000     1.0000     1.0000 -1338.6986   161.4358     0.3940     0.0001     9.0000
  1432.1018  2369.8633 2369863.2500    -999.25     8.5000     8.4804     8.4804   145.7105     3.0000    -999.25    37.3316  1432.1018     0.5457     1.0786    -999.25     0.0152     0.0001     0.0100  7775.1421     1.1329    41.4469    41.4469  1717.8423    53.0868   -56.3750     1.0000     1.0000     1.0000 -1338.8489   161.4444     7.5880     0.0001     9.0000
  1432.2542  2730.0747 2730074.5000    -999.25     8.5000     8.4903     8.4903   141.0024     3.0000    -999.25    59.5284  1432.2543     0.4938     1.2235    -999.25     0.0452     0.0001     0.0100  8956.9375     1.2629    13.3691    13.3691   178.7339    43.6910   -57.3125     1.0000     1.0000     1.0000 -1338.9991   161.4531    22.5890     0.0001     9.0000
  1432.4066  3416.2046 3416204.5000    -999.25     8.5000     8.5076     8.5076   135.2808     3.0000    -999.25    84.7530  1432.4066     0.4570     1.3804    -999.25     0.0780     0.0001     0.0100 11208.0195     1.5162     6.2833     6.2833    39.4795    26.7156   -58.1875     1.0000     1.0000     1.0000 -1339.1495   161.4618    39.0150     0.0001     9.0000
  1432.5590  4632.9961 4632996.5000    -999.25     8.5000     8.5933     8.5933   126.7155     3.0000    -999.25   109.1084  1432.5591     0.4324     2.1593    -999.25     0.1429     0.0189     0.0189 15200.1191     1.9261     3.6602     3.6602    13.3968     0.9295   -59.7500     1.0000     1.0000     1.0000 -1339.2998   161.4704    62.0370     0.0189    10.0000
  1432.7114  5744.8677 5744868.0000    -999.25     8.5000     8.6354     8.6354   120.2139     3.0000    -999.25   122.2176  1432.7114     0.4389     3.7072    -999.25     0.1932     0.0342     0.0342 18847.9922     2.2658     2.7923     2.7923     7.7970     1.1113   -60.4375     1.0000     1.0000     1.0000 -1339.4501   161.4791    79.4950     0.0342    10.0000
  1432.8638  6347.5781 6347578.0000    -999.25     8.5000     8.6395     8.6395   116.7959     0.0000    -999.25   126.6017  1432.8638     0.4484     4.7460    -999.25     0.1869     0.0300     0.0300 20825.3867     2.4323     2.4953     2.4953     6.2266     1.4506   -60.6875     1.0000     1.0000     1.0000 -1339.6005   161.4878    78.4640     0.0300    10.0000
  1433.0162  6653.2100 6653210.0000    -999.25     8.5000     8.6395     8.6395   113.4944     0.0000    -999.25   127.0319  1433.0162     0.4391     4.9212    -999.25     0.1779     0.0300     0.0300 21828.1172     2.4774     2.7012     2.7012     7.2963     2.2069   -61.0625     1.0000     1.0000     1.0000 -1339.7507   161.4964    73.9380     0.0300    10.0000
  1433.1686  6676.7144 6676714.5000    -999.25     8.5000     8.6934     8.6934   112.4220     0.0000    -999.25   126.3682  1433.1686     0.4480     4.9785    -999.25     0.1775     0.0300     0.0300 21905.2305     2.4626     3.2080     3.2080    10.2914     1.4971   -61.5000     1.0000     1.0000     1.0000 -1339.9010   161.5051    73.7510     0.0300    10.0000
  1433.3210  6455.7148 6455715.0000    -999.25     8.5000     8.7588     8.7588   114.6936     0.0000    -999.25   129.0635  1433.3210     0.4567     5.1083    -999.25     0.1864     0.0297     0.0297 21180.1660     2.4292     3.6628     3.6628    13.4164     1.9198   -62.0000     1.0000     1.0000     1.0000 -1340.0514   161.5138    78.3690     0.0297    10.0000
  1433.4734  6157.1558 6157155.5000    -999.25     8.5000     8.8262     8.8262   116.2067     0.0000    -999.25   130.3841  1433.4734     0.4705     5.6687    -999.25     0.1935     0.0303     0.0303 20200.6426     2.3475     3.4751     3.4751    12.0763     2.0703   -61.8750     1.0000     1.0000     1.0000 -1340.2017   161.5224    81.6040     0.0303    10.0000
  1433.6258  5915.2793 5915279.0000    -999.25     8.5000     9.0311     9.0311   115.0199     0.0000    -999.25   127.7850  1433.6259     0.4880     7.1035    -999.25     0.1912     0.0380     0.0380 19407.0840     2.2322     3.1541     3.1541     9.9483     1.4447   -62.0625     1.0000     1.0000     1.0000 -1340.3519   161.5311    76.6350     0.0380    10.0000
  1433.7782  5916.5405 5916540.5000    -999.25     8.5000     9.6379     9.6379   113.0789     0.0000    -999.25   122.4535  1433.7782     0.4914     8.9119    -999.25     0.1888     0.0463     0.0463 19411.2207     2.1950     2.9100     2.9100     8.4682     0.5155   -62.4375     1.0000     1.0000     1.0000 -1340.5023   161.5398    71.2620     0.0463    10.0000
  1433.9306  5939.8257 5939826.0000    -999.25     8.5000     9.8883     9.8883   113.0620     0.0000    -999.25   122.1358  1433.9307     0.4760    10.9749    -999.25     0.1882     0.0510     0.0510 19487.6172     2.2033     2.7914     2.7914     7.7919     0.3867   -62.6250     1.0000     1.0000     1.0000 -1340.6526   161.5484    68.5670     0.0510    10.0000
  1434.0830  6305.2295 6305229.5000    -999.25     8.5000     9.2635     9.2635   110.2311     0.0000    -999.25   123.1324  1434.0830     0.4662     6.8736    -999.25     0.1868     0.0595     0.0595 20686.4473     2.2803     2.7533     2.7533     7.5807     0.5972   -62.8750     1.0000     1.0000     1.0000 -1340.8030   161.5571    63.6700     0.0595    10.0000
  1434.2354  6718.8398 6718840.0000    -999.25     8.5000     8.6406     8.6406   105.1379     0.0000    -999.25   135.0489  1434.2355     0.4708     4.7189    -999.25     0.1766     0.0474     0.0474 22043.4375     2.3176     2.9973     2.9973     8.9835     1.8173   -63.1875     1.0000     1.0000     1.0000 -1340.9532   161.5658    64.5870     0.0474    10.0000
  1434.3878  6813.0239 6813023.5000    -999.25     8.5000     8.5644     8.5644   105.1925     0.0000    -999.25   137.5086  1434.3878     0.4597     3.7974    -999.25     0.1553     0.0288     0.0288 22352.4395     2.3513     3.3436     3.3436    11.1795     1.9546   -63.3125     1.0000     1.0000     1.0000 -1341.1035   161.5744    63.2920     0.0288    10.0000
