~Version ---------------------------------------------------
VERS. 2.0 : CWLS log ASCII Standard -VERSION 2.0
WRAP.  NO : 
~Well ------------------------------------------------------
STRT.m                                                   1260.0 : 
STOP.m                                                1587.9648 : 
STEP.m                                                   0.1524 : 
NULL.                                                   -999.25 : 
COMP.                                                           : COMPANY
WELL.                                                    Well-5 : WELL
FLD .                                                           : FIELD
LOC .                                                           : LOCATION
SRVC.                                                           : SERVICE COMPANY
DATE. 2021-01-20 14:34:00   : Log Export Date {yyyy-MM-dd HH:mm : ss}
PROV.                                                           : PROVINCE
UWI .                                                    Well-5 : UNIQUE WELL ID
API .                                                           : API NUMBER
~Curve Information -----------------------------------------
DEPTH             .m        : DEPTH
ACOUSTICIMPEDANCE1.kPa.s/m  : ACOUSTICIMPEDANCE1
AI                .kPa.s/m  : AI
AVG_PIGN          .m3/m3    : AVG_PIGN
CALI              .in       : CALI
CALI[DERIVED]1    .in       : CALI[DERIVED]1
DT                .us/ft    : DT
FACIES            ._        : FACIES
FLD1              ._        : FLD1
GR                .gAPI     : GR
LLD               .ohm.m    : LLD
LLS               .ohm.m    : LLS
LL3               .ohm.m    : LL3
DEPTH_1           .m        : DEPTH_1
NPHI              .m3/m3    : NPHI
PERF_INT          ._        : PERF_INT
PERMEABILITY      .mD       : PERMEABILITY
PIGN              .m3/m3    : PIGN
PIGN_MODELLING    .m3/m3    : PIGN_MODELLING
PIMP              .kPa.s/m  : PIMP
RHOB              .g/cm3    : RHOB
RT_MODELLING      .ohm.m    : RT_MODELLING
RT_POWER          .ohm.m    : RT_POWER
SP                .mV       : SP
SUWI              ._        : SUWI
SUWI_MODELLING    ._        : SUWI_MODELLING
TDVSS             .m        : TDVSS
VCL               .%        : VCL
WATER_VOL         ._        : WATER_VOL
ZLT               ._        : ZLT
~Params ----------------------------------------------------
~Other -----------------------------------------------------
~ASCII -----------------------------------------------------
# ...
  1520.9519  4495.3379 4495338.0000     0.0634     9.4605     9.4605   136.8493     4.0000    -999.25    65.8003     4.6503     4.3304     7.1708  1520.9519     0.7220    -999.25     1.5978     0.0606     0.0634 14748.4844     2.0183     4.6503    21.6259    25.6824     0.8610     0.8610 -1449.3619     8.7160     0.0488    18.0000
  1521.0612  4413.6323 4420975.0000     0.0100     9.4632     9.4632   137.4159     4.0000    -999.25    64.9359     4.6243     4.2491     7.2969  1521.0612     0.7453    -999.25     0.0000     0.0001     0.0100 14504.5107     1.9898     4.6243    21.3838    25.5455     1.0000     1.0000 -1449.4712     0.0000     0.0001    18.0000
  1521.1042  4391.7192 4391719.5000    -999.25     9.4646     9.4646   137.6388     3.0000    -999.25    64.5966     4.6365     4.2418     7.4521  1521.1041     0.7555    -999.25     0.0000     0.0001     0.0100 14408.5283     1.9832     4.6365    21.4979    25.4895     1.0000     1.0000 -1449.5142     0.0000     0.0001    18.0000
  1521.2136  4354.7739 4364143.5000    -999.25     9.4681     9.4681   137.6193     3.0000    -999.25    63.7333     4.6678     4.2232     7.8471  1521.2136     0.7813    -999.25     0.0000     0.0001     0.0100 14318.0547     1.9662     4.6678    21.7884    25.3471     1.0000     1.0000 -1449.6235     0.0000     0.0001    18.0000
  1521.2566  4353.3042 4353304.5000    -999.25     9.4703     9.4703   137.6116     3.0000    -999.25    63.4146     4.7024     4.2479     8.1886  1521.2566     0.7875    -999.25     0.0000     0.0001     0.0100 14282.4941     1.9654     4.7024    22.1161    25.2931     1.0000     1.0000 -1449.6665     0.0000     0.0001    18.0000
  1521.3660  4365.0552 4370903.0000    -999.25     9.4762     9.4762   137.1038     3.0000    -999.25    62.6040     4.7906     4.3108     9.0575  1521.3660     0.8034    -999.25     0.0000     0.0001     0.0100 14340.2324     1.9635     4.7906    22.9498    25.1555     1.0000     1.0000 -1449.7760     0.0000     0.0001    19.0000
  1521.4090  4377.8203 4377820.0000    -999.25     9.4786     9.4786   136.9042     3.0000    -999.25    62.2628     4.8451     4.3685     9.3482  1521.4089     0.8011    -999.25     0.0000     0.0001     0.0100 14362.9268     1.9663     4.8451    23.4829    25.0952     1.0000     1.0000 -1449.8190     0.0000     0.0001    19.0000
  1521.5184  4410.4673 4406245.5000    -999.25     9.4848     9.4848   136.3963     3.0000    -999.25    61.3949     4.9839     4.5153    10.0878  1521.5184     0.7951    -999.25     0.0000     0.0001     0.0100 14456.1865     1.9737     4.9839    24.8390    24.9419     1.0000     1.0000 -1449.9283     0.0000     0.0001    19.0000
  1521.5614  4417.4185 4417418.5000    -999.25     9.4864     9.4864   136.1967     3.0000    -999.25    60.9756     5.0619     4.6001    10.2287  1521.5614     0.7872    -999.25     0.0000     0.0001     0.0100 14492.8428     1.9739     5.0619    25.6387    24.8678     1.0000     1.0000 -1449.9713     0.0000     0.0001    19.0000
  1521.6708  4419.2026 4402691.5000    -999.25     9.4906     9.4906   136.1798     3.0000    -999.25    59.9086     5.2606     4.8156    10.5872  1521.6708     0.7671    -999.25     0.0000     0.0001     0.0100 14444.5264     1.9744     5.2606    27.6734    24.6795     1.0000     1.0000 -1450.0808     0.0000     0.0001    19.0000
  1521.7138  4396.9033 4396903.0000    -999.25     9.4924     9.4924   136.1732     3.0000    -999.25    59.6246     5.3772     4.9227    10.7200  1521.7137     0.7614    -999.25     0.0000     0.0001     0.0100 14425.5352     1.9644     5.3772    28.9494    24.6008     1.0000     1.0000 -1450.1238     0.0000     0.0001    19.0000
  1521.8232  4316.4009 4293171.0000    -999.25     9.4968     9.4968   136.9058     3.0000    -999.25    58.9020     5.6741     5.1951    11.0578  1521.8232     0.7468    -999.25     0.0000     0.0001     0.0100 14085.2061     1.9388     5.6741    32.1960    24.4007     1.0000     1.0000 -1450.2332     0.0000     0.0001    19.0000
  1521.8662  4252.3984 4252398.5000    -999.25     9.4957     9.4957   137.1937     3.0000    -999.25    58.8715     5.8488     5.3399    11.1478  1521.8662     0.7494    -999.25     0.0000     0.0001     0.0100 13951.4385     1.9140     5.8488    34.2863    24.3018     1.0000     1.0000 -1450.2761     0.0000     0.0001    19.0000
  1521.9756  4072.2151 4052948.2500    -999.25     9.4927     9.4927   138.5547     3.0000    -999.25    58.7939     6.2932     5.7084    11.3768  1521.9756     0.7560    -999.25     0.0000     0.0001     0.0100 13297.0742     1.8511     6.2932    39.6045    24.0504     1.0000     1.0000 -1450.3856     0.0000     0.0001    19.0000
  1522.0186  3974.5537 3974553.7500    -999.25     9.4902     9.4902   139.0896     3.0000    -999.25    58.7706     6.5432     5.9309    11.8645  1522.0186     0.7681    -999.25     0.0000     0.0001     0.0100 13039.8750     1.8137     6.5432    42.9718    23.9420     1.0000     1.0000 -1450.4286     0.0000     0.0001    19.0000
  1522.1280  3721.9421 3715031.2500    -999.25     9.4838     9.4838   140.7335     3.0000    -999.25    58.7112     7.1791     6.4972    13.1052  1522.1279     0.7989    -999.25     0.0000     0.0001     0.0100 12188.4238     1.7185     7.1791    51.5389    23.6664     1.0000     1.0000 -1450.5380     0.0000     0.0001    19.0000
  1522.1710  3613.0254 3613025.2500    -999.25     9.4820     9.4820   141.3796     3.0000    -999.25    58.0795     7.5159     6.8494    14.7301  1522.1709     0.8162    -999.25     0.0000     0.0001     0.0100 11853.7578     1.6759     7.5159    56.7777    23.5568     1.0000     1.0000 -1450.5809     0.0000     0.0001    19.0000
  1522.2804  3342.6602 3349903.2500    -999.25     9.4773     9.4773   142.9250     3.0000    -999.25    56.4723     8.3729     7.7456    18.8643  1522.2804     0.8602    -999.25     0.0000     0.0001     0.0100 10990.4961     1.5674     8.3729    70.1063    23.2779     1.0000     1.0000 -1450.6904     0.0000     0.0001    19.0000
  1522.3235  3246.2417 3246241.7500    -999.25     9.4768     9.4768   143.5338     3.0000    -999.25    54.6547     8.7956     8.2703    21.6005  1522.3235     0.8731    -999.25     0.0000     0.0001     0.0100 10650.3994     1.5287     8.7956    77.8155    23.1667     1.0000     1.0000 -1450.7335     0.0000     0.0001    19.0000
  1522.4328  3013.9148 3029969.2500    -999.25     9.4757     9.4757   144.6658     3.0000    -999.25    50.0454     9.8674     9.6009    28.5393  1522.4327     0.9058    -999.25     0.0000     0.0001     0.0100  9940.8438     1.4305     9.8674    97.3658    22.8849     1.0000     1.0000 -1450.8428     0.0000     0.0001    19.0000
  1522.4758  2944.8848 2944884.7500    -999.25     9.4763     9.4763   145.1111     3.0000    -999.25    47.0692    10.3785    10.2973    31.5579  1522.4757     0.9054    -999.25     0.0000     0.0001     0.0100  9661.6953     1.4020    10.3785   108.3776    22.7717     1.0000     1.0000 -1450.8857     0.0000     0.0001    19.0000
  1522.5852  2778.9548 2795656.2500    -999.25     9.4777     9.4777   145.8336     3.0000    -999.25    39.4973    11.6788    12.0689    39.2379  1522.5852     0.9044    -999.25     0.0000     0.0001     0.0100  9172.1006     1.3296    11.6788   136.3939    22.4837     1.0000     1.0000 -1450.9952     0.0000     0.0001    19.0000
  1522.6283  2736.8650 2736865.0000    -999.25     9.4801     9.4801   146.1183     3.0000    -999.25    36.2495    12.3161    12.8996    41.8286  1522.6283     0.8949    -999.25     0.0000     0.0001     0.0100  8979.2158     1.3120    12.3161   152.7160    22.3734     1.0000     1.0000 -1451.0383     0.0000     0.0001    19.0000
  1522.7376  2634.2776 2646989.2500    -999.25     9.4862     9.4862   146.6496     3.0000    -999.25    28.0131    13.9323    15.0062    48.3987  1522.7375     0.8708    -999.25     0.0000     0.0001     0.0100  8684.3486     1.2674    13.9323   194.1084    22.0936     1.0000     1.0000 -1451.1476     0.0000     0.0001    19.0000
  1522.7806  2611.6311 2611631.0000    -999.25     9.4890     9.4890   146.8586     3.0000    -999.25    25.3069    14.7487    15.9129    50.1697  1522.7805     0.8622    -999.25     0.0000     0.0001     0.0100  8568.3438     1.2583    14.7487   219.2210    21.9935     1.0000     1.0000 -1451.1906     0.0000     0.0001    19.0000
