~Version ---------------------------------------------------
VERS. 2.0 : CWLS log ASCII Standard -VERSION 2.0
WRAP.  NO : 
~Well ------------------------------------------------------
STRT.m                                                   1260.0 : 
STOP.m                                                1659.7452 : 
STEP.m                                                   0.1524 : 
NULL.                                                   -999.25 : 
COMP.                                                           : COMPANY
WELL.                                                    Well-6 : WELL
FLD .                                                           : FIELD
LOC .                                                           : LOCATION
SRVC.                                                           : SERVICE COMPANY
DATE. 2021-01-20 14:34:00   : Log Export Date {yyyy-MM-dd HH:mm : ss}
PROV.                                                           : PROVINCE
UWI .                                                    Well-6 : UNIQUE WELL ID
API .                                                           : API NUMBER
~Curve Information -----------------------------------------
DEPTH             .m        : DEPTH
ACOUSTICIMPEDANCE1.kPa.s/m  : ACOUSTICIMPEDANCE1
AI                .kPa.s/m  : AI
AVG_PIGN          .m3/m3    : AVG_PIGN
CALI              .in       : CALI
CALI[DERIVED]1    .in       : CALI[DERIVED]1
DT                .us/ft    : DT
FACIES            ._        : FACIES
FLD1              ._        : FLD1
GR                .gAPI     : GR
LLD               .ohm.m    : LLD
LLS               .ohm.m    : LLS
LL3               .ohm.m    : LL3
DEPTH_1           .m        : DEPTH_1
NPHI              .m3/m3    : NPHI
ONE-WAYTIME1      .ms       : ONE-WAYTIME1
PERF_INT          ._        : PERF_INT
PERMEABILITY      .mD       : PERMEABILITY
PHIT              .m3/m3    : PHIT
PIGE              .m3/m3    : PIGE
PIGN              .m3/m3    : PIGN
PIGN_MODELLING    .m3/m3    : PIGN_MODELLING
PIMP              .kPa.s/m  : PIMP
RHOB              .g/cm3    : RHOB
LLD_1             .ohm.m    : LLD_1
RT_MODELLING      .ohm.m    : RT_MODELLING
RT_POWER          .ohm.m    : RT_POWER
SP                .mV       : SP
SUWI              ._        : SUWI
SUWI_MODELLING    ._        : SUWI_MODELLING
SXWI              ._        : SXWI
TDVSS             .m        : TDVSS
VCL               .%        : VCL
WATER_VOL         ._        : WATER_VOL
ZLT               ._        : ZLT
~Params ----------------------------------------------------
~Other -----------------------------------------------------
~ASCII -----------------------------------------------------
# ...
  1445.6232  5286.3027 5286858.0000    -999.25     9.4544     9.4544   121.5146     0.0000     0.0000    51.6109     2.6137     2.6546     3.1493  1445.6232     0.5166  -660.0025    -999.25     0.0181     0.0383     0.0267     0.0267     0.0267 17345.3340     2.1075     2.6131     2.6137     6.8313    30.5888     1.0000     1.0000     1.0000 -1367.9232    12.5540     0.0267     6.0000
  1445.6668  5165.1919 5165192.0000    -999.25     9.5303     9.5303   122.4730     0.0000     0.0000    50.8870     2.5678     2.5888     3.0820  1445.6667     0.5282  -660.0236    -999.25     0.0129     0.0295     0.0203     0.0203     0.0219 16946.1680     2.0754     2.5673     2.5678     6.5989    30.7808     1.0000     1.0000     1.0000 -1367.9668     9.9981     0.0203     6.0000
  1445.7756  4863.8765 4883190.5000    -999.25     9.7196     9.7196   125.0495     0.0000     0.0000    49.0806     2.4534     2.4248     2.9143  1445.7756     0.5571  -660.0760    -999.25     0.0000     0.0075     0.0041     0.0041     0.0100 16020.9668     1.9955     2.4530     2.4534     6.0190    31.2597     1.0000     1.0000     1.0000 -1368.0756     3.6200     0.0041     6.0000
  1445.8192  4770.1826 4770182.5000    -999.25     9.8094     9.8094   126.0820     0.0000     0.0000    48.8996     2.4245     2.3715     2.8462  1445.8192     0.5631  -660.0971    -999.25     0.0000     0.0056     0.0030     0.0030     0.0100 15650.2061     1.9732     2.4241     2.4245     5.8803    31.5673     1.0000     1.0000     1.0000 -1368.1191     2.8046     0.0030     6.0000
  1445.9280  4593.6616 4625282.0000    -999.25    10.0335    10.0335   127.2378     0.0000     0.0000    48.4480     2.3525     2.2384     2.6764  1445.9280     0.5780  -660.1496    -999.25     0.0000     0.0010     0.0003     0.0003     0.0100 15174.8096     1.9176     2.3522     2.3525     5.5341    32.3347     1.0000     1.0000     1.0000 -1368.2280     0.7700     0.0003     6.0000
  1445.9716  4567.2148 4567215.0000    -999.25    10.1090    10.1090   127.7010     0.0000     0.0000    48.6038     2.3413     2.2109     2.6068  1445.9716     0.5775  -660.1706    -999.25     0.0000     0.0008     0.0002     0.0002     0.0100 14984.3018     1.9135     2.3411     2.3413     5.4818    32.6671     1.0000     1.0000     1.0000 -1368.2716     0.6556     0.0002     6.0000
  1446.0804  4612.3662 4644453.0000    -999.25    10.2972    10.2972   125.7749     0.0000     0.0000    48.9926     2.3133     2.1422     2.4331  1446.0804     0.5763  -660.2231    -999.25     0.0000     0.0005     0.0001     0.0001     0.0100 15237.7070     1.9033     2.3132     2.3133     5.3514    33.4967     1.0000     1.0000     1.0000 -1368.3804     0.3700     0.0001     6.0000
  1446.1240  4675.4048 4675405.0000    -999.25    10.3053    10.3053   125.0030     0.0000     0.0000    49.2397     2.3137     2.1451     2.3886  1446.1240     0.5734  -660.2441    -999.25     0.0000     0.0009     0.0003     0.0003     0.0100 15339.2549     1.9175     2.3137     2.3137     5.3534    33.7886     1.0000     1.0000     1.0000 -1368.4240     0.7428     0.0003     6.0000
  1446.2328  4971.6763 4995742.0000    -999.25    10.3257    10.3257   119.7221     0.0000     0.0000    49.8562     2.3149     2.1523     2.2773  1446.2328     0.5662  -660.2966    -999.25     0.0000     0.0021     0.0006     0.0006     0.0100 16390.2305     1.9528     2.3149     2.3149     5.3585    34.5172     1.0000     1.0000     1.0000 -1368.5328     1.6730     0.0006     6.0000
  1446.2765  5124.4072 5124407.0000    -999.25    10.2834    10.2834   117.6010     0.0000     0.0000    50.0514     2.3186     2.1808     2.2919  1446.2765     0.5638  -660.3177    -999.25     0.0000     0.0041     0.0011     0.0011     0.0100 16812.3594     1.9772     2.3187     2.3186     5.3760    34.7568     1.0000     1.0000     1.0000 -1368.5765     3.2621     0.0011     6.0000
  1446.3852  5626.7476 5638633.0000    -999.25    10.1779    10.1779   110.3803     0.0000     0.0000    50.5368     2.3280     2.2518     2.3279  1446.3851     0.5580  -660.3702    -999.25     0.0000     0.0092     0.0025     0.0025     0.0100 18499.4531     2.0377     2.3280     2.3280     5.4195    35.3529     1.0000     1.0000     1.0000 -1368.6852     7.2150     0.0025     6.0000
  1446.4288  5844.8911 5844891.0000    -999.25    10.1097    10.1097   107.4840     0.0000     0.0000    50.8550     2.3302     2.2923     2.4006  1446.4287     0.5560  -660.3912    -999.25     0.0001     0.0131     0.0041     0.0041     0.0100 19176.1523     2.0611     2.3302     2.3302     5.4297    35.5260     1.0000     1.0000     1.0000 -1368.7288     9.7984     0.0041     6.0000
  1446.5376  6378.5688 6371922.0000    -999.25     9.9394     9.9394   101.2885     0.0000     0.0000    51.6489     2.3356     2.3933     2.5818  1446.5376     0.5510  -660.4437    -999.25     0.0004     0.0230     0.0080     0.0080     0.0100 20905.2578     2.1197     2.3356     2.3356     5.4549    35.9581     1.0000     1.0000     1.0000 -1368.8376    16.2450     0.0080     6.0000
  1446.5813  6583.6064 6583606.5000    -999.25     9.8561     9.8561    98.8000     0.0000     0.0000    51.9998     2.3374     2.4291     2.6820  1446.5813     0.5480  -660.4648    -999.25     0.0023     0.0284     0.0116     0.0116     0.0130 21599.7598     2.1341     2.3374     2.3374     5.4635    36.0542     1.0000     1.0000     1.0000 -1368.8813    18.3139     0.0116     6.0000
  1446.6900  6837.1362 6815869.0000    -999.25     9.6487     9.6487    96.7316     0.0000     0.0000    52.8728     2.3420     2.5181     2.9312  1446.6899     0.5404  -660.5172    -999.25     0.0072     0.0420     0.0204     0.0204     0.0204 22361.7754     2.1698     2.3420     2.3420     5.4850    36.2930     1.0000     1.0000     1.0000 -1368.9900    23.4600     0.0204     6.0000
  1446.7336  6909.0303 6909030.5000    -999.25     9.5806     9.5806    95.9020     0.0000     0.0000    53.0871     2.3493     2.5369     2.9980  1446.7335     0.5362  -660.5383    -999.25     0.0151     0.0459     0.0238     0.0238     0.0238 22667.4219     2.1739     2.3494     2.3493     5.5194    36.3323     1.0000     1.0000     1.0000 -1369.0336    23.9569     0.0238     6.0000
  1446.8424  6757.3071 6746813.5000    -999.25     9.4107     9.4107    98.5068     0.0000     0.0000    53.6217     2.3675     2.5838     3.1645  1446.8424     0.5256  -660.5908    -999.25     0.0349     0.0558     0.0325     0.0325     0.0325 22135.2129     2.1839     2.3677     2.3675     5.6053    36.4302     1.0000     1.0000     1.0000 -1369.1423    25.1970     0.0325     6.0000
  1446.8861  6681.6577 6681658.0000    -999.25     9.4002     9.4002    99.5530     0.0000     0.0000    53.2853     2.3858     2.5856     3.1768  1446.8861     0.5212  -660.6118    -999.25     0.0499     0.0581     0.0354     0.0354     0.0354 21921.4492     2.1823     2.3859     2.3858     5.6929    36.4565     1.0000     1.0000     1.0000 -1369.1860    24.7090     0.0354     6.0000
  1446.9948  6367.7285 6371154.5000    -999.25     9.3743     9.3743   104.2807     0.0000     0.0000    52.4484     2.4313     2.5899     3.2074  1446.9948     0.5103  -660.6643    -999.25     0.0873     0.0640     0.0424     0.0424     0.0424 20902.7383     2.1786     2.4315     2.4313     5.9110    36.5217     1.0000     1.0000     1.0000 -1369.2948    23.4950     0.0424     6.0000
  1447.0384  6246.6104 6246610.5000    -999.25     9.3795     9.3795   106.1770     0.0000     0.0000    51.7038     2.4597     2.5870     3.1713  1447.0383     0.5070  -660.6853    -999.25     0.1055     0.0655     0.0445     0.0445     0.0445 20494.1289     2.1760     2.4600     2.4597     6.0523    36.5980     1.0000     1.0000     1.0000 -1369.3384    22.8516     0.0445     6.0000
  1447.1472  5990.2100 5994865.0000    -999.25     9.3926     9.3926   110.3948     0.0000     0.0000    49.8457     2.5308     2.5799     3.0812  1447.1472     0.4989  -660.7378    -999.25     0.1509     0.0692     0.0496     0.0496     0.0496 19668.1934     2.1696     2.5311     2.5308     6.4049    36.7885     1.0000     1.0000     1.0000 -1369.4471    21.2460     0.0496     6.0000
