~Version ---------------------------------------------------
VERS. 2.0 : CWLS log ASCII Standard -VERSION 2.0
WRAP.  NO : 
~Well ------------------------------------------------------
STRT.m                                                   1260.0 : 
STOP.m                                                1587.9648 : 
STEP.m                                                   0.1524 : 
NULL.                                                   -999.25 : 
COMP.                                                           : COMPANY
WELL.                                                    Well-5 : WELL
FLD .                                                           : FIELD
LOC .                                                           : LOCATION
SRVC.                                                           : SERVICE COMPANY
DATE. 2021-01-20 14:34:00   : Log Export Date {yyyy-MM-dd HH:mm : ss}
PROV.                                                           : PROVINCE
UWI .                                                    Well-5 : UNIQUE WELL ID
API .                                                           : API NUMBER
~Curve Information -----------------------------------------
DEPTH             .m        : DEPTH
ACOUSTICIMPEDANCE1.kPa.s/m  : ACOUSTICIMPEDANCE1
AI                .kPa.s/m  : AI
AVG_PIGN          .m3/m3    : AVG_PIGN
CALI              .in       : CALI
CALI[DERIVED]1    .in       : CALI[DERIVED]1
DT                .us/ft    : DT
FACIES            ._        : FACIES
FLD1              ._        : FLD1
GR                .gAPI     : GR
LLD               .ohm.m    : LLD
LLS               .ohm.m    : LLS
LL3               .ohm.m    : LL3
DEPTH_1           .m        : DEPTH_1
NPHI              .m3/m3    : NPHI
PERF_INT          ._        : PERF_INT
PERMEABILITY      .mD       : PERMEABILITY
PIGN              .m3/m3    : PIGN
PIGN_MODELLING    .m3/m3    : PIGN_MODELLING
PIMP              .kPa.s/m  : PIMP
RHOB              .g/cm3    : RHOB
RT_MODELLING      .ohm.m    : RT_MODELLING
RT_POWER          .ohm.m    : RT_POWER
SP                .mV       : SP
SUWI              ._        : SUWI
SUWI_MODELLING    ._        : SUWI_MODELLING
TDVSS             .m        : TDVSS
VCL               .%        : VCL
WATER_VOL         ._        : WATER_VOL
ZLT               ._        : ZLT
~Params ----------------------------------------------------
~Other -----------------------------------------------------
~ASCII -----------------------------------------------------
# ...
  1477.1700  5866.5752 5864620.0000    -999.25     9.5796     9.5796   122.3278     0.0000    -999.25    88.6805     1.9482     1.9776     2.5266  1477.1700     0.6005    -999.25     0.0100     0.0208     0.0208 19240.8789     2.3545     1.9482     3.7954    27.5854     1.0000     1.0000 -1405.5800    77.0840     0.0208    14.0000
  1477.2130  5853.1582 5853158.5000    -999.25     9.5806     9.5806   122.5727     0.0000    -999.25    88.6489     1.9655     1.9903     2.5315  1477.2130     0.6032    -999.25     0.0101     0.0205     0.0205 19203.2754     2.3538     1.9655     3.8640    27.5703     1.0000     1.0000 -1405.6229    77.4288     0.0205    14.0000
  1477.3224  5829.8247 5830040.0000    -999.25     9.5829     9.5829   122.9725     0.0000    -999.25    88.5686     2.0096     2.0224     2.5440  1477.3224     0.6101    -999.25     0.0104     0.0197     0.0197 19127.4277     2.3521     2.0096     4.0383    27.5320     1.0000     1.0000 -1405.7324    78.3060     0.0197    14.0000
  1477.3654  5820.9531 5820953.0000    -999.25     9.5818     9.5818   123.1296     0.0000    -999.25    88.4770     2.0223     2.0329     2.5495  1477.3654     0.6139    -999.25     0.0106     0.0193     0.0193 19097.6152     2.3515     2.0223     4.0903    27.5220     1.0000     1.0000 -1405.7754    78.7735     0.0193    14.0000
  1477.4748  5811.6514 5813037.0000    -999.25     9.5791     9.5791   123.2495     0.0000    -999.25    88.2439     2.0549     2.0596     2.5637  1477.4747     0.6237    -999.25     0.0109     0.0182     0.0182 19071.6445     2.3500     2.0549     4.2225    27.4966     1.0000     1.0000 -1405.8848    79.9630     0.0182    14.0000
  1477.5178  5809.9253 5809925.5000    -999.25     9.5775     9.5775   123.2966     0.0000    -999.25    88.1264     2.0630     2.0662     2.5674  1477.5177     0.6254    -999.25     0.0110     0.0180     0.0180 19061.4355     2.3502     2.0630     4.2561    27.4917     1.0000     1.0000 -1405.9277    80.1577     0.0180    14.0000
  1477.6272  5812.5688 5814290.0000    -999.25     9.5735     9.5735   123.2673     0.0000    -999.25    87.8276     2.0836     2.0829     2.5769  1477.6272     0.6300    -999.25     0.0114     0.0176     0.0176 19075.7559     2.3507     2.0836     4.3416    27.4792     1.0000     1.0000 -1406.0372    80.6530     0.0176    14.0000
  1477.6703  5816.0093 5816009.5000    -999.25     9.5711     9.5711   123.2557     0.0000    -999.25    87.5131     2.0890     2.0858     2.5770  1477.6703     0.6275    -999.25     0.0115     0.0179     0.0179 19081.3965     2.3519     2.0890     4.3640    27.4731     1.0000     1.0000 -1406.0803    80.3122     0.0179    14.0000
  1477.7796  5836.5513 5837881.0000    -999.25     9.5653     9.5653   122.9770     0.0000    -999.25    86.7154     2.1026     2.0930     2.5772  1477.7795     0.6210    -999.25     0.0118     0.0187     0.0187 19153.1523     2.3549     2.1026     4.4208    27.4574     1.0000     1.0000 -1406.1896    79.4480     0.0187    14.0000
  1477.8226  5846.4854 5846485.5000    -999.25     9.5627     9.5627   122.8673     0.0000    -999.25    86.0442     2.1071     2.0939     2.5755  1477.8225     0.6171    -999.25     0.0119     0.0191     0.0191 19181.3828     2.3568     2.1071     4.4401    27.4449     1.0000     1.0000 -1406.2325    78.9726     0.0191    14.0000
  1477.9320  5878.7637 5879319.0000    -999.25     9.5561     9.5561   122.4439     0.0000    -999.25    84.3366     2.1188     2.0961     2.5711  1477.9320     0.6071    -999.25     0.0123     0.0202     0.0202 19289.1035     2.3616     2.1188     4.4892    27.4131     1.0000     1.0000 -1406.3420    77.7630     0.0202    14.0000
  1477.9751  5892.2539 5892254.0000    -999.25     9.5554     9.5554   122.2771     0.0000    -999.25    83.7833     2.1242     2.0974     2.5717  1477.9751     0.6081    -999.25     0.0124     0.0201     0.0201 19331.5410     2.3638     2.1242     4.5125    27.3912     1.0000     1.0000 -1406.3851    77.9115     0.0201    14.0000
  1478.0844  5935.8579 5935761.0000    -999.25     9.5535     9.5535   121.6646     0.0000    -999.25    82.3804     2.1381     2.1008     2.5732  1478.0844     0.6107    -999.25     0.0127     0.0197     0.0197 19474.2812     2.3694     2.1381     4.5714    27.3357     1.0000     1.0000 -1406.4944    78.2880     0.0197    14.0000
  1478.1274  5952.8774 5952877.5000    -999.25     9.5541     9.5541   121.4237     0.0000    -999.25    82.1001     2.1454     2.1046     2.5750  1478.1273     0.6159    -999.25     0.0129     0.0192     0.0192 19530.4375     2.3715     2.1454     4.6030    27.3006     1.0000     1.0000 -1406.5374    78.9344     0.0192    14.0000
  1478.2368  6000.1362 5999919.5000    -999.25     9.5557     9.5557   120.7372     0.0000    -999.25    81.3870     2.1641     2.1145     2.5795  1478.2368     0.6291    -999.25     0.0132     0.0177     0.0177 19684.7754     2.3768     2.1641     4.6835    27.2112     1.0000     1.0000 -1406.6467    80.5790     0.0177    15.0000
  1478.2799  6018.4521 6018452.5000    -999.25     9.5561     9.5561   120.4667     0.0000    -999.25    81.3725     2.1738     2.1223     2.5870  1478.2799     0.6325    -999.25     0.0133     0.0173     0.0173 19745.5781     2.3787     2.1738     4.7255    27.1611     1.0000     1.0000 -1406.6898    80.9648     0.0173    15.0000
  1478.3892  6074.9224 6075701.0000    -999.25     9.5570     9.5570   119.5905     0.0000    -999.25    81.3359     2.1982     2.1423     2.6058  1478.3892     0.6411    -999.25     0.0136     0.0164     0.0164 19933.4023     2.3835     2.1982     4.8322    27.0342     1.0000     1.0000 -1406.7992    81.9430     0.0164    15.0000
  1478.4322  6098.2236 6098223.5000    -999.25     9.5581     9.5581   119.2458     0.0000    -999.25    81.2965     2.2101     2.1555     2.6224  1478.4321     0.6382    -999.25     0.0138     0.0166     0.0166 20007.2949     2.3858     2.2101     4.8848    26.9686     1.0000     1.0000 -1406.8422    81.5660     0.0166    15.0000
  1478.5416  6180.2021 6183145.0000    -999.25     9.5607     9.5607   117.9458     0.0000    -999.25    81.1964     2.2402     2.1891     2.6646  1478.5416     0.6310    -999.25     0.0141     0.0171     0.0171 20285.9102     2.3915     2.2402     5.0186    26.8019     1.0000     1.0000 -1406.9515    80.6070     0.0171    15.0000
  1478.5846  6216.5239 6216523.5000    -999.25     9.5630     9.5630   117.4349     0.0000    -999.25    81.2216     2.2534     2.2083     2.6868  1478.5846     0.6244    -999.25     0.0142     0.0158     0.0158 20395.4199     2.3951     2.2534     5.0784    26.7214     1.0000     1.0000 -1406.9945    80.0131     0.0158    15.0000
  1478.6940  6336.2388 6340740.0000    -999.25     9.5687     9.5687   115.6609     0.0000    -999.25    81.2860     2.2870     2.2571     2.7434  1478.6940     0.6078    -999.25     0.0146     0.0127     0.0127 20802.9531     2.4044     2.2870     5.2304    26.5167     1.0000     1.0000 -1407.1040    78.5020     0.0127    15.0000
  1478.7370  6389.5635 6389563.5000    -999.25     9.5708     9.5708   114.9636     0.0000    -999.25    81.1639     2.2987     2.2809     2.7820  1478.7369     0.6030    -999.25     0.0147     0.0123     0.0123 20963.1348     2.4100     2.2987     5.2845    26.4303     1.0000     1.0000 -1407.1470    78.0985     0.0123    15.0000
  1478.8464  6538.6440 6541645.0000    -999.25     9.5763     9.5763   113.0087     0.0000    -999.25    80.8533     2.3286     2.3414     2.8802  1478.8464     0.5909    -999.25     0.0150     0.0110     0.0110 21462.0918     2.4243     2.3286     5.4222    26.2105     1.0000     1.0000 -1407.2563    77.0720     0.0110    15.0000
  1478.8894  6601.4214 6601421.0000    -999.25     9.5784     9.5784   112.2403     0.0000    -999.25    80.5906     2.3348     2.3641     2.9212  1478.8894     0.5914    -999.25     0.0152     0.0109     0.0109 21658.2070     2.4309     2.3348     5.4513    26.1323     1.0000     1.0000 -1407.2993    77.2678     0.0109    15.0000
  1478.9988  6737.1992 6733267.5000    -999.25     9.5838     9.5838   110.7418     0.0000    -999.25    79.9224     2.3506     2.4219     3.0255  1478.9988     0.5925    -999.25     0.0155     0.0106     0.0106 22090.7734     2.4478     2.3506     5.5252    25.9333     1.0000     1.0000 -1407.4088    77.7660     0.0106    15.0000
