~Version ---------------------------------------------------
VERS. 2.0 : CWLS log ASCII Standard -VERSION 2.0
WRAP.  NO : 
~Well ------------------------------------------------------
STRT.m                                                1171.1084 : 
STOP.m                                                  1705.88 : 
STEP.m                                                   0.1524 : 
NULL.                                                   -999.25 : 
COMP.                                                           : COMPANY
WELL.                                                   Well-12 : WELL
FLD .                                                           : FIELD
LOC .                                                           : LOCATION
SRVC.                                                           : SERVICE COMPANY
DATE. 2021-01-20 14:34:05   : Log Export Date {yyyy-MM-dd HH:mm : ss}
PROV.                                                           : PROVINCE
UWI .                                                   Well-12 : UNIQUE WELL ID
API .                                                           : API NUMBER
~Curve Information -----------------------------------------
DEPTH             .m        : DEPTH
ACOUSTICIMPEDANCE1.kPa.s/m  : ACOUSTICIMPEDANCE1
AI                .kPa.s/m  : AI
AVG_PIGN          .m3/m3    : AVG_PIGN
DT                .us/ft    : DT
FACIES            ._        : FACIES
FLD1              ._        : FLD1
GR                .gAPI     : GR
HDRS              .ohm.m    : HDRS
HMRS              .ohm.m    : HMRS
DEPTH_1           .m        : DEPTH_1
NPHI              .m3/m3    : NPHI
ONE-WAYTIME1      .ms       : ONE-WAYTIME1
PERF_INT          ._        : PERF_INT
PERMEABILITY      .mD       : PERMEABILITY
PIGN              .m3/m3    : PIGN
PIGN_MODELLING    .m3/m3    : PIGN_MODELLING
PIMP              .kPa.s/m  : PIMP
RHOB              .g/cm3    : RHOB
RT_MODELLING      .ohm.m    : RT_MODELLING
RT_POWER          .ohm.m    : RT_POWER
SP                .mV       : SP
SUWI              ._        : SUWI
SUWI_MODELLING    ._        : SUWI_MODELLING
SXWI              ._        : SXWI
TDVSS             .m        : TDVSS
TEMP              .K        : TEMP
VCL               .%        : VCL
WATER_VOL         ._        : WATER_VOL
ZLT               ._        : ZLT
~Params ----------------------------------------------------
~Other -----------------------------------------------------
~ASCII -----------------------------------------------------
# ...
  1414.9484  3723.8088 3723941.5000    -999.25   127.6641     3.0000    -999.25   126.1685     6.6090     6.5669  1414.9484     1.0738  -649.8603    -999.25     0.0172     0.0001     0.0100 12217.6562     1.5597     6.6090    43.6789    80.3124     1.0000     1.0000     1.0000 -1332.4684   158.7840    29.9050     0.0001     2.0000
  1415.1008  3037.9536 3037953.5000    -999.25   137.2825     3.0000    -999.25   112.4572    10.5279    10.3504  1415.1008     1.0481  -649.9346    -999.25     0.0231     0.0001     0.0100  9967.0391     1.3683    10.5279   110.8367    81.1530     1.0000     1.0000     1.0000 -1332.6207   158.7925    19.8470     0.0001     2.0000
  1415.2531  2601.9573 2601957.5000    -999.25   144.5164     3.0000    -999.25   103.7650    15.9475    15.2658  1415.2531     1.0914  -650.0089    -999.25     0.0355     0.0001     0.0100  8536.6055     1.2337    15.9475   254.3400    82.0016     1.0000     1.0000     1.0000 -1332.7731   158.8010    11.8837     0.0001     2.0000
  1415.4056  2439.6550 2439655.0000    -999.25   148.6110     3.0000    -999.25    99.6800    25.8266    23.6711  1415.4055     1.1710  -650.0833    -999.25     0.0610     0.0001     0.0100  8004.1177     1.1895    25.8266   667.0132    82.8580     1.0000     1.0000     1.0000 -1332.9255   158.8095     7.9620     0.0001     2.0000
  1415.5580  2426.2935 2426293.5000    -999.25   149.8942     3.0000    -999.25    98.4988    49.8545    41.6060  1415.5580     1.2062  -650.1576    -999.25     0.1046     0.0001     0.0100  7960.2808     1.1932    49.8545  2485.4712    83.5897     1.0000     1.0000     1.0000 -1333.0780   158.8180     8.5400     0.0001     2.0000
  1415.7104  2425.0647 2425064.7500    -999.25   150.1210     3.0000    -999.25    98.5819    56.3977    45.2695  1415.7103     1.1236  -650.2319    -999.25     0.1065     0.0001     0.0100  7956.2490     1.1944    56.3977  3180.7007    84.4226     1.0000     1.0000     1.0000 -1333.2303   158.8264    12.0860     0.0001     2.0000
  1415.8628  2432.3953 2432395.7500    -999.25   149.8941     3.0000    -999.25    99.2831    48.9303    38.9069  1415.8628     1.0201  -650.3062    -999.25     0.0779     0.0001     0.0100  7980.3018     1.1962    48.9303  2394.1743    85.2438     1.0000     1.0000     1.0000 -1333.3828   158.8349    15.4690     0.0001     2.0000
  1416.0152  2457.1692 2457169.0000    -999.25   149.3380     3.0000    -999.25   101.0028    40.8674    33.0262  1416.0151     0.9717  -650.3806    -999.25     0.0549     0.0001     0.0100  8061.5786     1.2039    40.8674  1670.1445    86.3069     1.0000     1.0000     1.0000 -1333.5352   158.8434    18.3230     0.0001     2.0000
  1416.1676  2577.2129 2577212.7500    -999.25   148.5319     3.0000    -999.25   104.6870    16.4058    14.7352  1416.1676     0.9682  -650.4549    -999.25     0.0247     0.0001     0.0100  8455.4229     1.2559    16.4058   269.1503    87.5360     1.0000     1.0000     1.0000 -1333.6876   158.8519    24.3090     0.0001     2.0000
  1416.3200  2901.6440 2901644.2500    -999.25   147.6287     3.0000    -999.25   111.5332     8.4066     7.9978  1416.3199     0.9447  -650.5292    -999.25     0.0130     0.0001     0.0100  9519.8301     1.4054     8.4066    70.6709    88.9223     1.0000     1.0000     1.0000 -1333.8400   158.8604    35.4210     0.0001     2.0000
  1416.4724  3330.8308 3330840.0000    -999.25   146.8898     3.0000    -999.25   122.4545     5.9632     5.7389  1416.4724     0.8969  -650.6035    -999.25     0.0067     0.0001     0.0100 10927.9531     1.6052     5.9632    35.5598    90.1548     1.0000     1.0000     1.0000 -1333.9924   158.8689    50.9640     0.0001     2.0000
  1416.6248  3892.8530 3892853.0000    -999.25   146.5726     3.0000    -999.25   136.8832     3.8413     3.5418  1416.6248     0.8095  -650.6779    -999.25     0.0017     0.0001     0.0100 12771.8271     1.8720     3.8413    14.7556    91.0724     1.0000     1.0000     1.0000 -1334.1448   158.8773    69.5410     0.0001     2.0000
  1416.7772  4483.9165 4483916.5000    -999.25   146.2238     0.0000    -999.25   152.3148     2.4995     2.3762  1416.7772     0.7253  -650.7522    -999.25     0.0001     0.0001     0.0100 14711.0127     2.1511     2.4995     6.2475    91.6878     1.0000     1.0000     1.0000 -1334.2971   158.8858    82.8950     0.0001     2.0000
  1416.9296  4750.9722 4750860.0000    -999.25   145.9212     0.0000    -999.25   165.6943     1.7902     1.8308  1416.9296     0.6721  -650.8265    -999.25     0.0012     0.0068     0.0100 15586.8096     2.2745     1.7902     3.2048    92.0473     1.0000     1.0000     1.0000 -1334.4496   158.8943    89.0360     0.0068     2.0000
  1417.0820  4861.0312 4861032.0000    -999.25   145.6710     0.0000    -999.25   175.3464     1.4465     1.5458  1417.0820     0.6586  -650.9009    -999.25     0.0044     0.0147     0.0147 15948.2676     2.3232     1.4465     2.0924    92.2330     1.0000     1.0000     1.0000 -1334.6019   158.9028    92.6590     0.0147     2.0000
  1417.2343  5078.0903 5078090.5000    -999.25   142.7917     0.0000    -999.25   181.1934     1.3240     1.4252  1417.2343     0.6488  -650.9752    -999.25     0.0060     0.0179     0.0179 16660.4004     2.3790     1.3240     1.7529    92.3125     1.0000     1.0000     1.0000 -1334.7543   158.9113    91.0360     0.0179     2.0000
  1417.3868  5501.8755 5501875.5000    -999.25   136.3598     0.0000    -999.25   183.6241     1.2641     1.3702  1417.3867     0.6376  -651.0495    -999.25     0.0057     0.0281     0.0281 18050.7734     2.4614     1.2641     1.5979    92.3719     1.0000     1.0000     1.0000 -1334.9067   158.9198    85.9710     0.0281     2.0000
  1417.5392  5972.2373 5972237.5000    -999.25   130.3004     0.0000    -999.25   182.7558     1.2420     1.3416  1417.5392     0.6516  -651.1238    -999.25     0.0027     0.0377     0.0377 19593.9551     2.5531     1.2420     1.5426    92.2991     1.0000     1.0000     1.0000 -1335.0592   158.9283    81.1240     0.0377     2.0000
  1417.6916  6168.1187 6168113.0000    -999.25   128.4207     0.0000    -999.25   178.9457     1.2313     1.3265  1417.6915     0.6546  -651.1982    -999.25     0.0029     0.0448     0.0448 20236.5898     2.5988     1.2313     1.5161    92.2085     1.0000     1.0000     1.0000 -1335.2115   158.9368    77.5950     0.0448     2.0000
  1417.8440  5937.7852 5937785.0000    -999.25   133.8335     0.0000    -999.25   173.6404     1.2249     1.3156  1417.8440     0.6159  -651.2725    -999.25     0.0046     0.0462     0.0462 19480.9219     2.6072     1.2249     1.5004    92.0188     1.0000     1.0000     1.0000 -1335.3640   158.9452    76.8910     0.0462     2.0000
  1417.9964  5379.5444 5379544.5000    -999.25   145.5345     0.0000    -999.25   169.5256     1.2374     1.3334  1417.9963     0.6013  -651.3468    -999.25     0.0062     0.0373     0.0373 17649.4238     2.5686     1.2374     1.5312    91.8594     1.0000     1.0000     1.0000 -1335.5164   158.9537    81.3680     0.0373     2.0000
  1418.1488  4808.8525 4808852.5000    -999.25   157.6528     0.0000    -999.25   168.9530     1.2252     1.3512  1418.1488     0.6249  -651.4211    -999.25     0.0075     0.0226     0.0226 15777.0752     2.4873     1.2252     1.5011    91.5737     1.0000     1.0000     1.0000 -1335.6688   158.9622    88.7070     0.0226     2.0000
  1418.3012  4667.6128 4667618.0000    -999.25   158.5770     0.0000    -999.25   172.0540     1.1847     1.2998  1418.3011     0.6464  -651.4955    -999.25     0.0078     0.0137     0.0137 15313.7061     2.4284     1.1847     1.4035    91.3165     1.0000     1.0000     1.0000 -1335.8212   158.9707    93.1490     0.0137     2.0000
  1418.4536  5059.9634 5059963.5000    -999.25   145.0220     0.0000    -999.25   176.8114     1.1707     1.2728  1418.4536     0.6249  -651.5698    -999.25     0.0091     0.0154     0.0154 16600.9297     2.4075     1.1707     1.3705    90.9366     1.0000     1.0000     1.0000 -1335.9736   158.9792    92.3060     0.0154     2.0000
  1418.6060  5644.4443 5644444.0000    -999.25   129.9888     0.0000    -999.25   180.4648     1.1948     1.2957  1418.6060     0.6190  -651.6441    -999.25     0.0096     0.0242     0.0242 18518.5176     2.4072     1.1948     1.4275    90.6274     1.0000     1.0000     1.0000 -1336.1260   158.9877    87.9060     0.0242     2.0000
