~Version ---------------------------------------------------
VERS. 2.0 : CWLS log ASCII Standard -VERSION 2.0
WRAP.  NO : 
~Well ------------------------------------------------------
STRT.m                                                1236.0668 : 
STOP.m                                                1579.8812 : 
STEP.m                                                   0.1524 : 
NULL.                                                   -999.25 : 
COMP.                                                           : COMPANY
WELL.                                                   Well-17 : WELL
FLD .                                                           : FIELD
LOC .                                                           : LOCATION
SRVC.                                                           : SERVICE COMPANY
DATE. 2021-01-20 14:34:08   : Log Export Date {yyyy-MM-dd HH:mm : ss}
PROV.                                                           : PROVINCE
UWI .                                                   Well-17 : UNIQUE WELL ID
API .                                                           : API NUMBER
~Curve Information -----------------------------------------
DEPTH             .m        : DEPTH
ACOUSTICIMPEDANCE1.kPa.s/m  : ACOUSTICIMPEDANCE1
AI                .kPa.s/m  : AI
AVG_PIGN          .m3/m3    : AVG_PIGN
CALI              .in       : CALI
NPHI              .m3/m3    : NPHI
DT                .us/ft    : DT
FACIES            ._        : FACIES
FLD1              ._        : FLD1
GR                .gAPI     : GR
M2R2              .ohm.m    : M2R2
LLS               .ohm.m    : LLS
LLD               .ohm.m    : LLD
DEPTH_1           .m        : DEPTH_1
NPHI_1            .m3/m3    : NPHI_1
PERF_INT          ._        : PERF_INT
PERMEABILITY      .mD       : PERMEABILITY
PHIT              .m3/m3    : PHIT
PIGN              .m3/m3    : PIGN
PIGN_MODELLING    .m3/m3    : PIGN_MODELLING
PIMP              .kPa.s/m  : PIMP
RHOB              .g/cm3    : RHOB
RT_MODELLING      .ohm.m    : RT_MODELLING
RT_POWER          .ohm.m    : RT_POWER
SP                .mV       : SP
SUWI              ._        : SUWI
SUWI_MODELLING    ._        : SUWI_MODELLING
SXWI              ._        : SXWI
TDVSS             .m        : TDVSS
VCL               .%        : VCL
WATER_VOL         ._        : WATER_VOL
RHOB_1            .g/cm3    : RHOB_1
ZLT               ._        : ZLT
~Params ----------------------------------------------------
~Other -----------------------------------------------------
~ASCII -----------------------------------------------------
# ...
  1554.5828  6884.6245 6884624.5000    -999.25     8.9778     0.5190   107.5389     0.0000    -999.25    94.6055     3.1962     3.0782     3.0926  1554.5829     0.5190    -999.25    -999.25     0.1616     0.0284     0.0284 22587.3516     2.4290     3.0926     9.5641   231.0245     1.0000     1.0000     1.0000 -1481.0929    85.8070     0.0284     2.4290    -999.25
  1554.7352  6586.5771 6586577.0000    -999.25     9.0572     0.5066   112.7305     0.0000    -999.25    95.8381     2.8203     2.7616     2.7769  1554.7352     0.5066    -999.25    -999.25     0.1735     0.0324     0.0324 21609.5039     2.4360     2.7769     7.7114   230.6924     1.0000     1.0000     1.0000 -1481.2452    83.8060     0.0324     2.4360    -999.25
  1554.8876  6456.0664 6456066.5000    -999.25     9.1800     0.4890   116.4488     0.0000    -999.25    96.3603     2.4426     2.4167     2.4324  1554.8877     0.4890    -999.25    -999.25     0.1863     0.0386     0.0386 21181.3203     2.4665     2.4324     5.9164   230.7046     1.0000     1.0000     1.0000 -1481.3976    80.7010     0.0386     2.4665    -999.25
  1555.0400  6783.7275 6783727.5000    -999.25     9.2143     0.4702   113.6931     0.0000    -999.25    93.6084     2.3599     2.3442     2.3616  1555.0400     0.4702    -999.25    -999.25     0.1870     0.0451     0.0451 22256.3242     2.5304     2.3616     5.5771   230.8377     1.0000     1.0000     1.0000 -1481.5500    77.4620     0.0451     2.5304    -999.25
  1555.1924  7327.8301 7327830.0000    -999.25     9.1153     0.4483   107.5884     0.0000    -999.25    87.7469     2.7200     2.6959     2.7193  1555.1924     0.4483    -999.25    -999.25     0.1779     0.0502     0.0502 24041.4375     2.5866     2.7193     7.3945   230.9213     1.0000     1.0000     1.0000 -1481.7024    74.8840     0.0502     2.5866    -999.25
  1555.3448  7675.4214 7675421.5000    -999.25     9.0038     0.4317   102.5549     0.0000    -999.25    81.8127     3.2122     3.1556     3.1883  1555.3448     0.4317    -999.25    -999.25     0.1746     0.0523     0.0523 25181.8301     2.5825     3.1883    10.1654   230.9430     1.0000     1.0000     1.0000 -1481.8549    73.8240     0.0523     2.5825    -999.25
  1555.4972  7563.5186 7563518.5000    -999.25     8.9545     0.4421   102.3349     0.0000    -999.25    80.2503     3.2256     3.1482     3.1828  1555.4972     0.4421    -999.25    -999.25     0.1773     0.0491     0.0491 24814.6934     2.5394     3.1828    10.1303   230.9618     1.0000     1.0000     1.0000 -1482.0072    75.4330     0.0491     2.5394    -999.25
  1555.6496  7226.3110 7226311.0000    -999.25     8.9393     0.4823   105.9647     0.0000    -999.25    84.0835     2.8795     2.8066     2.8352  1555.6497     0.4823    -999.25    -999.25     0.1730     0.0409     0.0409 23708.3711     2.5122     2.8352     8.0386   231.0029     1.0000     1.0000     1.0000 -1482.1597    79.5680     0.0409     2.5122    -999.25
  1555.8020  7067.0293 7067029.0000    -999.25     8.9300     0.5233   108.0688     0.0000    -999.25    89.5887     2.5676     2.5074     2.5300  1555.8020     0.5233    -999.25    -999.25     0.1650     0.0328     0.0328 23185.7910     2.5057     2.5300     6.4010   231.0707     1.0000     1.0000     1.0000 -1482.3120    83.5980     0.0328     2.5057    -999.25
  1555.9544  7192.4595 7192459.5000    -999.25     8.9008     0.5538   105.5298     0.0000    -999.25    93.7074     2.3258     2.2785     2.2968  1555.9545     0.5538    -999.25    -999.25     0.1621     0.0268     0.0268 23597.3086     2.4902     2.2968     5.2755   231.1833     1.0000     1.0000     1.0000 -1482.4645    86.6220     0.0268     2.4902    -999.25
  1556.1068  7411.5332 7411533.0000    -999.25     8.8652     0.5708   101.0361     0.0000    -999.25    97.0167     2.1156     2.0800     2.0943  1556.1068     0.5708    -999.25    -999.25     0.1675     0.0231     0.0231 24316.0527     2.4568     2.0943     4.3863   231.3328     1.0000     1.0000     1.0000 -1482.6168    88.4390     0.0231     2.4568    -999.25
  1556.2592  7319.5654 7319565.5000    -999.25     8.8768     0.5577   100.7095     0.0000    -999.25    99.9003     1.9761     1.9481     1.9591  1556.2593     0.5577    -999.25    -999.25     0.1838     0.0254     0.0254 24014.3223     2.4185     1.9591     3.8381   231.4717     1.0000     1.0000     1.0000 -1482.7693    87.2920     0.0254     2.4185    -999.25
  1556.4116  6993.8960 6993896.0000    -999.25     8.9196     0.5287   104.2995     0.0000    -999.25   100.9166     1.9474     1.9221     1.9321  1556.4116     0.5287    -999.25    -999.25     0.2001     0.0308     0.0308 22945.8535     2.3932     1.9321     3.7329   231.5530     1.0000     1.0000     1.0000 -1482.9216    84.5800     0.0308     2.3932    -999.25
  1556.5640  6614.7573 6614757.5000    -999.25     8.9296     0.5213   109.7113     0.0000    -999.25   100.0741     2.0545     2.0275     2.0381  1556.5641     0.5213    -999.25    -999.25     0.2002     0.0313     0.0313 21701.9590     2.3809     2.0381     4.1539   231.5028     1.0000     1.0000     1.0000 -1483.0741    84.3290     0.0313     2.3809    -999.25
  1556.7164  6335.1890 6335189.0000    -999.25     8.9055     0.5353   113.8614     0.0000    -999.25    98.9931     2.2461     2.2167     2.2284  1556.7164     0.5353    -999.25    -999.25     0.1893     0.0269     0.0269 20784.7402     2.3666     2.2284     4.9658   231.3125     1.0000     1.0000     1.0000 -1483.2264    86.5690     0.0269     2.3666    -999.25
  1556.8688  6184.1606 6184161.0000    -999.25     8.8856     0.5457   115.6386     0.0000    -999.25    98.7462     2.3573     2.3293     2.3400  1556.8689     0.5457    -999.25    -999.25     0.1841     0.0235     0.0235 20289.2422     2.3462     2.3400     5.4756   231.1312     1.0000     1.0000     1.0000 -1483.3788    88.2700     0.0235     2.3462    -999.25
  1557.0212  6052.0171 6052017.0000    -999.25     8.8850     0.5451   118.0029     0.0000    -999.25    98.0659     2.3182     2.2946     2.3032  1557.0212     0.5451    -999.25    -999.25     0.1864     0.0238     0.0238 19855.6992     2.3430     2.3032     5.3048   231.1304     1.0000     1.0000     1.0000 -1483.5312    88.0940     0.0238     2.3430    -999.25
  1557.1736  6153.3335 6153333.5000    -999.25     8.9045     0.5389   118.4871     0.0000    -999.25    94.6283     2.2736     2.2529     2.2596  1557.1736     0.5389    -999.25    -999.25     0.1839     0.0272     0.0272 20188.1016     2.3920     2.2596     5.1056   231.3115     1.0000     1.0000     1.0000 -1483.6836    86.3940     0.0272     2.3920    -999.25
  1557.3260  6646.7158 6646716.0000    -999.25     8.9452     0.5283   113.7952     0.0000    -999.25    88.8865     2.3997     2.3763     2.3823  1557.3260     0.5283    -999.25    -999.25     0.1717     0.0320     0.0320 21806.8105     2.4815     2.3823     5.6755   231.5620     1.0000     1.0000     1.0000 -1483.8361    84.0000     0.0320     2.4815    -999.25
  1557.4784  7072.0630 7072063.0000    -999.25     9.0336     0.5187   109.5964     0.0000    -999.25    83.4928     2.6518     2.6167     2.6227  1557.4784     0.5187    -999.25    -999.25     0.1599     0.0352     0.0352 23202.3066     2.5429     2.6227     6.8785   231.8103     1.0000     1.0000     1.0000 -1483.9884    82.4180     0.0352     2.5429    -999.25
  1557.6308  7118.9766 7118976.5000    -999.25     9.2430     0.5161   109.3632     0.0000    -999.25    81.2311     2.6449     2.6036     2.6082  1557.6309     0.5161    -999.25    -999.25     0.1602     0.0364     0.0364 23356.2227     2.5543     2.6082     6.8029   232.0909     1.0000     1.0000     1.0000 -1484.1409    81.8110     0.0364     2.5543    -999.25
  1557.7832  7147.0767 7147076.5000    -999.25     9.4630     0.5218   110.0232     0.0000    -999.25    83.1626     2.3437     2.3064     2.3091  1557.7832     0.5218    -999.25    -999.25     0.1638     0.0373     0.0373 23448.4141     2.5799     2.3091     5.3319   232.4094     1.0000     1.0000     1.0000 -1484.2932    81.3300     0.0373     2.5799    -999.25
