~Version ---------------------------------------------------
VERS. 2.0 : CWLS log ASCII Standard -VERSION 2.0
WRAP.  NO : 
~Well ------------------------------------------------------
STRT.m                                                1295.9144 : 
STOP.m                                                1639.8812 : 
STEP.m                                                   0.1524 : 
NULL.                                                   -999.25 : 
COMP.                                                           : COMPANY
WELL.                                                    Well-1 : WELL
FLD .                                                           : FIELD
LOC .                                                           : LOCATION
SRVC.                                                           : SERVICE COMPANY
DATE. 2021-01-20 14:33:59   : Log Export Date {yyyy-MM-dd HH:mm : ss}
PROV.                                                           : PROVINCE
UWI .                                                    Well-1 : UNIQUE WELL ID
API .                                                           : API NUMBER
~Curve Information -----------------------------------------
DEPTH             .m        : DEPTH
ACOUSTICIMPEDANCE1.kPa.s/m  : ACOUSTICIMPEDANCE1
AI                .kPa.s/m  : AI
AVG_PIGN          .m3/m3    : AVG_PIGN
CALI              .in       : CALI
CALI[DERIVED]1    .in       : CALI[DERIVED]1
DFL               .ohm.m    : DFL
DT                .us/ft    : DT
FACIES            ._        : FACIES
FLD1              ._        : FLD1
GR                .gAPI     : GR
HDRS              .ohm.m    : HDRS
HMRS              .ohm.m    : HMRS
DEPTH_1           .m        : DEPTH_1
NPHI              .m3/m3    : NPHI
ONE-WAYTIME1      .ms       : ONE-WAYTIME1
PERF_INT          ._        : PERF_INT
PERMEABILITY      .mD       : PERMEABILITY
PIGN              .m3/m3    : PIGN
PIGN_MODELLING    .m3/m3    : PIGN_MODELLING
PIMP              .kPa.s/m  : PIMP
RHOB              .g/cm3    : RHOB
RT_MODELLING      .ohm.m    : RT_MODELLING
RT_POWER          .ohm.m    : RT_POWER
SP                .mV       : SP
SUWI              ._        : SUWI
SUWI_MODELLING    ._        : SUWI_MODELLING
TDVSS             .m        : TDVSS
VCL               .%        : VCL
WATER_VOL         ._        : WATER_VOL
ZLT               ._        : ZLT
~Params ----------------------------------------------------
~Other -----------------------------------------------------
~ASCII -----------------------------------------------------
# ...
  1317.8600  5335.9009 5335901.0000    -999.25     9.1906     9.1906     2.1595   130.6209     0.0000    -999.25    64.0946     1.6027     1.6075  1317.8600     0.6468  -597.9775    -999.25    -999.25     0.0201     0.0201 17506.2363     2.2867     2.1595     4.6634   266.4047     1.0000     1.0000 -1239.3700    77.9200     0.0201     0.0000
  1318.0124  5240.8838 5240884.0000    -999.25     9.1698     9.1698     2.1081   132.8669     0.0000    -999.25    61.9577     1.5790     1.5766  1318.0123     0.6550  -598.0511    -999.25    -999.25     0.0198     0.0198 17194.5000     2.2846     2.1081     4.4442   266.6238     1.0000     1.0000 -1239.5223    78.2680     0.0198     0.0000
  1318.1648  5131.8501 5131850.0000    -999.25     9.1637     9.1637     2.0144   134.9070     0.0000    -999.25    61.8013     1.5426     1.5408  1318.1648     0.6572  -598.1246    -999.25    -999.25     0.0198     0.0198 16836.7773     2.2714     2.0144     4.0577   266.7243     1.0000     1.0000 -1239.6748    78.1770     0.0198     0.0000
  1318.3172  5021.0527 5021053.0000    -999.25     9.1869     9.1869     1.9600   136.8350     0.0000    -999.25    62.8251     1.4595     1.4557  1318.3171     0.6556  -598.1981    -999.25    -999.25     0.0204     0.0204 16473.2715     2.2541     1.9600     3.8417   266.9671     1.0000     1.0000 -1239.8271    77.6060     0.0204     0.0000
  1318.4696  4907.9604 4907960.5000    -999.25     9.2187     9.2187     1.8083   138.5919     0.0000    -999.25    64.0288     1.2791     1.3011  1318.4696     0.6495  -598.2717    -999.25    -999.25     0.0215     0.0215 16102.2334     2.2316     1.8083     3.2701   267.4120     1.0000     1.0000 -1239.9796    76.3230     0.0215     0.0000
  1318.6220  4827.7319 4827732.0000    -999.25     9.2317     9.2317     1.4735   139.7877     0.0000    -999.25    64.9786     1.0859     1.1065  1318.6219     0.6372  -598.3452    -999.25    -999.25     0.0230     0.0230 15839.0156     2.2141     1.4735     2.1713   267.5522     1.0000     1.0000 -1240.1320    74.6880     0.0230     0.0000
  1318.7744  4779.4912 4779491.0000    -999.25     9.2336     9.2336     1.1582   140.4168     0.0000    -999.25    64.6136     0.9854     0.9873  1318.7744     0.6235  -598.4187    -999.25    -999.25     0.0242     0.0242 15680.7451     2.2018     1.1582     1.3414   267.7343     1.0000     1.0000 -1240.2844    73.3340     0.0242     0.0000
  1318.9268  4740.6719 4740672.0000    -999.25     9.2525     9.2525     1.0423   140.9076     0.0000    -999.25    62.9668     0.9652     0.9729  1318.9268     0.6139  -598.4922    -999.25    -999.25     0.0248     0.0248 15553.3848     2.1916     1.0423     1.0864   268.0133     1.0000     1.0000 -1240.4368    72.6790     0.0248     0.0000
  1319.0792  4748.7622 4748762.0000    -999.25     9.2857     9.2857     1.0641   140.9820     0.0000    -999.25    62.0871     0.9668     0.9783  1319.0792     0.6097  -598.5658    -999.25    -999.25     0.0251     0.0251 15579.9277     2.1965     1.0641     1.1323   267.9716     1.0000     1.0000 -1240.5892    72.3630     0.0251     0.0000
  1319.2316  4797.5874 4797587.0000    -999.25     9.3030     9.3030     1.0965   140.0307     0.0000    -999.25    62.2253     0.9658     0.9771  1319.2316     0.6075  -598.6393    -999.25    -999.25     0.0259     0.0259 15740.1152     2.2041     1.0965     1.2024   267.9899     1.0000     1.0000 -1240.7416    71.4720     0.0259     0.0000
  1319.3840  4868.4429 4868443.0000    -999.25     9.2917     9.2917     1.0985   138.3283     0.0000    -999.25    62.5525     0.9645     0.9788  1319.3840     0.5999  -598.7128    -999.25    -999.25     0.0277     0.0277 15972.5820     2.2095     1.0985     1.2067   268.0471     1.0000     1.0000 -1240.8940    69.5540     0.0277     0.0000
  1319.5364  4971.6997 4971700.0000    -999.25     9.2807     9.2807     1.1007   136.3223     0.0000    -999.25    63.0905     0.9792     0.9895  1319.5364     0.5836  -598.7864    -999.25    -999.25     0.0300     0.0300 16311.3516     2.2236     1.1007     1.2115   267.7496     1.0000     1.0000 -1241.0464    66.9650     0.0300     0.0000
  1319.6888  5020.1860 5020186.0000    -999.25     9.2803     9.2803     1.1240   134.8192     0.0000    -999.25    63.6150     1.0090     1.0248  1319.6888     0.5630  -598.8599    -999.25    -999.25     0.0320     0.0320 16470.4277     2.2205     1.1240     1.2634   267.5673     1.0000     1.0000 -1241.1987    64.7800     0.0320     0.0000
  1319.8412  4961.0488 4961049.0000    -999.25     9.2929     9.2929     1.1511   134.7687     0.0000    -999.25    64.4781     1.0447     1.0678  1319.8412     0.5466  -598.9335    -999.25    -999.25     0.0326     0.0326 16276.4072     2.1936     1.1511     1.3250   267.5634     1.0000     1.0000 -1241.3512    64.1710     0.0326     0.0000
  1319.9936  4865.1187 4865118.5000    -999.25     9.2993     9.2993     1.2252   136.3046     0.0000    -999.25    65.9016     1.1059     1.1225  1319.9935     0.5437  -599.0070    -999.25    -999.25     0.0317     0.0317 15961.6748     2.1756     1.2252     1.5011   267.3632     1.0000     1.0000 -1241.5035    65.1060     0.0317     0.0000
  1320.1460  4796.7310 4796731.0000    -999.25     9.3138     9.3138     1.3788   138.2193     0.0000    -999.25    67.4304     1.2428     1.2561  1320.1460     0.5529  -599.0805    -999.25    -999.25     0.0303     0.0303 15737.3066     2.1752     1.3788     1.9012   267.4308     1.0000     1.0000 -1241.6560    66.6300     0.0303     0.0000
  1320.2984  4814.0601 4814060.0000    -999.25     9.3592     9.3592     1.7703   139.0641     0.0000    -999.25    68.9936     1.4233     1.4333  1320.2983     0.5657  -599.1541    -999.25    -999.25     0.0292     0.0292 15794.1602     2.1964     1.7703     3.1339   267.7635     1.0000     1.0000 -1241.8084    67.8320     0.0292     0.0000
  1320.4508  4923.6582 4923658.0000    -999.25     9.4157     9.4157     2.0816   138.4101     0.0000    -999.25    70.2339     1.4452     1.4474  1320.4508     0.5733  -599.2275    -999.25    -999.25     0.0284     0.0284 16153.7334     2.2358     2.0816     4.3330   267.8930     1.0000     1.0000 -1241.9608    68.7610     0.0284     0.0000
  1320.6032  5085.1841 5085184.0000    -999.25     9.4319     9.4319     1.9317   136.6965     0.0000    -999.25    70.8689     1.2233     1.2425  1320.6031     0.5774  -599.3011    -999.25    -999.25     0.0276     0.0276 16683.6758     2.2806     1.9317     3.7314   268.2274     1.0000     1.0000 -1242.1132    69.5990     0.0276     0.0000
  1320.7556  5197.3721 5197372.0000    -999.25     9.3985     9.3985     1.4598   135.2888     0.0000    -999.25    71.2508     1.0128     1.0468  1320.7556     0.5811  -599.3746    -999.25    -999.25     0.0270     0.0270 17051.7461     2.3069     1.4598     2.1310   268.6329     1.0000     1.0000 -1242.2656    70.2720     0.0270     0.0000
  1320.9080  5203.2446 5203244.5000    -999.25     9.3897     9.3897     1.1371   135.2205     0.0000    -999.25    71.7212     0.9542     0.9866  1320.9080     0.5854  -599.4482    -999.25    -999.25     0.0269     0.0269 17071.0117     2.3084     1.1371     1.2930   268.7127     1.0000     1.0000 -1242.4180    70.3690     0.0269     0.0000
  1321.0604  5131.3823 5131382.5000    -999.25     9.4382     9.4382     1.1190   135.7337     0.0000    -999.25    72.3677     0.9720     1.0109  1321.0604     0.5862  -599.5217    -999.25    -999.25     0.0276     0.0276 16835.2441     2.2851     1.1190     1.2521   268.9425     1.0000     1.0000 -1242.5704    69.5930     0.0276     0.0000
  1321.2128  5044.7837 5044784.0000    -999.25     9.4830     9.4830     1.1951   135.5762     0.0000    -999.25    72.4233     0.9788     1.0275  1321.2128     0.5803  -599.5952    -999.25    -999.25     0.0288     0.0288 16551.1289     2.2439     1.1951     1.4282   269.2514     1.0000     1.0000 -1242.7228    68.3080     0.0288     0.0000
  1321.3652  5038.9453 5038945.5000    -999.25     9.4451     9.4451     1.1843   134.6802     0.0000    -999.25    71.3735     0.9350     0.9703  1321.3652     0.5700  -599.6688    -999.25    -999.25     0.0297     0.0297 16531.9727     2.2265     1.1843     1.4025   269.2026     1.0000     1.0000 -1242.8752    67.3150     0.0297     0.0000
