~Version ---------------------------------------------------
VERS. 2.0 : CWLS log ASCII Standard -VERSION 2.0
WRAP.  NO : 
~Well ------------------------------------------------------
STRT.m                                                1290.3698 : 
STOP.m                                                1526.7422 : 
STEP.m                                                   0.1524 : 
NULL.                                                   -999.25 : 
COMP.                                                           : COMPANY
WELL.                                                   Well-18 : WELL
FLD .                                                           : FIELD
LOC .                                                           : LOCATION
SRVC.                                                           : SERVICE COMPANY
DATE. 2021-01-20 14:34:10   : Log Export Date {yyyy-MM-dd HH:mm : ss}
PROV.                                                           : PROVINCE
UWI .                                                   Well-18 : UNIQUE WELL ID
API .                                                           : API NUMBER
~Curve Information -----------------------------------------
DEPTH             .m        : DEPTH
ACOUSTICIMPEDANCE1.kPa.s/m  : ACOUSTICIMPEDANCE1
AI                .kPa.s/m  : AI
AVG_PIGN          .m3/m3    : AVG_PIGN
BS                .in       : BS
CALI              .in       : CALI
CALI[DERIVED]1    .in       : CALI[DERIVED]1
DT                .us/ft    : DT
FACIES            ._        : FACIES
FLD1              ._        : FLD1
GR                .gAPI     : GR
DEPTH_1           .m        : DEPTH_1
NPHI              .m3/m3    : NPHI
PEF               .b/e      : PEF
PERF_INT          ._        : PERF_INT
PHIT              .m3/m3    : PHIT
PIGN              .m3/m3    : PIGN
PIGN_MODELLING    .m3/m3    : PIGN_MODELLING
PIMP              .kPa.s/m  : PIMP
RHOB              .g/cm3    : RHOB
LLD               .ohm.m    : LLD
RT_MODELLING      .ohm.m    : RT_MODELLING
RT_POWER          .ohm.m    : RT_POWER
RXO               .ohm.m    : RXO
SP                .mV       : SP
SUWI              ._        : SUWI
SUWI_MODELLING    ._        : SUWI_MODELLING
SXWI              ._        : SXWI
TDVSS             .m        : TDVSS
TEMP              .K        : TEMP
VCL               .%        : VCL
WATER_VOL         ._        : WATER_VOL
ZLT               ._        : ZLT
~Params ----------------------------------------------------
~Other -----------------------------------------------------
~ASCII -----------------------------------------------------
# ...
  1337.3090  4853.0146 4853014.5000    -999.25     8.5000     8.7886     8.7886   136.2332     0.0000    -999.25    89.6326  1337.3091     0.4812     5.1955    -999.25     0.1940     0.0272     0.0272 15921.9639     2.1691     2.1914     2.1914     4.8024     2.2167   -70.1250     1.0000     1.0000     1.0000 -1245.4121   156.0535    83.3970     0.0272     0.0000
  1337.4614  4884.0015 4884001.5000    -999.25     8.5000     8.7886     8.7886   136.0179     0.0000    -999.25    91.6789  1337.4614     0.4904     4.9917    -999.25     0.1940     0.0276     0.0276 16023.6270     2.1795     2.1889     2.1889     4.7913     2.1954   -69.2500     1.0000     1.0000     1.0000 -1245.5619   156.0622    83.1880     0.0276     0.0000
  1337.6138  4892.2183 4892218.5000    -999.25     8.5000     8.8024     8.8024   135.9078     0.0000    -999.25    87.4001  1337.6138     0.5083     5.0390    -999.25     0.1940     0.0277     0.0277 16050.5850     2.1814     2.2191     2.2191     4.9244     1.8943   -69.4375     1.0000     1.0000     1.0000 -1245.7117   156.0708    83.1420     0.0277     0.0000
  1337.7662  4900.8428 4900842.5000    -999.25     8.5000     8.8184     8.8184   136.3279     0.0000    -999.25    88.1916  1337.7662     0.5044     4.9730    -999.25     0.1940     0.0277     0.0277 16078.8799     2.1920     2.2081     2.2081     4.8756     2.0619   -70.0000     1.0000     1.0000     1.0000 -1245.8615   156.0795    83.1530     0.0277     0.0000
  1337.9186  4823.1577 4823158.0000    -999.25     8.5000     8.8184     8.8184   138.6311     0.0000    -999.25    87.6552  1337.9186     0.4920     4.9748    -999.25     0.1940     0.0275     0.0275 15824.0088     2.1937     2.1824     2.1824     4.7630     2.2235   -69.6875     1.0000     1.0000     1.0000 -1246.0112   156.0882    83.2760     0.0275     0.0000
  1338.0710  4759.7456 4759745.5000    -999.25     8.5000     8.7907     8.7907   139.7032     0.0000    -999.25    94.1218  1338.0710     0.4687     4.9868    -999.25     0.1937     0.0286     0.0286 15615.9639     2.1816     2.1604     2.1604     4.6672     2.2475   -69.4375     1.0000     1.0000     1.0000 -1246.1610   156.0968    82.5560     0.0286     0.0000
  1338.2234  4713.9238 4713923.5000    -999.25     8.5000     8.7886     8.7886   140.1883     0.0000    -999.25    95.2851  1338.2234     0.4191     5.1537    -999.25     0.1937     0.0288     0.0288 15465.6289     2.1681     2.0952     2.0952     4.3899     2.1305   -69.6250     1.0000     1.0000     1.0000 -1246.3108   156.1055    82.4330     0.0288     0.0000
  1338.3758  4662.6528 4662653.0000    -999.25     8.5000     8.7886     8.7886   141.0042     0.0000    -999.25    94.8200  1338.3759     0.4304     4.9836    -999.25     0.1940     0.0274     0.0274 15297.4180     2.1570     2.0452     2.0452     4.1828     1.9860   -70.3125     1.0000     1.0000     1.0000 -1246.4606   156.1142    83.2930     0.0274     0.0000
  1338.5282  4673.8491 4673849.0000    -999.25     8.5000     8.7863     8.7863   141.1751     0.0000    -999.25    87.4927  1338.5282     0.4565     5.1221    -999.25     0.1940     0.0273     0.0273 15334.1504     2.1648     1.9850     1.9850     3.9403     1.9489   -69.6250     1.0000     1.0000     1.0000 -1246.6104   156.1228    83.3670     0.0273     0.0000
  1338.6806  4624.5562 4624556.0000    -999.25     8.5000     8.7771     8.7771   141.9285     0.0000    -999.25    82.8526  1338.6807     0.5009     5.1928    -999.25     0.1940     0.0272     0.0272 15172.4287     2.1534     1.9537     1.9537     3.8169     1.9136   -67.8125     1.0000     1.0000     1.0000 -1246.7601   156.1315    83.4120     0.0272     0.0000
  1338.8330  4661.4844 4661484.0000    -999.25     8.5000     8.7694     8.7694   140.6930     0.0000    -999.25    86.7533  1338.8330     0.5399     5.2940    -999.25     0.1940     0.0274     0.0274 15293.5830     2.1517     1.9088     1.9088     3.6434     1.8967   -68.5000     1.0000     1.0000     1.0000 -1246.9099   156.1402    83.2790     0.0274     0.0000
  1338.9854  4605.0312 4605031.5000    -999.25     8.5000     8.7725     8.7725   141.5308     0.0000    -999.25    86.1680  1338.9855     0.5578     5.0755    -999.25     0.1940     0.0276     0.0276 15108.3711     2.1383     1.8817     1.8817     3.5408     1.8855   -69.5000     1.0000     1.0000     1.0000 -1247.0597   156.1488    83.2200     0.0276     0.0000
  1339.1378  4648.5869 4648587.0000    -999.25     8.5000     8.7840     8.7840   141.3194     0.0000    -999.25    91.4565  1339.1378     0.5395     5.1821    -999.25     0.1940     0.0272     0.0272 15251.2686     2.1553     1.8677     1.8677     3.4885     1.5971   -68.5000     1.0000     1.0000     1.0000 -1247.2095   156.1575    83.3860     0.0272     0.0000
  1339.2902  4638.0840 4638083.5000    -999.25     8.5000     8.7886     8.7886   140.9888     0.0000    -999.25    88.8873  1339.2903     0.5029     5.1950    -999.25     0.1939     0.0276     0.0276 15216.8105     2.1454     1.8617     1.8617     3.4658     1.6752   -67.1875     1.0000     1.0000     1.0000 -1247.3593   156.1662    83.1510     0.0276     0.0000
  1339.4426  4673.9312 4673931.5000    -999.25     8.5000     8.8078     8.8078   139.3336     0.0000    -999.25    89.7250  1339.4426     0.4375     5.3011    -999.25     0.1939     0.0279     0.0279 15334.4199     2.1366     1.8584     1.8584     3.4537     1.6255   -68.1250     1.0000     1.0000     1.0000 -1247.5090   156.1749    82.9680     0.0279     0.0000
  1339.5950  4638.5747 4638574.5000    -999.25     8.5000     8.8184     8.8184   139.8174     0.0000    -999.25    85.6539  1339.5950     0.4434     5.0699    -999.25     0.1940     0.0280     0.0280 15218.4209     2.1278     1.8477     1.8477     3.4141     1.9191   -67.9375     1.0000     1.0000     1.0000 -1247.6589   156.1835    82.9900     0.0280     0.0000
  1339.7474  4624.5601 4624560.0000    -999.25     8.5000     8.8355     8.8355   140.7552     0.0000    -999.25    81.4075  1339.7474     0.4404     5.0721    -999.25     0.1940     0.0278     0.0278 15172.4414     2.1356     1.8313     1.8313     3.3538     1.6417   -67.7500     1.0000     1.0000     1.0000 -1247.8087   156.1922    83.1010     0.0278     0.0000
  1339.8998  4649.7612 4649761.0000    -999.25     8.5000     8.8505     8.8505   140.4774     0.0000    -999.25    87.8845  1339.8998     0.4877     5.1120    -999.25     0.1940     0.0274     0.0274 15255.1221     2.1430     1.7874     1.7874     3.1948     1.5422   -67.2500     1.0000     1.0000     1.0000 -1247.9585   156.2009    83.2910     0.0274     0.0000
  1340.0522  4663.6133 4663613.0000    -999.25     8.5000     8.8546     8.8546   140.3804     0.0000    -999.25    86.9392  1340.0522     0.4793     5.1581    -999.25     0.1940     0.0272     0.0272 15300.5684     2.1479     1.7844     1.7844     3.1842     1.5432   -66.8125     1.0000     1.0000     1.0000 -1248.1083   156.2095    83.3810     0.0272     0.0000
  1340.2046  4711.3906 4711390.5000    -999.25     8.5000     8.8253     8.8253   140.0049     0.0000    -999.25    92.3213  1340.2046     0.4875     5.1063    -999.25     0.1940     0.0274     0.0274 15457.3174     2.1641     1.7660     1.7660     3.1189     1.4520   -67.0625     1.0000     1.0000     1.0000 -1248.2581   156.2182    83.2850     0.0274     0.0000
  1340.3570  4744.9336 4744933.5000    -999.25     8.5000     8.8184     8.8184   139.1886     0.0000    -999.25    87.3750  1340.3571     0.4660     4.9743    -999.25     0.1940     0.0278     0.0278 15567.3672     2.1668     1.7680     1.7680     3.1258     1.7134   -67.5625     1.0000     1.0000     1.0000 -1248.4078   156.2269    83.0870     0.0278     0.0000
  1340.5094  4791.3232 4791323.0000    -999.25     8.5000     8.8207     8.8207   137.8537     0.0000    -999.25    89.1472  1340.5094     0.4876     4.9336    -999.25     0.1939     0.0277     0.0277 15719.5645     2.1670     1.7900     1.7900     3.2041     1.5704   -67.1250     1.0000     1.0000     1.0000 -1248.5576   156.2355    83.0980     0.0277     0.0000
