~Version ---------------------------------------------------
VERS. 2.0 : CWLS log ASCII Standard -VERSION 2.0
WRAP.  NO : 
~Well ------------------------------------------------------
STRT.m                                                   1260.0 : 
STOP.m                                                1659.7452 : 
STEP.m                                                   0.1524 : 
NULL.                                                   -999.25 : 
COMP.                                                           : COMPANY
WELL.                                                    Well-6 : WELL
FLD .                                                           : FIELD
LOC .                                                           : LOCATION
SRVC.                                                           : SERVICE COMPANY
DATE. 2021-01-20 14:34:00   : Log Export Date {yyyy-MM-dd HH:mm : ss}
PROV.                                                           : PROVINCE
UWI .                                                    Well-6 : UNIQUE WELL ID
API .                                                           : API NUMBER
~Curve Information -----------------------------------------
DEPTH             .m        : DEPTH
ACOUSTICIMPEDANCE1.kPa.s/m  : ACOUSTICIMPEDANCE1
AI                .kPa.s/m  : AI
AVG_PIGN          .m3/m3    : AVG_PIGN
CALI              .in       : CALI
CALI[DERIVED]1    .in       : CALI[DERIVED]1
DT                .us/ft    : DT
FACIES            ._        : FACIES
FLD1              ._        : FLD1
GR                .gAPI     : GR
LLD               .ohm.m    : LLD
LLS               .ohm.m    : LLS
LL3               .ohm.m    : LL3
DEPTH_1           .m        : DEPTH_1
NPHI              .m3/m3    : NPHI
ONE-WAYTIME1      .ms       : ONE-WAYTIME1
PERF_INT          ._        : PERF_INT
PERMEABILITY      .mD       : PERMEABILITY
PHIT              .m3/m3    : PHIT
PIGE              .m3/m3    : PIGE
PIGN              .m3/m3    : PIGN
PIGN_MODELLING    .m3/m3    : PIGN_MODELLING
PIMP              .kPa.s/m  : PIMP
RHOB              .g/cm3    : RHOB
LLD_1             .ohm.m    : LLD_1
RT_MODELLING      .ohm.m    : RT_MODELLING
RT_POWER          .ohm.m    : RT_POWER
SP                .mV       : SP
SUWI              ._        : SUWI
SUWI_MODELLING    ._        : SUWI_MODELLING
SXWI              ._        : SXWI
TDVSS             .m        : TDVSS
VCL               .%        : VCL
WATER_VOL         ._        : WATER_VOL
ZLT               ._        : ZLT
~Params ----------------------------------------------------
~Other -----------------------------------------------------
~ASCII -----------------------------------------------------
# ...
  1365.6132  5699.8901 5694727.5000    -999.25    10.1619    10.1619   118.5845     0.0000    -999.25    61.9185     1.3403     1.3934     1.6490  1365.6132     0.4737  -621.3989    -999.25     1.7608     0.2879     0.0993     0.0993     0.0993 18683.4883     2.2176     1.3404     1.3403     1.7963    37.6888     1.0000     1.0000     1.0000 -1287.9132    61.7190     0.0993     1.0000
  1365.6568  5684.4434 5684443.5000    -999.25    10.2035    10.2035   118.6700     0.0000    -999.25    62.6175     1.3548     1.4157     1.6925  1365.6567     0.4669  -621.4199    -999.25     2.1009     0.2873     0.1030     0.1030     0.1030 18649.7480     2.2132     1.3549     1.3548     1.8359    37.5297     1.0000     1.0000     1.0000 -1287.9568    60.2774     0.1030     1.0000
  1365.7656  5533.4795 5531657.0000    -999.25    10.3073    10.3073   121.3008     0.0000    -999.25    64.3615     1.3910     1.4714     1.8008  1365.7656     0.4497  -621.4724    -999.25     2.9496     0.2856     0.1123     0.1123     0.1123 18148.4805     2.2021     1.3911     1.3910     1.9348    37.1328     1.0000     1.0000     1.0000 -1288.0656    56.6800     0.1123     1.0000
  1365.8092  5470.4302 5470430.0000    -999.25    10.3500    10.3500   122.3550     0.0000    -999.25    64.2786     1.4021     1.4818     1.8265  1365.8092     0.4487  -621.4935    -999.25     3.0311     0.2854     0.1133     0.1133     0.1133 17947.6055     2.1960     1.4023     1.4021     1.9663    37.0124     1.0000     1.0000     1.0000 -1288.1091    56.2829     0.1133     1.0000
  1365.9180  5260.7891 5265487.5000    -999.25    10.4564    10.4564   126.3386     0.0000    -999.25    64.0718     1.4300     1.5077     1.8905  1365.9180     0.4461  -621.5460    -999.25     3.2345     0.2849     0.1159     0.1159     0.1159 17275.2207     2.1806     1.4301     1.4300     2.0448    36.7119     1.0000     1.0000     1.0000 -1288.2180    55.2920     0.1159     1.0000
  1365.9616  5183.3599 5183360.0000    -999.25    10.4851    10.4851   127.9350     0.0000    -999.25    63.2713     1.4369     1.5042     1.8763  1365.9615     0.4513  -621.5670    -999.25     2.9655     0.2853     0.1138     0.1138     0.1138 17005.7734     2.1756     1.4370     1.4369     2.0649    36.6423     1.0000     1.0000     1.0000 -1288.2616    56.1036     0.1138     1.0000
  1366.0704  5031.3975 5040629.0000    -999.25    10.5567    10.5567   131.0512     0.0000    -999.25    61.2738     1.4543     1.4954     1.8408  1366.0704     0.4641  -621.6194    -999.25     2.2943     0.2863     0.1085     0.1085     0.1085 16537.4961     2.1633     1.4543     1.4543     2.1149    36.4685     1.0000     1.0000     1.0000 -1288.3704    58.1290     0.1085     1.0000
  1366.1140  4983.4316 4983431.5000    -999.25    10.5583    10.5583   132.3000     0.0000    -999.25    60.4023     1.4571     1.4843     1.8093  1366.1140     0.4730  -621.6405    -999.25     1.9669     0.2870     0.1042     0.1042     0.1042 16349.8408     2.1631     1.4572     1.4571     2.1233    36.4599     1.0000     1.0000     1.0000 -1288.4139    59.8029     0.1042     1.0000
  1366.2228  4946.0029 4956755.0000    -999.25    10.5623    10.5623   133.2695     0.0000    -999.25    58.2276     1.4643     1.4566     1.7309  1366.2228     0.4953  -621.6930    -999.25     1.1500     0.2890     0.0934     0.0934     0.0934 16262.3184     2.1626     1.4643     1.4643     2.1441    36.4386     1.0000     1.0000     1.0000 -1288.5228    63.9800     0.0934     1.0000
  1366.2664  4946.0645 4946064.5000    -999.25    10.5211    10.5211   133.6580     0.0000    -999.25    57.9880     1.4627     1.4456     1.6917  1366.2664     0.5034  -621.7141    -999.25     0.9732     0.2898     0.0888     0.0888     0.0888 16227.2451     2.1689     1.4627     1.4627     2.1396    36.4954     1.0000     1.0000     1.0000 -1288.5664    65.7383     0.0888     1.0000
  1366.3752  5034.4761 5044842.0000    -999.25    10.4184    10.4184   132.2673     0.0000    -999.25    57.3900     1.4589     1.4183     1.5938  1366.3752     0.5236  -621.7665    -999.25     0.5322     0.2918     0.0774     0.0774     0.0774 16551.3203     2.1847     1.4588     1.4589     2.1283    36.6371     1.0000     1.0000     1.0000 -1288.6752    70.1260     0.0774     1.0000
  1366.4188  5084.4258 5084425.5000    -999.25    10.3273    10.3273   131.7100     0.0000    -999.25    57.6189     1.4521     1.4121     1.5600  1366.4188     0.5281  -621.7876    -999.25     0.4669     0.2924     0.0742     0.0742     0.0742 16681.1875     2.1971     1.4521     1.4521     2.1088    36.7540     1.0000     1.0000     1.0000 -1288.7188    71.3931     0.0742     1.0000
  1366.5276  5268.1748 5275730.0000    -999.25    10.0999    10.0999   128.9033     0.0000    -999.25    58.1903     1.4353     1.3966     1.4756  1366.5276     0.5396  -621.8401    -999.25     0.3041     0.2939     0.0660     0.0660     0.0660 17308.8262     2.2280     1.4352     1.4353     2.0601    37.0456     1.0000     1.0000     1.0000 -1288.8276    74.5550     0.0660     1.0000
  1366.5713  5352.5684 5352568.0000    -999.25    10.0143    10.0143   127.7760     0.0000    -999.25    58.6509     1.4247     1.3940     1.4617  1366.5713     0.5416  -621.8611    -999.25     0.2786     0.2943     0.0638     0.0638     0.0638 17560.9199     2.2439     1.4246     1.4247     2.0301    37.2032     1.0000     1.0000     1.0000 -1288.8713    75.4012     0.0638     1.0000
  1366.6800  5609.5293 5611776.0000    -999.25     9.8013     9.8013   124.0711     0.0000    -999.25    59.7968     1.3985     1.3877     1.4272  1366.6799     0.5466  -621.9136    -999.25     0.2151     0.2953     0.0583     0.0583     0.0583 18411.3398     2.2834     1.3983     1.3985     1.9557    37.5951     1.0000     1.0000     1.0000 -1288.9800    77.5060     0.0583     1.0000
  1366.7236  5715.7456 5715745.5000    -999.25     9.7314     9.7314   122.5850     0.0000    -999.25    59.9579     1.3870     1.3854     1.4370  1366.7235     0.5494  -621.9346    -999.25     0.1920     0.2957     0.0559     0.0559     0.0559 18752.4453     2.2988     1.3869     1.3870     1.9241    37.7648     1.0000     1.0000     1.0000 -1289.0236    78.4295     0.0559     1.0000
  1366.8324  5980.3994 5976191.5000    -999.25     9.5570     9.5570   119.1148     0.0000    -999.25    60.3598     1.3585     1.3796     1.4614  1366.8324     0.5566  -621.9871    -999.25     0.1344     0.2968     0.0499     0.0499     0.0499 19606.9277     2.3371     1.3583     1.3585     1.8454    38.1881     1.0000     1.0000     1.0000 -1289.1324    80.7340     0.0499     1.0000
  1366.8761  6080.8013 6080801.0000    -999.25     9.5095     9.5095   117.7210     0.0000    -999.25    60.0733     1.3484     1.3758     1.4725  1366.8761     0.5606  -622.0082    -999.25     0.1107     0.2981     0.0463     0.0463     0.0463 19950.1348     2.3485     1.3483     1.3484     1.8185    38.3509     1.0000     1.0000     1.0000 -1289.1761    82.1479     0.0463     1.0000
  1366.9848  6318.0918 6307412.5000    -999.25     9.3915     9.3915   114.6713     0.0000    -999.25    59.3605     1.3234     1.3663     1.5001  1366.9847     0.5707  -622.0607    -999.25     0.0518     0.3013     0.0372     0.0372     0.0372 20693.6113     2.3770     1.3233     1.3234     1.7515    38.7559     1.0000     1.0000     1.0000 -1289.2848    85.6650     0.0372     1.0000
  1367.0284  6398.3076 6398307.5000    -999.25     9.3743     9.3743   113.4480     0.0000    -999.25    59.0088     1.3156     1.3614     1.5104  1367.0283     0.5732  -622.0817    -999.25     0.0455     0.3019     0.0355     0.0355     0.0355 20991.8223     2.3815     1.3156     1.3156     1.7311    38.9000     1.0000     1.0000     1.0000 -1289.3284    86.2918     0.0355     1.0000
  1367.1372  6537.3833 6521132.5000    -999.25     9.3313     9.3313   111.5581     0.0000    -999.25    58.1312     1.2962     1.3491     1.5361  1367.1372     0.5793  -622.1342    -999.25     0.0298     0.3032     0.0315     0.0315     0.0315 21394.7910     2.3927     1.2961     1.2962     1.6800    39.2598     1.0000     1.0000     1.0000 -1289.4371    87.8560     0.0315     1.0000
