~Version ---------------------------------------------------
VERS. 2.0 : CWLS log ASCII Standard -VERSION 2.0
WRAP.  NO : 
~Well ------------------------------------------------------
STRT.m                                                1236.0668 : 
STOP.m                                                1579.8812 : 
STEP.m                                                   0.1524 : 
NULL.                                                   -999.25 : 
COMP.                                                           : COMPANY
WELL.                                                   Well-17 : WELL
FLD .                                                           : FIELD
LOC .                                                           : LOCATION
SRVC.                                                           : SERVICE COMPANY
DATE. 2021-01-20 14:34:08   : Log Export Date {yyyy-MM-dd HH:mm : ss}
PROV.                                                           : PROVINCE
UWI .                                                   Well-17 : UNIQUE WELL ID
API .                                                           : API NUMBER
~Curve Information -----------------------------------------
DEPTH             .m        : DEPTH
ACOUSTICIMPEDANCE1.kPa.s/m  : ACOUSTICIMPEDANCE1
AI                .kPa.s/m  : AI
AVG_PIGN          .m3/m3    : AVG_PIGN
CALI              .in       : CALI
NPHI              .m3/m3    : NPHI
DT                .us/ft    : DT
FACIES            ._        : FACIES
FLD1              ._        : FLD1
GR                .gAPI     : GR
M2R2              .ohm.m    : M2R2
LLS               .ohm.m    : LLS
LLD               .ohm.m    : LLD
DEPTH_1           .m        : DEPTH_1
NPHI_1            .m3/m3    : NPHI_1
PERF_INT          ._        : PERF_INT
PERMEABILITY      .mD       : PERMEABILITY
PHIT              .m3/m3    : PHIT
PIGN              .m3/m3    : PIGN
PIGN_MODELLING    .m3/m3    : PIGN_MODELLING
PIMP              .kPa.s/m  : PIMP
RHOB              .g/cm3    : RHOB
RT_MODELLING      .ohm.m    : RT_MODELLING
RT_POWER          .ohm.m    : RT_POWER
SP                .mV       : SP
SUWI              ._        : SUWI
SUWI_MODELLING    ._        : SUWI_MODELLING
SXWI              ._        : SXWI
TDVSS             .m        : TDVSS
VCL               .%        : VCL
WATER_VOL         ._        : WATER_VOL
RHOB_1            .g/cm3    : RHOB_1
ZLT               ._        : ZLT
~Params ----------------------------------------------------
~Other -----------------------------------------------------
~ASCII -----------------------------------------------------
# ...
  1487.5268  7607.0181 7607018.0000    -999.25     8.8090     0.5442   103.7067     0.0000    -999.25    90.7449     2.8396     2.9116     2.9223  1487.5269     0.5442    -999.25     0.0148     0.1744     0.0392     0.0392 24957.4082     2.5882     2.9223     8.5395   222.6586     1.0000     1.0000     1.0000 -1414.0369    80.3870     0.0392     2.5882    14.0000
  1487.6792  7558.1738 7558174.0000    -999.25     8.8073     0.5600   104.3817     0.0000    -999.25    91.8899     2.7848     2.8504     2.8584  1487.6792     0.5600    -999.25     0.0040     0.1717     0.0365     0.0365 24797.1582     2.5884     2.8584     8.1703   222.6973     1.0000     1.0000     1.0000 -1414.1892    81.7300     0.0365     2.5884    14.0000
  1487.8316  7710.3394 7710339.5000    -999.25     8.8147     0.5707   103.8864     0.0000    -999.25    92.9095     2.8540     2.9143     2.9179  1487.8317     0.5707    -999.25     0.0035     0.1656     0.0362     0.0362 25296.3887     2.6279     2.9179     8.5143   222.9563     1.0000     1.0000     1.0000 -1414.3417    81.8950     0.0362     2.6279    15.0000
  1487.9840  8266.8848 8266884.5000    -999.25     8.8486     0.5636   100.2827     0.0000    -999.25    92.0598     3.1792     3.2422     3.2382  1487.9840     0.5636    -999.25     0.0311     0.1567     0.0410     0.0410 27122.3242     2.7199     3.2382    10.4857   223.3028     1.0000     1.0000     1.0000 -1414.4940    79.4970     0.0410     2.7199    15.0000
  1488.1364  8893.0771 8893077.0000    -999.25     8.9430     0.5371    96.9227     0.0000    -999.25    87.5738     3.6620     3.7283     3.7106  1488.1365     0.5371    -999.25     0.2795     0.1630     0.0518     0.0518 29176.7617     2.8279     3.7106    13.7683   223.6652     1.0000     1.0000     1.0000 -1414.6465    74.1090     0.0518     2.8279    15.0000
  1488.2888  9066.5244 9066525.0000    -999.25     9.0922     0.5139    94.9616     0.0000    -999.25    80.8483     3.7756     3.8459     3.8122  1488.2888     0.5139    -999.25     0.5837     0.1681     0.0564     0.0564 29745.8164     2.8247     3.8122    14.5328   224.0719     1.0000     1.0000     1.0000 -1414.7988    71.7920     0.0564     2.8247    15.0000
  1488.4412  8851.7500 8851750.0000    -999.25     9.1950     0.5131    90.9536     0.0000    -999.25    75.1768     3.3667     3.4387     3.3944  1488.4413     0.5131    -999.25     0.2014     0.1780     0.0489     0.0489 29041.1758     2.6414     3.3944    11.5216   224.5526     1.0000     1.0000     1.0000 -1414.9513    75.5370     0.0489     2.6414    15.0000
  1488.5936  7985.1470 7985147.0000    -999.25     9.3346     0.5114    92.9346     0.0000    -999.25    73.2476     2.7803     2.8476     2.7992  1488.5936     0.5114    -999.25     0.0929     0.2141     0.0581     0.0581 26197.9883     2.4347     2.7992     7.8356   225.0650     1.0000     1.0000     1.0000 -1415.1036    76.9290     0.0581     2.4347    15.0000
  1488.7460  7216.3477 7216348.0000    -999.25     9.7135     0.4869    99.6905     0.0000    -999.25    76.2482     2.2437     2.2986     2.2523  1488.7461     0.4869    -999.25     0.1058     0.2386     0.0609     0.0609 23675.6816     2.3602     2.2523     5.0729   225.5383     1.0000     1.0000     1.0000 -1415.2560    74.8490     0.0609     2.3602    15.0000
  1488.8984  7085.7104 7085710.5000    -999.25    10.1847     0.4563   104.2656     0.0000    -999.25    83.2362     1.8936     1.9342     1.8905  1488.8984     0.4563    -999.25     0.2437     0.2458     0.0574     0.0574 23247.0820     2.4239     1.8905     3.5741   225.9302     1.0000     1.0000     1.0000 -1415.4084    72.4630     0.0574     2.4239    15.0000
  1489.0508  6868.0146 6868015.0000    -999.25    10.3844     0.4350   112.7824     0.0000    -999.25    90.5800     1.8013     1.8272     1.7829  1489.0508     0.4350    -999.25     0.6346     0.2455     0.0617     0.0617 22532.8574     2.5413     1.7829     3.1787   226.1384     1.0000     1.0000     1.0000 -1415.5608    69.1290     0.0617     2.5413    15.0000
  1489.2032  6577.1943 6577194.0000    -999.25    10.2088     0.4249   120.9316     0.0000    -999.25    93.3024     1.9458     1.9527     1.9030  1489.2032     0.4249    -999.25     1.0483     0.2383     0.0654     0.0654 21578.7207     2.6095     1.9030     3.6213   226.0181     1.0000     1.0000     1.0000 -1415.7133    67.3150     0.0654     2.6095    15.0000
  1489.3556  6375.5801 6375580.0000    -999.25     9.8869     0.4306   124.3390     0.0000    -999.25    90.2559     2.1950     2.1836     2.1256  1489.3556     0.4306    -999.25     0.9014     0.2284     0.0631     0.0631 20917.2578     2.6008     2.1256     4.5180   225.6001     1.0000     1.0000     1.0000 -1415.8656    68.4380     0.0631     2.6008    16.0000
  1489.5080  6019.5669 6019567.0000    -999.25     9.6621     0.4437   128.1847     0.0000    -999.25    86.8353     2.2887     2.2637     2.2013  1489.5081     0.4437    -999.25     0.4727     0.2259     0.0577     0.0577 19749.2344     2.5315     2.2013     4.8458   225.0245     1.0000     1.0000     1.0000 -1416.0181    71.1460     0.0577     2.5315    16.0000
  1489.6604  5834.7905 5834790.5000    -999.25     9.5025     0.4537   129.2785     0.0000    -999.25    88.4016     2.2389     2.2113     2.1550  1489.6604     0.4537    -999.25     0.2300     0.2269     0.0532     0.0532 19143.0137     2.4748     2.1550     4.6440   224.2644     1.0000     1.0000     1.0000 -1416.1704    73.3870     0.0532     2.4748    16.0000
  1489.8128  6188.7686 6188768.5000    -999.25     9.2437     0.4607   122.8598     0.0000    -999.25    92.3891     2.3648     2.3412     2.2855  1489.8129     0.4607    -999.25     0.1788     0.2178     0.0515     0.0515 20304.3594     2.4946     2.2855     5.2236   223.1492     1.0000     1.0000     1.0000 -1416.3229    74.2430     0.0515     2.4946    16.0000
  1489.9652  6940.5840 6940584.0000    -999.25     8.9787     0.4578   112.0423     0.0000    -999.25    92.2048     2.8273     2.8147     2.7476  1489.9652     0.4578    -999.25     0.2727     0.2019     0.0527     0.0527 22770.9453     2.5513     2.7476     7.5496   221.6113     1.0000     1.0000     1.0000 -1416.4752    73.6320     0.0527     2.5513    16.0000
  1490.1176  7901.5640 7901564.0000    -999.25     8.8674     0.4489   100.8600     0.0000    -999.25    87.3471     3.3979     3.4121     3.3394  1490.1177     0.4489    -999.25     0.5496     0.1890     0.0562     0.0562 25923.7656     2.6147     3.3394    11.1518   219.7859     1.0000     1.0000     1.0000 -1416.6277    71.9050     0.0562     2.6147    16.0000
  1490.2700  8708.3887 8708388.0000    -999.25     8.8628     0.4494    92.6616     0.0000    -999.25    82.1847     3.7103     3.7622     3.7073  1490.2700     0.4494    -999.25     0.7321     0.1822     0.0576     0.0576 28570.8281     2.6474     3.7073    13.7442   218.0162     1.0000     1.0000     1.0000 -1416.7800    71.1850     0.0576     2.6474    16.0000
  1490.4224  8975.8438 8975844.0000    -999.25     8.8734     0.4617    90.0673     0.0000    -999.25    78.7454     3.7646     3.8545     3.8306  1490.4225     0.4617    -999.25     0.6314     0.1781     0.0561     0.0561 29448.3066     2.6523     3.8306    14.6738   216.6404     1.0000     1.0000     1.0000 -1416.9325    71.9470     0.0561     2.6523    16.0000
  1490.5748  8736.4473 8736447.0000    -999.25     8.8679     0.4744    92.6878     0.0000    -999.25    76.1206     3.8577     3.9886     3.9998  1490.5748     0.4744    -999.25     0.5201     0.1731     0.0543     0.0543 28662.8848     2.6567     3.9998    15.9986   215.6609     1.0000     1.0000     1.0000 -1417.0848    72.8700     0.0543     2.6567    16.0000
  1490.7272  8314.1338 8314133.5000    -999.25     8.8532     0.4771    96.6920     0.0000    -999.25    74.0078     4.0797     4.2596     4.3128  1490.7273     0.4771    -999.25     0.4454     0.1693     0.0526     0.0526 27277.3398     2.6375     4.3128    18.6006   215.0344     1.0000     1.0000     1.0000 -1417.2372    73.6990     0.0526     2.6375    16.0000
