~Version ---------------------------------------------------
VERS. 2.0 : CWLS log ASCII Standard -VERSION 2.0
WRAP.  NO : 
~Well ------------------------------------------------------
STRT.m                                                1171.1084 : 
STOP.m                                                  1705.88 : 
STEP.m                                                   0.1524 : 
NULL.                                                   -999.25 : 
COMP.                                                           : COMPANY
WELL.                                                   Well-12 : WELL
FLD .                                                           : FIELD
LOC .                                                           : LOCATION
SRVC.                                                           : SERVICE COMPANY
DATE. 2021-01-20 14:34:05   : Log Export Date {yyyy-MM-dd HH:mm : ss}
PROV.                                                           : PROVINCE
UWI .                                                   Well-12 : UNIQUE WELL ID
API .                                                           : API NUMBER
~Curve Information -----------------------------------------
DEPTH             .m        : DEPTH
ACOUSTICIMPEDANCE1.kPa.s/m  : ACOUSTICIMPEDANCE1
AI                .kPa.s/m  : AI
AVG_PIGN          .m3/m3    : AVG_PIGN
DT                .us/ft    : DT
FACIES            ._        : FACIES
FLD1              ._        : FLD1
GR                .gAPI     : GR
HDRS              .ohm.m    : HDRS
HMRS              .ohm.m    : HMRS
DEPTH_1           .m        : DEPTH_1
NPHI              .m3/m3    : NPHI
ONE-WAYTIME1      .ms       : ONE-WAYTIME1
PERF_INT          ._        : PERF_INT
PERMEABILITY      .mD       : PERMEABILITY
PIGN              .m3/m3    : PIGN
PIGN_MODELLING    .m3/m3    : PIGN_MODELLING
PIMP              .kPa.s/m  : PIMP
RHOB              .g/cm3    : RHOB
RT_MODELLING      .ohm.m    : RT_MODELLING
RT_POWER          .ohm.m    : RT_POWER
SP                .mV       : SP
SUWI              ._        : SUWI
SUWI_MODELLING    ._        : SUWI_MODELLING
SXWI              ._        : SXWI
TDVSS             .m        : TDVSS
TEMP              .K        : TEMP
VCL               .%        : VCL
WATER_VOL         ._        : WATER_VOL
ZLT               ._        : ZLT
~Params ----------------------------------------------------
~Other -----------------------------------------------------
~ASCII -----------------------------------------------------
# ...
  1277.7884  4592.1968 4592197.0000    -999.25   144.1698     0.0000    -999.25   136.5671     0.7760     0.8199  1277.7883     0.6547  -582.9658    -999.25    -999.25    -999.25    -999.25 15066.2627     2.1721     0.7760     0.6022    93.2493    -999.25    -999.25    -999.25 -1195.3084   151.1470    -999.25    -999.25    -999.25
  1277.9408  4661.1602 4661160.0000    -999.25   143.0634     0.0000    -999.25   133.6940     0.7302     0.7717  1277.9408     0.6293  -583.0401    -999.25    -999.25    -999.25    -999.25 15292.5205     2.1878     0.7302     0.5332    93.4306    -999.25    -999.25    -999.25 -1195.4608   151.1554    -999.25    -999.25    -999.25
  1278.0932  4684.9224 4684922.5000    -999.25   142.9168     0.0000    -999.25   131.5612     0.6914     0.7376  1278.0931     0.6120  -583.1144    -999.25    -999.25    -999.25    -999.25 15370.4805     2.1967     0.6914     0.4780    93.6916    -999.25    -999.25    -999.25 -1195.6132   151.1639    -999.25    -999.25    -999.25
  1278.2456  4643.4878 4643488.0000    -999.25   144.0411     0.0000    -999.25   131.1296     0.6695     0.7229  1278.2456     0.6211  -583.1887    -999.25    -999.25    -999.25    -999.25 15234.5400     2.1944     0.6695     0.4482    93.8895    -999.25    -999.25    -999.25 -1195.7656   151.1724    -999.25    -999.25    -999.25
  1278.3980  4565.3569 4565357.0000    -999.25   145.7718     0.0000    -999.25   132.1638     0.6588     0.7169  1278.3979     0.6217  -583.2631    -999.25    -999.25    -999.25    -999.25 14978.2041     2.1834     0.6588     0.4340    94.0566    -999.25    -999.25    -999.25 -1195.9180   151.1809    -999.25    -999.25    -999.25
  1278.5504  4464.5444 4464544.5000    -999.25   147.4659     0.0000    -999.25   133.9733     0.6572     0.7147  1278.5504     0.6286  -583.3374    -999.25    -999.25    -999.25    -999.25 14647.4551     2.1600     0.6572     0.4319    94.1653    -999.25    -999.25    -999.25 -1196.0703   151.1894    -999.25    -999.25    -999.25
  1278.7028  4397.9126 4397912.5000    -999.25   148.4249     0.0000    -999.25   135.8149     0.6601     0.7151  1278.7028     0.6601  -583.4117    -999.25    -999.25    -999.25    -999.25 14428.8467     2.1416     0.6601     0.4357    94.2218    -999.25    -999.25    -999.25 -1196.2228   151.1979    -999.25    -999.25    -999.25
  1278.8552  4385.9502 4385950.0000    -999.25   148.3780     0.0000    -999.25   136.9227     0.6676     0.7187  1278.8552     0.6660  -583.4860    -999.25    -999.25    -999.25    -999.25 14389.5996     2.1351     0.6676     0.4457    94.3085    -999.25    -999.25    -999.25 -1196.3751   151.2064    -999.25    -999.25    -999.25
  1279.0076  4383.9067 4383906.5000    -999.25   148.0578     0.0000    -999.25   136.7322     0.6787     0.7248  1279.0076     0.6571  -583.5604    -999.25    -999.25    -999.25    -999.25 14382.8955     2.1295     0.6787     0.4606    94.3521    -999.25    -999.25    -999.25 -1196.5276   151.2149    -999.25    -999.25    -999.25
  1279.1600  4380.8223 4380822.5000    -999.25   147.8907     0.0000    -999.25   135.5149     0.6910     0.7330  1279.1599     0.6369  -583.6347    -999.25    -999.25    -999.25    -999.25 14372.7773     2.1256     0.6910     0.4775    94.4744    -999.25    -999.25    -999.25 -1196.6799   151.2233    -999.25    -999.25    -999.25
  1279.3124  4392.1938 4392194.0000    -999.25   147.6327     0.0000    -999.25   134.3525     0.7006     0.7420  1279.3124     0.6326  -583.7090    -999.25    -999.25    -999.25    -999.25 14410.0859     2.1274     0.7006     0.4908    94.5239    -999.25    -999.25    -999.25 -1196.8324   151.2318    -999.25    -999.25    -999.25
  1279.4648  4423.3779 4423378.0000    -999.25   146.9158     0.0000    -999.25   133.8342     0.7062     0.7527  1279.4647     0.6402  -583.7833    -999.25    -999.25    -999.25    -999.25 14512.3945     2.1321     0.7062     0.4987    94.5850    -999.25    -999.25    -999.25 -1196.9847   151.2403    -999.25    -999.25    -999.25
  1279.6172  4475.9746 4475975.0000    -999.25   145.6797     0.0000    -999.25   133.4583     0.7159     0.7680  1279.6172     0.6359  -583.8577    -999.25    -999.25    -999.25    -999.25 14684.9570     2.1393     0.7159     0.5125    94.4933    -999.25    -999.25    -999.25 -1197.1372   151.2488    -999.25    -999.25    -999.25
  1279.7696  4560.5483 4560548.5000    -999.25   143.8336     0.0000    -999.25   132.5756     0.7383     0.7929  1279.7695     0.6457  -583.9320    -999.25    -999.25    -999.25    -999.25 14962.4287     2.1521     0.7383     0.5451    94.4554    -999.25    -999.25    -999.25 -1197.2896   151.2573    -999.25    -999.25    -999.25
  1279.9220  4661.0552 4661055.0000    -999.25   141.7784     0.0000    -999.25   131.3831     0.7653     0.8186  1279.9220     0.6640  -584.0063    -999.25    -999.25    -999.25    -999.25 15292.1758     2.1681     0.7653     0.5857    94.3862    -999.25    -999.25    -999.25 -1197.4420   151.2658    -999.25    -999.25    -999.25
  1280.0744  4735.0625 4735062.5000    -999.25   140.6310     0.0000    -999.25   130.4653     0.7715     0.8215  1280.0743     0.6744  -584.0806    -999.25    -999.25    -999.25    -999.25 15534.9824     2.1847     0.7715     0.5952    94.4652    -999.25    -999.25    -999.25 -1197.5944   151.2742    -999.25    -999.25    -999.25
  1280.2268  4722.1943 4722194.5000    -999.25   141.2724     0.0000    -999.25   129.9387     0.7425     0.7931  1280.2268     0.6735  -584.1550    -999.25    -999.25    -999.25    -999.25 15492.7637     2.1887     0.7425     0.5513    94.5817    -999.25    -999.25    -999.25 -1197.7468   151.2827    -999.25    -999.25    -999.25
  1280.3792  4650.9058 4650906.0000    -999.25   143.3133     0.0000    -999.25   129.5507     0.7023     0.7527  1280.3792     0.6594  -584.2293    -999.25    -999.25    -999.25    -999.25 15258.8779     2.1868     0.7023     0.4932    94.7835    -999.25    -999.25    -999.25 -1197.8992   151.2912    -999.25    -999.25    -999.25
  1280.5316  4575.0811 4575081.0000    -999.25   145.6352     0.0000    -999.25   129.0678     0.6783     0.7392  1280.5316     0.6525  -584.3036    -999.25    -999.25    -999.25    -999.25 15010.1094     2.1860     0.6783     0.4601    94.9769    -999.25    -999.25    -999.25 -1198.0515   151.2997    -999.25    -999.25    -999.25
  1280.6840  4515.1182 4515118.5000    -999.25   147.0495     0.0000    -999.25   128.5226     0.6714     0.7577  1280.6840     0.6631  -584.3780    -999.25    -999.25    -999.25    -999.25 14813.3799     2.1783     0.6714     0.4508    95.0695    -999.25    -999.25    -999.25 -1198.2040   151.3082    -999.25    -999.25    -999.25
  1280.8364  4503.7017 4503702.0000    -999.25   146.4274     0.0000    -999.25   128.1638     0.6783     0.7678  1280.8364     0.6690  -584.4523    -999.25    -999.25    -999.25    -999.25 14775.9248     2.1636     0.6783     0.4601    95.0730    -999.25    -999.25    -999.25 -1198.3563   151.3167    -999.25    -999.25    -999.25
  1280.9888  4551.9399 4551940.0000    -999.25   144.2797     0.0000    -999.25   128.2496     0.6925     0.7482  1280.9888     0.6532  -584.5266    -999.25    -999.25    -999.25    -999.25 14934.1865     2.1547     0.6925     0.4796    94.9192    -999.25    -999.25    -999.25 -1198.5088   151.3252    -999.25    -999.25    -999.25
  1281.1412  4634.1299 4634130.0000    -999.25   142.2404     0.0000    -999.25   128.8094     0.7144     0.7366  1281.1411     0.6668  -584.6010    -999.25    -999.25    -999.25    -999.25 15203.8379     2.1626     0.7144     0.5104    94.7177    -999.25    -999.25    -999.25 -1198.6611   151.3336    -999.25    -999.25    -999.25
  1281.2936  4686.1709 4686171.0000    -999.25   141.7600     0.0000    -999.25   129.5095     0.7345     0.7311  1281.2936     0.6714  -584.6753    -999.25    -999.25    -999.25    -999.25 15374.5762     2.1795     0.7345     0.5395    94.4757    -999.25    -999.25    -999.25 -1198.8136   151.3421    -999.25    -999.25    -999.25
  1281.4460  4677.7173 4677717.0000    -999.25   142.9154     0.0000    -999.25   130.0175     0.7303     0.7278  1281.4459     0.7221  -584.7496    -999.25    -999.25    -999.25    -999.25 15346.8408     2.1933     0.7303     0.5333    94.4355    -999.25    -999.25    -999.25 -1198.9659   151.3506    -999.25    -999.25    -999.25
