~Version ---------------------------------------------------
VERS. 2.0 : CWLS log ASCII Standard -VERSION 2.0
WRAP.  NO : 
~Well ------------------------------------------------------
STRT.m                                                1171.1084 : 
STOP.m                                                  1705.88 : 
STEP.m                                                   0.1524 : 
NULL.                                                   -999.25 : 
COMP.                                                           : COMPANY
WELL.                                                   Well-12 : WELL
FLD .                                                           : FIELD
LOC .                                                           : LOCATION
SRVC.                                                           : SERVICE COMPANY
DATE. 2021-01-20 14:34:05   : Log Export Date {yyyy-MM-dd HH:mm : ss}
PROV.                                                           : PROVINCE
UWI .                                                   Well-12 : UNIQUE WELL ID
API .                                                           : API NUMBER
~Curve Information -----------------------------------------
DEPTH             .m        : DEPTH
ACOUSTICIMPEDANCE1.kPa.s/m  : ACOUSTICIMPEDANCE1
AI                .kPa.s/m  : AI
AVG_PIGN          .m3/m3    : AVG_PIGN
DT                .us/ft    : DT
FACIES            ._        : FACIES
FLD1              ._        : FLD1
GR                .gAPI     : GR
HDRS              .ohm.m    : HDRS
HMRS              .ohm.m    : HMRS
DEPTH_1           .m        : DEPTH_1
NPHI              .m3/m3    : NPHI
ONE-WAYTIME1      .ms       : ONE-WAYTIME1
PERF_INT          ._        : PERF_INT
PERMEABILITY      .mD       : PERMEABILITY
PIGN              .m3/m3    : PIGN
PIGN_MODELLING    .m3/m3    : PIGN_MODELLING
PIMP              .kPa.s/m  : PIMP
RHOB              .g/cm3    : RHOB
RT_MODELLING      .ohm.m    : RT_MODELLING
RT_POWER          .ohm.m    : RT_POWER
SP                .mV       : SP
SUWI              ._        : SUWI
SUWI_MODELLING    ._        : SUWI_MODELLING
SXWI              ._        : SXWI
TDVSS             .m        : TDVSS
TEMP              .K        : TEMP
VCL               .%        : VCL
WATER_VOL         ._        : WATER_VOL
ZLT               ._        : ZLT
~Params ----------------------------------------------------
~Other -----------------------------------------------------
~ASCII -----------------------------------------------------
# ...
  1590.2084  5166.5884 5166543.0000    -999.25   139.2800     0.0000    -999.25   185.2798     4.5782     4.6875  1590.2084     0.6467  -735.3366    -999.25     0.3278     0.0258     0.0258 16950.5996     2.3609     4.5782    20.9599    90.1353     1.0000     1.0000     1.0000 -1507.7284   168.5424    87.1070     0.0258    18.0000
  1590.3608  4998.5127 4998513.0000    -999.25   142.2681     0.0000    -999.25   183.2819     4.6021     4.7009  1590.3607     0.6892  -735.4109    -999.25     0.2785     0.0136     0.0136 16399.3203     2.3331     4.6021    21.1793    90.3476     1.0000     1.0000     1.0000 -1507.8807   168.5509    93.2040     0.0136    18.0000
  1590.5132  4561.3389 4561319.0000    -999.25   147.1966     0.0000    -999.25   181.0864     4.6465     4.7551  1590.5132     0.7670  -735.4852    -999.25     0.2238     0.0041     0.0100 14964.9580     2.2028     4.6465    21.5900    90.4908     1.0000     1.0000     1.0000 -1508.0332   168.5594    80.2670     0.0041    18.0000
  1590.6656  3880.0864 3880086.2500    -999.25   151.0062     0.0000    -999.25   175.5688     4.8467     4.9654  1590.6655     0.8726  -735.5596    -999.25     0.1658     0.0001     0.0100 12729.9424     1.9223     4.8467    23.4905    90.3964     1.0000     1.0000     1.0000 -1508.1855   168.5679    52.5470     0.0001    18.0000
  1590.8180  3312.4941 3312494.0000    -999.25   151.4111     0.0000    -999.25   165.2334     5.8586     6.0098  1590.8180     0.9347  -735.6339    -999.25     0.2500     0.0001     0.0100 10867.7627     1.6455     5.8586    34.3232    90.1497     1.0000     1.0000     1.0000 -1508.3380   168.5764    37.3660     0.0001    18.0000
  1590.9704  2955.1289 2955129.0000    -999.25   150.1861     0.0000    -999.25   151.8972     8.5189     8.7618  1590.9703     1.0766  -735.7083    -999.25     0.3646     0.0001     0.0100  9695.3047     1.4561     8.5189    72.5717    89.7791     1.0000     1.0000     1.0000 -1508.4904   168.5849    25.1700     0.0001    19.0000
  1591.1228  2699.6797 2699690.0000    -999.25   149.9681     3.0000    -999.25   139.1350    13.2981    13.6526  1591.1228     1.1810  -735.7826    -999.25     0.3630     0.0001     0.0100  8857.2510     1.3283    13.2981   176.8395    89.6129     1.0000     1.0000     1.0000 -1508.6428   168.5934    17.8990     0.0001    19.0000
  1591.2752  2594.8149 2594815.0000    -999.25   150.2965     3.0000    -999.25   129.4338    20.7707    21.2570  1591.2751     1.2158  -735.8569    -999.25     0.3613     0.0001     0.0100  8513.1729     1.2795    20.7707   431.4220    89.4839     1.0000     1.0000     1.0000 -1508.7952   168.6019    16.1840     0.0001    19.0000
  1591.4276  2659.3438 2659343.7500    -999.25   150.2714     3.0000    -999.25   123.3143    30.8959    31.9258  1591.4276     1.2179  -735.9312    -999.25     0.3597     0.0001     0.0100  8724.8809     1.3111    30.8959   954.5567    89.6245     1.0000     1.0000     1.0000 -1508.9476   168.6103    18.1940     0.0001    19.0000
  1591.5800  2759.4355 2759435.5000    -999.25   150.1889     3.0000    -999.25   120.0055    47.6177    50.3209  1591.5800     1.1798  -736.0056    -999.25     0.3581     0.0001     0.0100  9053.2656     1.3597    47.6177  2267.4453    89.7443     1.0000     1.0000     1.0000 -1509.1000   168.6188    21.1710     0.0001    19.0000
  1591.7324  2857.4990 2857496.7500    -999.25   150.0267     3.0000    -999.25   118.2325    70.6595    74.0004  1591.7324     1.1572  -736.0799    -999.25     0.3565     0.0001     0.0100  9374.9893     1.4065    70.6595  4992.7651    89.9291     1.0000     1.0000     1.0000 -1509.2523   168.6273    23.4640     0.0001    19.0000
  1591.8848  2922.4736 2922423.5000    -999.25   149.7575     3.0000    -999.25   116.9890    89.5030    84.0217  1591.8848     1.1428  -736.1542    -999.25     0.3549     0.0001     0.0100  9588.0029     1.4359    89.5030  8010.7866    90.1037     1.0000     1.0000     1.0000 -1509.4048   168.6358    24.3820     0.0001    19.0000
  1592.0372  2914.9512 2914951.2500    -999.25   149.6316     3.0000    -999.25   115.8383    91.0985    79.2866  1592.0372     1.1321  -736.2285    -999.25     0.3532     0.0001     0.0100  9563.4883     1.4310    91.0985  8298.9375    90.6104     1.0000     1.0000     1.0000 -1509.5571   168.6443    23.7070     0.0001    19.0000
  1592.1896  2850.7664 2850752.2500    -999.25   149.8892     3.0000    -999.25   114.8766    90.7459    82.6596  1592.1896     1.1282  -736.3029    -999.25     0.3516     0.0001     0.0100  9352.8623     1.4019    90.7459  8234.8193    91.3948     1.0000     1.0000     1.0000 -1509.7096   168.6528    22.2560     0.0001    19.0000
  1592.3420  2761.5149 2761514.2500    -999.25   150.4732     3.0000    -999.25   114.3949   104.2221    97.4326  1592.3419     1.1099  -736.3772    -999.25     0.3500     0.0001     0.0100  9060.0869     1.3633   104.2221 10862.2461    92.3075     1.0000     1.0000     1.0000 -1509.8619   168.6613    21.1360     0.0001    19.0000
  1592.4944  2666.3345 2666334.5000    -999.25   151.1120     3.0000    -999.25   114.3738   130.4593   119.8832  1592.4944     1.0546  -736.4515    -999.25     0.3484     0.0001     0.0100  8747.8164     1.3219   130.4593 17019.6309    93.1838     1.0000     1.0000     1.0000 -1510.0144   168.6697    20.1600     0.0001    19.0000
  1592.6468  2565.7769 2565777.0000    -999.25   151.7480     3.0000    -999.25   114.5490   174.6517   151.1471  1592.6467     1.0229  -736.5258    -999.25     0.3468     0.0001     0.0100  8417.9033     1.2774   174.6517 30503.2168    93.6397     1.0000     1.0000     1.0000 -1510.1667   168.6782    18.4820     0.0001    19.0000
  1592.7992  2464.3840 2464384.0000    -999.25   152.2031     3.0000    -999.25   114.6224   299.4595   231.7699  1592.7992     1.0138  -736.6002    -999.25     0.3451     0.0001     0.0100  8085.2495     1.2306   299.4595 89675.9922    93.7218     1.0000     1.0000     1.0000 -1510.3192   168.6867    16.8980     0.0001    19.0000
  1592.9516  2413.6033 2413604.7500    -999.25   152.1346     3.0000    -999.25   114.3908   338.1062   249.3503  1592.9515     1.0022  -736.6745    -999.25     0.3435     0.0001     0.0100  7918.6509     1.2047   338.1062 114315.8047    93.4875     1.0000     1.0000     1.0000 -1510.4716   168.6952    15.9380     0.0001    19.0000
  1593.1040  2392.2190 2392219.0000    -999.25   151.8509     3.0000    -999.25   113.9648   240.3232   188.2383  1593.1040     1.0121  -736.7488    -999.25     0.3419     0.0001     0.0100  7848.4878     1.1918   240.3232 57755.2383    93.4038     1.0000     1.0000     1.0000 -1510.6240   168.7037    14.1230     0.0001    19.0000
  1593.2564  2383.3567 2383356.5000    -999.25   152.0447     3.0000    -999.25   113.5669   184.8445   152.4899  1593.2563     1.1204  -736.8231    -999.25     0.3403     0.0001     0.0100  7819.4111     1.1889   184.8445 34167.4883    93.3473     1.0000     1.0000     1.0000 -1510.7764   168.7122    11.7710     0.0001    19.0000
  1593.4088  2386.7148 2386715.0000    -999.25   152.5970     3.0000    -999.25   113.3905   156.9603   136.1584  1593.4088     1.1944  -736.8975    -999.25     0.3387     0.0001     0.0100  7830.4292     1.1949   156.9603 24636.5352    93.4577     1.0000     1.0000     1.0000 -1510.9288   168.7207    11.2970     0.0001    19.0000
  1593.5612  2414.4385 2414438.7500    -999.25   152.7763     3.0000    -999.25   113.4623   134.5781   123.8430  1593.5612     1.1876  -736.9718    -999.25     0.3370     0.0001     0.0100  7921.3872     1.2102   134.5781 18111.2637    93.4708     1.0000     1.0000     1.0000 -1511.0812   168.7291    12.9650     0.0001    19.0000
  1593.7136  2454.3687 2454368.7500    -999.25   152.4392     3.0000    -999.25   113.5763   113.7398   111.9470  1593.7136     1.1200  -737.0461    -999.25     0.3354     0.0001     0.0100  8052.3906     1.2275   113.7398 12936.7422    93.3889     1.0000     1.0000     1.0000 -1511.2335   168.7376    15.8930     0.0001    19.0000
  1593.8660  2497.3665 2497355.5000    -999.25   152.1091     3.0000    -999.25   113.7452   101.4187   100.1051  1593.8660     1.0241  -737.1205    -999.25     0.3338     0.0001     0.0100  8193.4238     1.2463   101.4187 10285.7529    93.1251     1.0000     1.0000     1.0000 -1511.3860   168.7461    17.2620     0.0001    19.0000
