~Version ---------------------------------------------------
VERS. 2.0 : CWLS log ASCII Standard -VERSION 2.0
WRAP.  NO : 
~Well ------------------------------------------------------
STRT.m                                                   1260.0 : 
STOP.m                                                1659.7452 : 
STEP.m                                                   0.1524 : 
NULL.                                                   -999.25 : 
COMP.                                                           : COMPANY
WELL.                                                    Well-6 : WELL
FLD .                                                           : FIELD
LOC .                                                           : LOCATION
SRVC.                                                           : SERVICE COMPANY
DATE. 2021-01-20 14:34:00   : Log Export Date {yyyy-MM-dd HH:mm : ss}
PROV.                                                           : PROVINCE
UWI .                                                    Well-6 : UNIQUE WELL ID
API .                                                           : API NUMBER
~Curve Information -----------------------------------------
DEPTH             .m        : DEPTH
ACOUSTICIMPEDANCE1.kPa.s/m  : ACOUSTICIMPEDANCE1
AI                .kPa.s/m  : AI
AVG_PIGN          .m3/m3    : AVG_PIGN
CALI              .in       : CALI
CALI[DERIVED]1    .in       : CALI[DERIVED]1
DT                .us/ft    : DT
FACIES            ._        : FACIES
FLD1              ._        : FLD1
GR                .gAPI     : GR
LLD               .ohm.m    : LLD
LLS               .ohm.m    : LLS
LL3               .ohm.m    : LL3
DEPTH_1           .m        : DEPTH_1
NPHI              .m3/m3    : NPHI
ONE-WAYTIME1      .ms       : ONE-WAYTIME1
PERF_INT          ._        : PERF_INT
PERMEABILITY      .mD       : PERMEABILITY
PHIT              .m3/m3    : PHIT
PIGE              .m3/m3    : PIGE
PIGN              .m3/m3    : PIGN
PIGN_MODELLING    .m3/m3    : PIGN_MODELLING
PIMP              .kPa.s/m  : PIMP
RHOB              .g/cm3    : RHOB
LLD_1             .ohm.m    : LLD_1
RT_MODELLING      .ohm.m    : RT_MODELLING
RT_POWER          .ohm.m    : RT_POWER
SP                .mV       : SP
SUWI              ._        : SUWI
SUWI_MODELLING    ._        : SUWI_MODELLING
SXWI              ._        : SXWI
TDVSS             .m        : TDVSS
VCL               .%        : VCL
WATER_VOL         ._        : WATER_VOL
ZLT               ._        : ZLT
~Params ----------------------------------------------------
~Other -----------------------------------------------------
~ASCII -----------------------------------------------------
# ...
  1605.6432  2416.2922 2415779.2500    -999.25     8.8276     8.8276   152.9757     3.0000    -999.25    12.4877    62.7131    53.5204   103.6365  1605.6432     0.9708  -737.2098    -999.25     0.0000     0.0001     0.0001     0.0001     0.0100  7925.7847     1.2127    62.7120    62.7131  3932.9277    41.1019     1.0000     1.0000     1.0000 -1527.9432     0.0000     0.0001    21.0000
  1605.6869  2413.2349 2413235.0000    -999.25     8.8286     8.8286   153.1800     3.0000    -999.25    12.6712    62.4887    53.0705   103.0164  1605.6869     0.9583  -737.2308    -999.25     0.0000     0.0001     0.0001     0.0001     0.0100  7917.4375     1.2128    62.4872    62.4887  3904.9688    41.0945     1.0000     1.0000     1.0000 -1527.9869     0.0000     0.0001    21.0000
  1605.7956  2409.4482 2409045.2500    -999.25     8.8311     8.8311   153.4469     3.0000    -999.25    13.1276    61.9308    51.9514   101.4741  1605.7955     0.9270  -737.2833    -999.25     0.0000     0.0001     0.0001     0.0001     0.0100  7903.6919     1.2130    61.9282    61.9308  3835.4229    41.0760     1.0000     1.0000     1.0000 -1528.0956     0.0000     0.0001    21.0000
  1605.8392  2407.3647 2407364.7500    -999.25     8.8314     8.8314   153.5540     3.0000    -999.25    13.3997    61.5819    51.7107   100.7531  1605.8391     0.9074  -737.3043    -999.25     0.0000     0.0001     0.0001     0.0001     0.0100  7898.1787     1.2128    61.5790    61.5819  3792.6396    41.0607     1.0000     1.0000     1.0000 -1528.1392     0.0000     0.0001    21.0000
  1605.9480  2409.9304 2409814.0000    -999.25     8.8320     8.8320   153.3264     3.0000    -999.25    14.0787    60.7114    51.1103    98.9541  1605.9480     0.8583  -737.3568    -999.25     0.0000     0.0001     0.0001     0.0001     0.0100  7906.2139     1.2123    60.7077    60.7114  3685.8777    41.0225     1.0000     1.0000     1.0000 -1528.2480     0.0000     0.0001    21.0000
  1605.9917  2410.7976 2410797.7500    -999.25     8.8320     8.8320   153.2350     3.0000    -999.25    14.1789    60.3105    51.0256    98.0784  1605.9917     0.8449  -737.3779    -999.25     0.0000     0.0001     0.0001     0.0001     0.0100  7909.4414     1.2120    60.3067    60.3105  3637.7551    41.0011     1.0000     1.0000     1.0000 -1528.2917     0.0000     0.0001    21.0000
  1606.1004  2415.2849 2415868.2500    -999.25     8.8320     8.8320   152.8603     3.0000    -999.25    14.4283    59.3132    50.8149    95.9003  1606.1003     0.8116  -737.4304    -999.25     0.0000     0.0001     0.0001     0.0001     0.0100  7926.0767     1.2113    59.3092    59.3132  3518.0544    40.9479     1.0000     1.0000     1.0000 -1528.4004     0.0000     0.0001    21.0000
  1606.1440  2417.9019 2417902.0000    -999.25     8.8314     8.8314   152.7100     3.0000    -999.25    14.4192    58.9071    50.7544    94.5433  1606.1439     0.8112  -737.4514    -999.25     0.0000     0.0001     0.0001     0.0001     0.0100  7932.7490     1.2114    58.9031    58.9071  3470.4539    40.9183     1.0000     1.0000     1.0000 -1528.4440     0.0000     0.0001    21.0000
  1606.2528  2428.9177 2429175.0000    -999.25     8.8299     8.8299   152.0551     3.0000    -999.25    14.3967    57.8936    50.6034    91.1569  1606.2528     0.8103  -737.5039    -999.25     0.0000     0.0001     0.0001     0.0001     0.0100  7969.7339     1.2117    57.8897    57.8936  3351.6711    40.8444     1.0000     1.0000     1.0000 -1528.5527     0.0000     0.0001    21.0000
  1606.2965  2433.7026 2433702.7500    -999.25     8.8290     8.8290   151.7920     3.0000    -999.25    14.3767    57.4656    50.4975    91.0273  1606.2965     0.8195  -737.5250    -999.25     0.0000     0.0001     0.0001     0.0001     0.0100  7984.5889     1.2120    57.4616    57.4656  3302.7515    40.8111     1.0000     1.0000     1.0000 -1528.5964     0.0000     0.0001    21.0000
  1606.4052  2437.3123 2437609.2500    -999.25     8.8269     8.8269   151.6564     3.0000    -999.25    14.3268    56.4010    50.2342    90.7049  1606.4052     0.8425  -737.5775    -999.25     0.0000     0.0001     0.0001     0.0001     0.0100  7997.4053     1.2127    56.3967    56.4010  3181.0681    40.7285     1.0000     1.0000     1.0000 -1528.7052     0.0000     0.0001    21.0000
  1606.4488  2439.1760 2439176.0000    -999.25     8.8266     8.8266   151.6020     3.0000    -999.25    14.2380    55.9348    50.0177    91.2074  1606.4487     0.8495  -737.5984    -999.25     0.0000     0.0001     0.0001     0.0001     0.0100  8002.5459     1.2132    55.9305    55.9348  3129.2463    40.7065     1.0000     1.0000     1.0000 -1528.7488     0.0000     0.0001    21.0000
  1606.5576  2444.7651 2444883.2500    -999.25     8.8260     8.8260   151.4085     3.0000    -999.25    14.0167    54.7716    49.4775    92.4614  1606.5576     0.8669  -737.6509    -999.25     0.0000     0.0001     0.0001     0.0001     0.0100  8021.2700     1.2144    54.7669    54.7716  2999.9292    40.6515     1.0000     1.0000     1.0000 -1528.8575     0.0000     0.0001    21.0000
  1606.6012  2447.1702 2447170.2500    -999.25     8.8260     8.8260   151.3310     3.0000    -999.25    13.8596    54.2673    49.0465    92.6041  1606.6012     0.8608  -737.6720    -999.25     0.0000     0.0001     0.0001     0.0001     0.0100  8028.7734     1.2150    54.2626    54.2673  2945.5781    40.6301     1.0000     1.0000     1.0000 -1528.9011     0.0000     0.0001    21.0000
  1606.7100  2451.0056 2451006.2500    -999.25     8.8260     8.8260   151.2717     3.0000    -999.25    13.4677    53.0090    47.9711    92.9602  1606.7100     0.8456  -737.7245    -999.25     0.0000     0.0001     0.0001     0.0001     0.0100  8041.3589     1.2164    53.0039    53.0090  2809.9500    40.5769     1.0000     1.0000     1.0000 -1529.0100     0.0000     0.0001    21.0000
  1606.7536  2452.5435 2452543.5000    -999.25     8.8266     8.8266   151.2480     3.0000    -999.25    13.3280    52.5168    47.4713    92.2097  1606.7535     0.8309  -737.7455    -999.25     0.0000     0.0001     0.0001     0.0001     0.0100  8046.4023     1.2170    52.5118    52.5168  2758.6135    40.5469     1.0000     1.0000     1.0000 -1529.0536     0.0000     0.0001    21.0000
  1606.8624  2455.0850 2454788.5000    -999.25     8.8281     8.8281   151.2687     3.0000    -999.25    12.9792    51.2885    46.2242    90.3368  1606.8624     0.7943  -737.7980    -999.25     0.0000     0.0001     0.0001     0.0001     0.0100  8053.7676     1.2184    51.2838    51.2885  2630.5081    40.4719     1.0000     1.0000     1.0000 -1529.1624     0.0000     0.0001    21.0000
  1606.9060  2455.6880 2455688.0000    -999.25     8.8290     8.8290   151.2770     3.0000    -999.25    12.8363    50.8645    45.8682    89.8133  1606.9060     0.7831  -737.8190    -999.25     0.0000     0.0001     0.0001     0.0001     0.0100  8056.7192     1.2188    50.8600    50.8645  2587.6450    40.4464     1.0000     1.0000     1.0000 -1529.2059     0.0000     0.0001    21.0000
  1607.0148  2456.1960 2455788.7500    -999.25     8.8311     8.8311   151.3591     3.0000    -999.25    12.4797    49.8065    44.9799    88.5070  1607.0148     0.7552  -737.8715    -999.25     0.0000     0.0001     0.0001     0.0001     0.0100  8057.0503     1.2197    49.8026    49.8065  2480.6843    40.3826     1.0000     1.0000     1.0000 -1529.3148     0.0000     0.0001    21.0000
  1607.0584  2455.8293 2455829.2500    -999.25     8.8320     8.8320   151.3920     3.0000    -999.25    12.3732    49.4465    44.8496    87.6639  1607.0583     0.7542  -737.8926    -999.25     0.0000     0.0001     0.0001     0.0001     0.0100  8057.1826     1.2198    49.4427    49.4465  2445.2751    40.3635     1.0000     1.0000     1.0000 -1529.3584     0.0000     0.0001    21.0000
  1607.1672  2458.6348 2458516.2500    -999.25     8.8341     8.8341   151.2449     3.0000    -999.25    12.1073    48.5481    44.5247    85.5600  1607.1672     0.7517  -737.9451    -999.25     0.0000     0.0001     0.0001     0.0001     0.0100  8065.9980     1.2200    48.5447    48.5481  2356.9150    40.3158     1.0000     1.0000     1.0000 -1529.4672     0.0000     0.0001    21.0000
