~Version ---------------------------------------------------
VERS. 2.0 : CWLS log ASCII Standard -VERSION 2.0
WRAP.  NO : 
~Well ------------------------------------------------------
STRT.m                                                1236.0668 : 
STOP.m                                                1579.8812 : 
STEP.m                                                   0.1524 : 
NULL.                                                   -999.25 : 
COMP.                                                           : COMPANY
WELL.                                                   Well-17 : WELL
FLD .                                                           : FIELD
LOC .                                                           : LOCATION
SRVC.                                                           : SERVICE COMPANY
DATE. 2021-01-20 14:34:08   : Log Export Date {yyyy-MM-dd HH:mm : ss}
PROV.                                                           : PROVINCE
UWI .                                                   Well-17 : UNIQUE WELL ID
API .                                                           : API NUMBER
~Curve Information -----------------------------------------
DEPTH             .m        : DEPTH
ACOUSTICIMPEDANCE1.kPa.s/m  : ACOUSTICIMPEDANCE1
AI                .kPa.s/m  : AI
AVG_PIGN          .m3/m3    : AVG_PIGN
CALI              .in       : CALI
NPHI              .m3/m3    : NPHI
DT                .us/ft    : DT
FACIES            ._        : FACIES
FLD1              ._        : FLD1
GR                .gAPI     : GR
M2R2              .ohm.m    : M2R2
LLS               .ohm.m    : LLS
LLD               .ohm.m    : LLD
DEPTH_1           .m        : DEPTH_1
NPHI_1            .m3/m3    : NPHI_1
PERF_INT          ._        : PERF_INT
PERMEABILITY      .mD       : PERMEABILITY
PHIT              .m3/m3    : PHIT
PIGN              .m3/m3    : PIGN
PIGN_MODELLING    .m3/m3    : PIGN_MODELLING
PIMP              .kPa.s/m  : PIMP
RHOB              .g/cm3    : RHOB
RT_MODELLING      .ohm.m    : RT_MODELLING
RT_POWER          .ohm.m    : RT_POWER
SP                .mV       : SP
SUWI              ._        : SUWI
SUWI_MODELLING    ._        : SUWI_MODELLING
SXWI              ._        : SXWI
TDVSS             .m        : TDVSS
VCL               .%        : VCL
WATER_VOL         ._        : WATER_VOL
RHOB_1            .g/cm3    : RHOB_1
ZLT               ._        : ZLT
~Params ----------------------------------------------------
~Other -----------------------------------------------------
~ASCII -----------------------------------------------------
# ...
  1350.0620  4975.3345 4975334.5000    -999.25     9.5926     0.5317   137.2090     0.0000    -999.25    64.0087     0.9826     0.9679     0.9739  1350.0620     0.5317    -999.25    -999.25     0.2183     0.0343     0.0343 16323.2754     2.2397     0.9739     0.9485   229.8909     1.0000     1.0000     1.0000 -1276.5720    82.8520     0.0343     2.2397    -999.25
  1350.2144  5025.1870 5025187.0000    -999.25     9.6068     0.5404   136.5581     0.0000    -999.25    65.0169     0.9706     0.9563     0.9616  1350.2145     0.5404    -999.25    -999.25     0.2182     0.0342     0.0342 16486.8340     2.2514     0.9616     0.9247   229.9735     1.0000     1.0000     1.0000 -1276.7245    82.9260     0.0342     2.2514    -999.25
  1350.3668  5116.1646 5116164.5000    -999.25     9.6358     0.5685   134.8035     0.0000    -999.25    65.8512     0.9734     0.9587     0.9637  1350.3668     0.5685    -999.25    -999.25     0.2182     0.0342     0.0342 16785.3164     2.2627     0.9637     0.9287   230.0738     1.0000     1.0000     1.0000 -1276.8768    82.9270     0.0342     2.2627    -999.25
  1350.5192  5192.3965 5192396.5000    -999.25     9.6534     0.5974   133.0956     0.0000    -999.25    65.7328     0.9955     0.9798     0.9848  1350.5193     0.5974    -999.25    -999.25     0.2182     0.0342     0.0342 17035.4219     2.2673     0.9848     0.9699   230.1208     1.0000     1.0000     1.0000 -1277.0293    82.9270     0.0342     2.2673    -999.25
  1350.6716  5201.8223 5201822.5000    -999.25     9.6624     0.5944   132.5785     0.0000    -999.25    65.6222     1.0433     1.0259     1.0309  1350.6716     0.5944    -999.25    -999.25     0.2182     0.0342     0.0342 17066.3477     2.2626     1.0309     1.0629   230.1092     1.0000     1.0000     1.0000 -1277.1816    82.9270     0.0342     2.2626    -999.25
  1350.8240  5141.6992 5141699.0000    -999.25     9.6737     0.5680   132.8578     0.0000    -999.25    66.5803     1.0949     1.0769     1.0819  1350.8241     0.5680    -999.25    -999.25     0.2182     0.0342     0.0342 16869.0918     2.2412     1.0819     1.1706   230.0946     1.0000     1.0000     1.0000 -1277.3340    82.9270     0.0342     2.2412    -999.25
  1350.9764  5038.5156 5038515.5000    -999.25     9.6760     0.5471   133.1939     0.0000    -999.25    68.0034     1.1036     1.0876     1.0926  1350.9764     0.5471    -999.25    -999.25     0.2182     0.0342     0.0342 16530.5625     2.2018     1.0926     1.1938   230.1491     1.0000     1.0000     1.0000 -1277.4865    82.9270     0.0342     2.2018    -999.25
  1351.1288  4910.8486 4910849.0000    -999.25     9.6434     0.5537   134.2806     0.0000    -999.25    68.2258     1.0731     1.0601     1.0645  1351.1288     0.5537    -999.25    -999.25     0.2293     0.0479     0.0479 16111.7090     2.1635     1.0645     1.1331   230.3026     1.0000     1.0000     1.0000 -1277.6388    81.7470     0.0479     2.1635    -999.25
  1351.2812  4874.6509 4874651.0000    -999.25     9.5810     0.5893   134.2235     0.0000    -999.25    67.6790     1.0539     1.0433     1.0473  1351.2812     0.5893    -999.25    -999.25     0.2523     0.0763     0.0763 15992.9492     2.1466     1.0473     1.0968   230.4876     1.0000     1.0000     1.0000 -1277.7913    79.3070     0.0763     2.1466    -999.25
  1351.4336  4890.7700 4890770.0000    -999.25     9.5264     0.6207   133.9519     0.0000    -999.25    68.1294     1.0698     1.0598     1.0638  1351.4336     0.6207    -999.25    -999.25     0.2678     0.0954     0.0954 16045.8330     2.1494     1.0638     1.1317   230.5836     1.0000     1.0000     1.0000 -1277.9436    77.6650     0.0954     2.1494    -999.25
  1351.5860  4875.0303 4875030.5000    -999.25     9.5177     0.6114   134.7589     0.0000    -999.25    69.3674     1.1072     1.0972     1.1012  1351.5861     0.6114    -999.25    -999.25     0.2611     0.0872     0.0872 15994.1943     2.1554     1.1012     1.2127   230.5305     1.0000     1.0000     1.0000 -1278.0961    78.3710     0.0872     2.1554    -999.25
  1351.7384  4876.8560 4876855.5000    -999.25     9.5412     0.5855   134.6847     0.0000    -999.25    69.3628     1.1526     1.1406     1.1446  1351.7384     0.5855    -999.25    -999.25     0.2490     0.0722     0.0722 16000.1826     2.1550     1.1446     1.3100   230.3885     1.0000     1.0000     1.0000 -1278.2484    79.6590     0.0722     2.1550    -999.25
  1351.8908  4852.5522 4852552.0000    -999.25     9.5503     0.5840   134.5383     0.0000    -999.25    67.2890     1.2123     1.1973     1.2013  1351.8909     0.5840    -999.25    -999.25     0.2554     0.0802     0.0802 15920.4473     2.1419     1.2013     1.4432   230.2473     1.0000     1.0000     1.0000 -1278.4009    78.9750     0.0802     2.1419    -999.25
  1352.0432  4773.6030 4773603.0000    -999.25     9.5251     0.6036   133.5121     3.0000    -999.25    63.5696     1.3267     1.3080     1.3127  1352.0432     0.6036    -999.25    -999.25     0.1382     0.0348     0.0348 15661.4277     2.0910     1.3127     1.7232   230.1247     1.0000     1.0000     1.0000 -1278.5532    82.9740     0.0348     2.0910    -999.25
  1352.1956  4609.6558 4609655.5000    -999.25     9.4458     0.6206   130.5871     3.0000    -999.25    58.7202     1.5695     1.5448     1.5505  1352.1957     0.6206    -999.25    -999.25     0.0710     0.0100     0.0100 15123.5420     1.9749     1.5505     2.4040   229.9624     1.0000     1.0000     1.0000 -1278.7057    76.2200     0.0100     1.9749    -999.25
  1352.3480  4382.3467 4382347.0000    -999.25     9.3633     0.6284   128.2312     3.0000    -999.25    54.3773     1.8931     1.8607     1.8687  1352.3480     0.6284    -999.25    -999.25     0.0595     0.0100     0.0100 14377.7783     1.8437     1.8687     3.4921   229.7172     1.0000     1.0000     1.0000 -1278.8580    63.8830     0.0100     1.8437    -999.25
  1352.5004  4258.1045 4258104.5000    -999.25     9.3854     0.6344   128.7007     3.0000    -999.25    55.5386     1.9724     1.9448     1.9538  1352.5005     0.6344    -999.25    -999.25     0.0557     0.0100     0.0100 13970.1592     1.7980     1.9538     3.8174   229.4570     1.0000     1.0000     1.0000 -1279.0105    59.7510     0.0100     1.7980    -999.25
  1352.6528  4426.7554 4426755.5000    -999.25     9.5021     0.6329   129.6756     3.0000    -999.25    65.1868     1.7454     1.7294     1.7371  1352.6528     0.6329    -999.25    -999.25     0.0637     0.0100     0.0100 14523.4756     1.8833     1.7371     3.0175   229.3243     1.0000     1.0000     1.0000 -1279.1628    68.3820     0.0100     1.8833    -999.25
  1352.8052  4807.5396 4807539.5000    -999.25     9.5561     0.5935   129.8187     3.0000    -999.25    78.6177     1.5526     1.5433     1.5497  1352.8053     0.5935    -999.25    -999.25     0.0757     0.0100     0.0100 15772.7666     2.0476     1.5497     2.4014   229.3504     1.0000     1.0000     1.0000 -1279.3152    81.2360     0.0100     2.0476    -999.25
  1352.9576  5161.9331 5161933.0000    -999.25     9.4646     0.5180   129.3722     3.0000    -999.25    88.2667     1.5433     1.5332     1.5399  1352.9576     0.5180    -999.25    -999.25     0.1762     0.0308     0.0308 16935.4766     2.1910     1.5399     2.3714   229.4106     1.0000     1.0000     1.0000 -1279.4677    81.4620     0.0308     2.1910    -999.25
  1353.1100  5449.4834 5449483.5000    -999.25     9.3239     0.4581   127.0946     0.0000    -999.25    91.6751     1.6285     1.6128     1.6205  1353.1100     0.4581    -999.25    -999.25     0.2275     0.0475     0.0475 17878.8828     2.2723     1.6205     2.6260   229.3662     1.0000     1.0000     1.0000 -1279.6200    76.2410     0.0475     2.2723    -999.25
  1353.2624  5655.1069 5655107.0000    -999.25     9.2464     0.4465   124.9107     0.0000    -999.25    91.0860     1.7070     1.6823     1.6910  1353.2625     0.4465    -999.25    -999.25     0.2305     0.0517     0.0517 18553.5000     2.3175     1.6910     2.8594   229.1667     1.0000     1.0000     1.0000 -1279.7725    74.1390     0.0517     2.3175     0.0000
