~Version ---------------------------------------------------
VERS. 2.0 : CWLS log ASCII Standard -VERSION 2.0
WRAP.  NO : 
~Well ------------------------------------------------------
STRT.m                                                   1260.0 : 
STOP.m                                                1659.7452 : 
STEP.m                                                   0.1524 : 
NULL.                                                   -999.25 : 
COMP.                                                           : COMPANY
WELL.                                                    Well-6 : WELL
FLD .                                                           : FIELD
LOC .                                                           : LOCATION
SRVC.                                                           : SERVICE COMPANY
DATE. 2021-01-20 14:34:00   : Log Export Date {yyyy-MM-dd HH:mm : ss}
PROV.                                                           : PROVINCE
UWI .                                                    Well-6 : UNIQUE WELL ID
API .                                                           : API NUMBER
~Curve Information -----------------------------------------
DEPTH             .m        : DEPTH
ACOUSTICIMPEDANCE1.kPa.s/m  : ACOUSTICIMPEDANCE1
AI                .kPa.s/m  : AI
AVG_PIGN          .m3/m3    : AVG_PIGN
CALI              .in       : CALI
CALI[DERIVED]1    .in       : CALI[DERIVED]1
DT                .us/ft    : DT
FACIES            ._        : FACIES
FLD1              ._        : FLD1
GR                .gAPI     : GR
LLD               .ohm.m    : LLD
LLS               .ohm.m    : LLS
LL3               .ohm.m    : LL3
DEPTH_1           .m        : DEPTH_1
NPHI              .m3/m3    : NPHI
ONE-WAYTIME1      .ms       : ONE-WAYTIME1
PERF_INT          ._        : PERF_INT
PERMEABILITY      .mD       : PERMEABILITY
PHIT              .m3/m3    : PHIT
PIGE              .m3/m3    : PIGE
PIGN              .m3/m3    : PIGN
PIGN_MODELLING    .m3/m3    : PIGN_MODELLING
PIMP              .kPa.s/m  : PIMP
RHOB              .g/cm3    : RHOB
LLD_1             .ohm.m    : LLD_1
RT_MODELLING      .ohm.m    : RT_MODELLING
RT_POWER          .ohm.m    : RT_POWER
SP                .mV       : SP
SUWI              ._        : SUWI
SUWI_MODELLING    ._        : SUWI_MODELLING
SXWI              ._        : SXWI
TDVSS             .m        : TDVSS
VCL               .%        : VCL
WATER_VOL         ._        : WATER_VOL
ZLT               ._        : ZLT
~Params ----------------------------------------------------
~Other -----------------------------------------------------
~ASCII -----------------------------------------------------
# ...
  1578.4072  6548.8970 6548897.0000    -999.25     8.9983     8.9983   116.0530     0.0000    -999.25    48.2365     2.9394     2.8605     3.4828  1578.4072     0.5538  -724.0688    -999.25     0.0098     0.2404     0.0568     0.0568     0.0568 21485.8828     2.4935     2.9393     2.9394     8.6403    43.8898     1.0000     1.0000     1.0000 -1500.7072    77.7744     0.0568    20.0000
  1578.5160  6441.4292 6425598.0000    -999.25     9.0354     9.0354   118.4723     0.0000    -999.25    49.1849     2.9136     2.8831     3.5676  1578.5160     0.5369  -724.1213    -999.25     0.0323     0.2395     0.0613     0.0613     0.0613 21081.3574     2.5037     2.9135     2.9136     8.4890    43.9547     1.0000     1.0000     1.0000 -1500.8160    75.2350     0.0613    20.0000
  1578.5597  6376.0742 6376074.5000    -999.25     9.0520     9.0520   119.4440     0.0000    -999.25    49.7240     2.9020     2.8899     3.6146  1578.5597     0.5314  -724.1424    -999.25     0.0485     0.2409     0.0640     0.0640     0.0640 20918.8789     2.4986     2.9019     2.9020     8.4217    43.9697     1.0000     1.0000     1.0000 -1500.8597    74.2429     0.0640    20.0000
  1578.6684  6253.6899 6238918.5000    -999.25     9.0934     9.0934   121.1662     0.0000    -999.25    51.0648     2.8730     2.9069     3.7315  1578.6683     0.5179  -724.1948    -999.25     0.0886     0.2443     0.0707     0.0707     0.0707 20468.8926     2.4860     2.8729     2.8730     8.2542    44.0070     1.0000     1.0000     1.0000 -1500.9684    71.7750     0.0707    20.0000
  1578.7120  6183.9048 6183904.5000    -999.25     9.1263     9.1263   121.8570     0.0000    -999.25    51.6006     2.8604     2.9026     3.7770  1578.7119     0.5157  -724.2159    -999.25     0.0850     0.2476     0.0736     0.0736     0.0736 20288.4004     2.4723     2.8603     2.8604     8.1822    44.0278     1.0000     1.0000     1.0000 -1501.0120    70.8481     0.0736    20.0000
  1578.8208  6083.3384 6079709.5000    -999.25     9.2085     9.2085   122.1552     0.0000    -999.25    52.9376     2.8289     2.8920     3.8905  1578.8208     0.5102  -724.2684    -999.25     0.0759     0.2559     0.0810     0.0810     0.0810 19946.5527     2.4380     2.8288     2.8289     8.0026    44.0797     1.0000     1.0000     1.0000 -1501.1207    68.5350     0.0810    20.0000
  1578.8645  6037.8589 6037859.0000    -999.25     9.2389     9.2389   122.2750     0.0000    -999.25    53.5047     2.8178     2.8735     3.9263  1578.8645     0.5113  -724.2894    -999.25     0.0559     0.2604     0.0830     0.0830     0.0830 19809.2480     2.4222     2.8177     2.8178     7.9404    44.0950     1.0000     1.0000     1.0000 -1501.1644    67.8236     0.0830    20.0000
  1578.9732  5986.8364 5998948.5000    -999.25     9.3144     9.3144   121.3093     0.0000    -999.25    54.9155     2.7903     2.8276     4.0152  1578.9731     0.5140  -724.3419    -999.25     0.0061     0.2716     0.0880     0.0880     0.0880 19681.5898     2.3827     2.7902     2.7903     7.7858    44.1333     1.0000     1.0000     1.0000 -1501.2732    66.0540     0.0880    20.0000
  1579.0168  5983.3418 5983341.5000    -999.25     9.3485     9.3485   120.9220     0.0000    -999.25    55.6149     2.7837     2.7997     3.9959  1579.0167     0.5187  -724.3629    -999.25     0.0131     0.2751     0.0866     0.0866     0.0866 19630.3848     2.3737     2.7836     2.7837     7.7490    44.1391     1.0000     1.0000     1.0000 -1501.3168    66.6119     0.0866    20.0000
  1579.1256  5855.9028 5879390.5000    -999.25     9.4338     9.4338   122.3853     0.0000    -999.25    57.3603     2.7671     2.7301     3.9478  1579.1256     0.5303  -724.4154    -999.25     0.0306     0.2838     0.0830     0.0830     0.0830 19289.3379     2.3513     2.7671     2.7671     7.6571    44.1536     1.0000     1.0000     1.0000 -1501.4255    68.0040     0.0830    20.0000
  1579.1693  5837.6382 5837638.0000    -999.25     9.4410     9.4410   122.9730     0.0000    -999.25    58.1349     2.7669     2.7047     3.8492  1579.1693     0.5377  -724.4365    -999.25     0.0438     0.2839     0.0791     0.0791     0.0791 19152.3555     2.3552     2.7669     2.7669     7.6557    44.1480     1.0000     1.0000     1.0000 -1501.4692    69.5088     0.0791    20.0000
  1579.2780  5773.9224 5793074.0000    -999.25     9.4589     9.4589   124.8451     0.0000    -999.25    60.0615     2.7663     2.6415     3.6039  1579.2780     0.5560  -724.4890    -999.25     0.0765     0.2840     0.0693     0.0693     0.0693 19006.1504     2.3650     2.7663     2.7663     7.6523    44.1342     1.0000     1.0000     1.0000 -1501.5780    73.2520     0.0693    20.0000
  1579.3216  5775.1997 5775199.5000    -999.25     9.4420     9.4420   125.5960     0.0000    -999.25    61.0810     2.7721     2.6311     3.5284  1579.3215     0.5636  -724.5100    -999.25     0.0674     0.2811     0.0642     0.0642     0.0642 18947.5059     2.3797     2.7721     2.7721     7.6845    44.1111     1.0000     1.0000     1.0000 -1501.6216    75.2446     0.0642    20.0000
  1579.4304  5798.0547 5800468.5000    -999.25     9.3998     9.3998   127.0360     0.0000    -999.25    63.6251     2.7866     2.6051     3.3400  1579.4304     0.5826  -724.5625    -999.25     0.0448     0.2738     0.0513     0.0513     0.0513 19030.4082     2.4165     2.7866     2.7866     7.7649    44.0536     1.0000     1.0000     1.0000 -1501.7303    80.2170     0.0513    20.0000
  1579.4740  5810.5947 5810595.0000    -999.25     9.3600     9.3600   127.6130     0.0000    -999.25    64.3165     2.7977     2.6167     3.3086  1579.4740     0.5884  -724.5835    -999.25     0.0359     0.2720     0.0467     0.0467     0.0467 19063.6309     2.4328     2.7978     2.7977     7.8273    44.0107     1.0000     1.0000     1.0000 -1501.7739    82.0039     0.0467    20.0000
  1579.5828  5922.2524 5908242.5000    -999.25     9.2609     9.2609   127.2910     0.0000    -999.25    66.0419     2.8254     2.6457     3.2302  1579.5828     0.6029  -724.6360    -999.25     0.0140     0.2675     0.0351     0.0351     0.0351 19383.9961     2.4733     2.8255     2.8254     7.9829    43.9037     1.0000     1.0000     1.0000 -1501.8828    86.4630     0.0351    20.0000
  1579.6264  5947.3730 5947373.0000    -999.25     9.2238     9.2238   127.1620     0.0000    -999.25    66.4210     2.8394     2.6785     3.2590  1579.6263     0.6062  -724.6570    -999.25     0.0126     0.2635     0.0339     0.0339     0.0339 19512.3789     2.4812     2.8396     2.8394     8.0628    43.8467     1.0000     1.0000     1.0000 -1501.9264    86.9330     0.0339    20.0000
  1579.7352  6088.8999 6069714.0000    -999.25     9.1312     9.1312   125.2023     0.0000    -999.25    67.3670     2.8744     2.7604     3.3310  1579.7352     0.6144  -724.7095    -999.25     0.0093     0.2535     0.0308     0.0308     0.0308 19913.7598     2.5011     2.8745     2.8744     8.2622    43.7044     1.0000     1.0000     1.0000 -1502.0352    88.1060     0.0308    20.0000
  1579.7788  6118.7407 6118740.5000    -999.25     9.0870     9.0870   124.4170     2.0000    -999.25    67.4777     2.8912     2.8061     3.4286  1579.7788     0.6152  -724.7306    -999.25     0.0097     0.2532     0.0308     0.0308     0.0308 20074.6074     2.4976     2.8914     2.8912     8.3600    43.6277     1.0000     1.0000     1.0000 -1502.0787    88.1060     0.0308    20.0000
  1579.8876  6110.8340 6096336.0000    -999.25     8.9767     8.9767   124.1414     2.0000    -999.25    67.7540     2.9332     2.9203     3.6719  1579.8876     0.6170  -724.7831    -999.25     0.0106     0.2527     0.0308     0.0308     0.0308 20001.1016     2.4889     2.9334     2.9332     8.6040    43.4363     1.0000     1.0000     1.0000 -1502.1876    88.1060     0.0308    20.0000
  1579.9312  6087.3579 6087358.0000    -999.25     8.9562     8.9562   124.0310     2.0000    -999.25    67.6701     2.9567     2.9675     3.8126  1579.9312     0.6156  -724.8041    -999.25     0.4504     0.2527     0.0658     0.0658     0.0658 19971.6465     2.4771     2.9569     2.9567     8.7435    43.3412     1.0000     1.0000     1.0000 -1502.2312    81.2516     0.0658    20.0000
