~Version ---------------------------------------------------
VERS. 2.0 : CWLS log ASCII Standard -VERSION 2.0
WRAP.  NO : 
~Well ------------------------------------------------------
STRT.m                                                1171.1084 : 
STOP.m                                                  1705.88 : 
STEP.m                                                   0.1524 : 
NULL.                                                   -999.25 : 
COMP.                                                           : COMPANY
WELL.                                                   Well-12 : WELL
FLD .                                                           : FIELD
LOC .                                                           : LOCATION
SRVC.                                                           : SERVICE COMPANY
DATE. 2021-01-20 14:34:05   : Log Export Date {yyyy-MM-dd HH:mm : ss}
PROV.                                                           : PROVINCE
UWI .                                                   Well-12 : UNIQUE WELL ID
API .                                                           : API NUMBER
~Curve Information -----------------------------------------
DEPTH             .m        : DEPTH
ACOUSTICIMPEDANCE1.kPa.s/m  : ACOUSTICIMPEDANCE1
AI                .kPa.s/m  : AI
AVG_PIGN          .m3/m3    : AVG_PIGN
DT                .us/ft    : DT
FACIES            ._        : FACIES
FLD1              ._        : FLD1
GR                .gAPI     : GR
HDRS              .ohm.m    : HDRS
HMRS              .ohm.m    : HMRS
DEPTH_1           .m        : DEPTH_1
NPHI              .m3/m3    : NPHI
ONE-WAYTIME1      .ms       : ONE-WAYTIME1
PERF_INT          ._        : PERF_INT
PERMEABILITY      .mD       : PERMEABILITY
PIGN              .m3/m3    : PIGN
PIGN_MODELLING    .m3/m3    : PIGN_MODELLING
PIMP              .kPa.s/m  : PIMP
RHOB              .g/cm3    : RHOB
RT_MODELLING      .ohm.m    : RT_MODELLING
RT_POWER          .ohm.m    : RT_POWER
SP                .mV       : SP
SUWI              ._        : SUWI
SUWI_MODELLING    ._        : SUWI_MODELLING
SXWI              ._        : SXWI
TDVSS             .m        : TDVSS
TEMP              .K        : TEMP
VCL               .%        : VCL
WATER_VOL         ._        : WATER_VOL
ZLT               ._        : ZLT
~Params ----------------------------------------------------
~Other -----------------------------------------------------
~ASCII -----------------------------------------------------
# ...
  1521.6284  5336.7188 5336719.0000    -999.25   132.5610     0.0000    -999.25   204.8965     1.2473     1.2942  1521.6284     0.6157  -701.8893    -999.25     0.5598     0.0480     0.0480 17508.9199     2.3210     1.2473     1.5558    93.1797     1.0000     1.0000     1.0000 -1439.1483   164.7239    75.9830     0.0480    12.0000
  1521.7808  5459.4941 5459566.5000    -999.25   130.2555     0.0000    -999.25   204.6222     1.2380     1.3712  1521.7808     0.6195  -701.9637    -999.25     0.5688     0.0548     0.0548 17911.9629     2.3331     1.2380     1.5326    93.4992     1.0000     1.0000     1.0000 -1439.3008   164.7324    72.6200     0.0548    12.0000
  1521.9332  5905.5728 5905572.5000    -999.25   123.2088     0.0000    -999.25   202.1456     1.3726     1.5797  1521.9332     0.6226  -702.0380    -999.25     0.6606     0.0600     0.0600 19375.2383     2.3872     1.3726     1.8840    93.4657     1.0000     1.0000     1.0000 -1439.4531   164.7409    69.9730     0.0600    12.0000
  1522.0856  6459.0044 6458993.0000    -999.25   114.8461     0.0000    -999.25   198.4102     1.6516     1.8599  1522.0856     0.6170  -702.1123    -999.25     0.7569     0.0567     0.0567 21190.9219     2.4337     1.6516     2.7278    93.3192     1.0000     1.0000     1.0000 -1439.6056   164.7494    71.6410     0.0567    12.0000
  1522.2380  6454.3203 6454320.5000    -999.25   116.1337     0.0000    -999.25   196.2065     1.8044     1.9703  1522.2379     0.6171  -702.1866    -999.25     0.7288     0.0450     0.0450 21175.5918     2.4592     1.8044     3.2559    93.0402     1.0000     1.0000     1.0000 -1439.7579   164.7579    77.4810     0.0450    12.0000
  1522.3904  6002.4600 6002460.0000    -999.25   125.3738     0.0000    -999.25   197.1121     1.5513     1.8110  1522.3904     0.6371  -702.2610    -999.25     0.6628     0.0390     0.0390 19693.1094     2.4690     1.5513     2.4065    92.5293     1.0000     1.0000     1.0000 -1439.9104   164.7664    80.4990     0.0390    12.0000
  1522.5428  5726.4009 5726401.0000    -999.25   129.9328     0.0000    -999.25   199.5944     1.3636     1.5676  1522.5427     0.6280  -702.3353    -999.25     0.6385     0.0443     0.0443 18787.4043     2.4411     1.3636     1.8594    91.8910     1.0000     1.0000     1.0000 -1440.0627   164.7748    77.8350     0.0443    12.0000
  1522.6952  5765.7866 5765794.0000    -999.25   127.3272     0.0000    -999.25   200.5489     1.3239     1.4144  1522.6952     0.6278  -702.4096    -999.25     0.6141     0.0495     0.0495 18916.6484     2.4086     1.3239     1.7527    91.1083     1.0000     1.0000     1.0000 -1440.2152   164.7833    75.2530     0.0495    12.0000
  1522.8476  6062.7451 6062745.0000    -999.25   121.8849     0.0000    -999.25   198.5182     1.4018     1.4836  1522.8475     0.6563  -702.4839    -999.25     0.5898     0.0485     0.0485 19890.8945     2.4244     1.4018     1.9650    90.5137     1.0000     1.0000     1.0000 -1440.3676   164.7918    75.7300     0.0485    12.0000
  1523.0000  6395.8784 6395878.5000    -999.25   118.0908     0.0000    -999.25   194.5560     1.4920     1.6525  1523.0000     0.6812  -702.5583    -999.25     0.5654     0.0492     0.0492 20983.8535     2.4780     1.4920     2.2261    90.0878     1.0000     1.0000     1.0000 -1440.5200   164.8003    75.4210     0.0492    12.0000
  1523.1524  6464.6616 6464661.5000    -999.25   117.0748     0.0000    -999.25   190.2173     1.5372     1.7479  1523.1523     0.6526  -702.6326    -999.25     0.5411     0.0564     0.0564 21209.5195     2.4831     1.5372     2.3630    90.0398     1.0000     1.0000     1.0000 -1440.6724   164.8088    71.7830     0.0564    12.0000
  1523.3048  6350.9224 6350922.5000    -999.25   117.6789     0.0000    -999.25   186.3849     1.5422     1.7548  1523.3048     0.6269  -702.7069    -999.25     0.5167     0.0594     0.0594 20836.3594     2.4520     1.5422     2.3784    90.1435     1.0000     1.0000     1.0000 -1440.8248   164.8173    70.3150     0.0594    12.0000
  1523.4572  6255.8359 6255836.0000    -999.25   118.3226     0.0000    -999.25   183.5773     1.5835     1.7579  1523.4572     0.6703  -702.7812    -999.25     0.4924     0.0542     0.0542 20524.3965     2.4285     1.5835     2.5075    90.3846     1.0000     1.0000     1.0000 -1440.9772   164.8257    72.9100     0.0542    12.0000
  1523.6096  6216.6807 6216680.5000    -999.25   118.3128     0.0000    -999.25   182.2712     1.6979     1.8165  1523.6096     0.7224  -702.8556    -999.25     0.4681     0.0527     0.0527 20395.9336     2.4131     1.6979     2.8829    90.4875     1.0000     1.0000     1.0000 -1441.1295   164.8342    73.6310     0.0527    12.0000
  1523.7620  6259.4204 6259437.0000    -999.25   117.5147     0.0000    -999.25   182.7154     1.8139     1.9206  1523.7620     0.6969  -702.9299    -999.25     0.4437     0.0593     0.0593 20536.2109     2.4133     1.8139     3.2902    90.4664     1.0000     1.0000     1.0000 -1441.2820   164.8427    70.3560     0.0593    12.0000
  1523.9144  6358.3726 6358372.5000    -999.25   116.1173     0.0000    -999.25   184.5921     1.7352     1.9451  1523.9144     0.6434  -703.0043    -999.25     0.4194     0.0644     0.0644 20860.8027     2.4223     1.7352     3.0109    90.2091     1.0000     1.0000     1.0000 -1441.4343   164.8512    67.8250     0.0644    12.0000
  1524.0668  6421.1763 6421171.5000    -999.25   115.7126     0.0000    -999.25   186.9478     1.5620     1.7786  1524.0668     0.6084  -703.0786    -999.25     0.3950     0.0643     0.0643 21066.8359     2.4377     1.5620     2.4398    89.7902     1.0000     1.0000     1.0000 -1441.5868   164.8597    67.8290     0.0643    12.0000
  1524.2192  6353.5815 6353581.5000    -999.25   117.5625     0.0000    -999.25   188.5062     1.4641     1.5911  1524.2191     0.5883  -703.1529    -999.25     0.3707     0.0629     0.0629 20845.0840     2.4506     1.4641     2.1436    89.1724     1.0000     1.0000     1.0000 -1441.7391   164.8682    68.5560     0.0629    12.0000
  1524.3716  6226.0415 6226041.5000    -999.25   120.1421     0.0000    -999.25   188.2199     1.4748     1.5445  1524.3716     0.5902  -703.2272    -999.25     0.3464     0.0617     0.0617 20426.6445     2.4541     1.4748     2.1750    88.4011     1.0000     1.0000     1.0000 -1441.8916   164.8767    69.1240     0.0617    12.0000
  1524.5240  6247.3110 6247311.0000    -999.25   120.6942     0.0000    -999.25   185.7166     1.5803     1.6569  1524.5239     0.6093  -703.3016    -999.25     0.3220     0.0601     0.0601 20496.4277     2.4738     1.5803     2.4973    87.3804     1.0000     1.0000     1.0000 -1442.0439   164.8852    69.9430     0.0601    12.0000
  1524.6764  6533.6279 6533628.0000    -999.25   118.2695     0.0000    -999.25   181.1952     1.7376     1.8554  1524.6764     0.6415  -703.3759    -999.25     0.2977     0.0569     0.0569 21435.7871     2.5352     1.7376     3.0193    86.0760     1.0000     1.0000     1.0000 -1442.1964   164.8936    71.5440     0.0569    12.0000
  1524.8288  7086.0864 7086086.5000    -999.25   112.9286     0.0000    -999.25   175.3761     1.9093     2.0765  1524.8287     0.6804  -703.4502    -999.25     0.2733     0.0557     0.0557 23248.3164     2.6254     1.9093     3.6454    84.7788     1.0000     1.0000     1.0000 -1442.3488   164.9021    72.1390     0.0557    12.0000
  1524.9812  7669.9917 7669991.5000    -999.25   106.2708     0.0000    -999.25   169.6987     2.0934     2.3110  1524.9812     0.6967  -703.5245    -999.25     0.2490     0.0562     0.0562 25164.0137     2.6742     2.0934     4.3823    83.6887     1.0000     1.0000     1.0000 -1442.5012   164.9106    71.8830     0.0562    12.0000
  1525.1336  8099.4351 8099435.0000    -999.25   101.3399     0.0000    -999.25   166.1926     2.2322     2.4753  1525.1335     0.7230  -703.5989    -999.25     0.2246     0.0551     0.0551 26572.9492     2.6929     2.2322     4.9827    83.1409     1.0000     1.0000     1.0000 -1442.6536   164.9191    72.4290     0.0551    12.0000
  1525.2860  8259.0859 8259086.0000    -999.25    99.8718     0.0000    -999.25   166.6102     2.2402     2.4547  1525.2860     0.7013  -703.6732    -999.25     0.2003     0.0548     0.0548 27096.7383     2.7062     2.2402     5.0185    83.1986     1.0000     1.0000     1.0000 -1442.8060   164.9276    72.5910     0.0548    12.0000
