~Version ---------------------------------------------------
VERS. 2.0 : CWLS log ASCII Standard -VERSION 2.0
WRAP.  NO : 
~Well ------------------------------------------------------
STRT.m                                                   1260.0 : 
STOP.m                                                1587.9648 : 
STEP.m                                                   0.1524 : 
NULL.                                                   -999.25 : 
COMP.                                                           : COMPANY
WELL.                                                    Well-5 : WELL
FLD .                                                           : FIELD
LOC .                                                           : LOCATION
SRVC.                                                           : SERVICE COMPANY
DATE. 2021-01-20 14:34:00   : Log Export Date {yyyy-MM-dd HH:mm : ss}
PROV.                                                           : PROVINCE
UWI .                                                    Well-5 : UNIQUE WELL ID
API .                                                           : API NUMBER
~Curve Information -----------------------------------------
DEPTH             .m        : DEPTH
ACOUSTICIMPEDANCE1.kPa.s/m  : ACOUSTICIMPEDANCE1
AI                .kPa.s/m  : AI
AVG_PIGN          .m3/m3    : AVG_PIGN
CALI              .in       : CALI
CALI[DERIVED]1    .in       : CALI[DERIVED]1
DT                .us/ft    : DT
FACIES            ._        : FACIES
FLD1              ._        : FLD1
GR                .gAPI     : GR
LLD               .ohm.m    : LLD
LLS               .ohm.m    : LLS
LL3               .ohm.m    : LL3
DEPTH_1           .m        : DEPTH_1
NPHI              .m3/m3    : NPHI
PERF_INT          ._        : PERF_INT
PERMEABILITY      .mD       : PERMEABILITY
PIGN              .m3/m3    : PIGN
PIGN_MODELLING    .m3/m3    : PIGN_MODELLING
PIMP              .kPa.s/m  : PIMP
RHOB              .g/cm3    : RHOB
RT_MODELLING      .ohm.m    : RT_MODELLING
RT_POWER          .ohm.m    : RT_POWER
SP                .mV       : SP
SUWI              ._        : SUWI
SUWI_MODELLING    ._        : SUWI_MODELLING
TDVSS             .m        : TDVSS
VCL               .%        : VCL
WATER_VOL         ._        : WATER_VOL
ZLT               ._        : ZLT
~Params ----------------------------------------------------
~Other -----------------------------------------------------
~ASCII -----------------------------------------------------
# ...
  1564.8000  6105.1797 6129686.5000    -999.25     9.7120     9.7120   122.4356     0.0000    -999.25    59.5800     2.8250     2.7474     3.7740  1564.7999     0.5362    -999.25     0.0004     0.0284     0.0284 20110.5215     2.4524     2.8250     7.9806    30.5678     1.0000     1.0000 -1493.2100    68.2930     0.0284    22.0000
  1564.8430  6105.5308 6105530.5000    -999.25     9.6921     9.6921   123.2633     0.0000    -999.25    60.3087     2.8316     2.7510     3.7406  1564.8429     0.5424    -999.25     0.0003     0.0252     0.0252 20031.2695     2.4691     2.8316     8.0179    30.5935     1.0000     1.0000 -1493.2529    69.5029     0.0252    22.0000
  1564.9524  6136.6772 6147790.5000    -999.25     9.6416     9.6416   124.7506     0.0000    -999.25    62.1628     2.8483     2.7601     3.6554  1564.9524     0.5581    -999.25     0.0001     0.0171     0.0171 20169.9160     2.5117     2.8483     8.1128    30.6590     1.0000     1.0000 -1493.3624    72.5810     0.0171    22.0000
  1564.9955  6164.4395 6164439.5000    -999.25     9.6269     9.6269   125.3365     0.0000    -999.25    61.5111     2.8436     2.7679     3.6857  1564.9955     0.5632    -999.25     0.0001     0.0177     0.0177 20224.5391     2.5349     2.8436     8.0860    30.6701     1.0000     1.0000 -1493.4055    73.3938     0.0177    22.0000
  1565.1048  6280.1338 6272065.5000    -999.25     9.5896     9.5896   125.8846     0.0000    -999.25    59.8585     2.8317     2.7877     3.7624  1565.1047     0.5759    -999.25     0.0003     0.0193     0.0193 20577.6426     2.5937     2.8317     8.0183    30.6984     1.0000     1.0000 -1493.5148    75.4550     0.0193    22.0000
  1565.1478  6314.4072 6314407.0000    -999.25     9.5788     9.5788   126.1002     0.0000    -999.25    58.3445     2.8198     2.7907     3.7941  1565.1477     0.5761    -999.25     0.0008     0.0200     0.0200 20716.5586     2.6124     2.8198     7.9517    30.6921     1.0000     1.0000 -1493.5577    75.6387     0.0200    22.0000
  1565.2572  6439.3145 6414726.0000    -999.25     9.5513     9.5513   125.8968     0.0000    -999.25    54.4927     2.7897     2.7982     3.8747  1565.2572     0.5766    -999.25     0.0019     0.0217     0.0217 21045.6895     2.6597     2.7897     7.7823    30.6760     1.0000     1.0000 -1493.6672    76.1060     0.0217    22.0000
  1565.3003  6454.2485 6454248.5000    -999.25     9.5542     9.5542   125.8166     0.0000    -999.25    53.1586     2.7794     2.7947     3.9350  1565.3003     0.5724    -999.25     0.0028     0.0222     0.0222 21175.3555     2.6642     2.7794     7.7252    30.6597     1.0000     1.0000 -1493.7103    75.6131     0.0222    22.0000
  1565.4096  6525.8423 6498461.0000    -999.25     9.5618     9.5618   124.9659     0.0000    -999.25    49.7753     2.7533     2.7856     4.0879  1565.4095     0.5616    -999.25     0.0052     0.0233     0.0233 21320.4102     2.6755     2.7533     7.5804    30.6183     1.0000     1.0000 -1493.8196    74.3630     0.0233    22.0000
  1565.4526  6515.8550 6515855.0000    -999.25     9.5719     9.5719   124.6312     0.0000    -999.25    49.3887     2.7515     2.7798     4.0922  1565.4525     0.5557    -999.25     0.0065     0.0241     0.0241 21377.4766     2.6643     2.7515     7.5709    30.5851     1.0000     1.0000 -1493.8625    73.4491     0.0241    22.0000
  1565.5620  6473.8818 6456199.0000    -999.25     9.5976     9.5976   124.0917     0.0000    -999.25    48.4052     2.7471     2.7648     4.1030  1565.5620     0.5407    -999.25     0.0096     0.0262     0.0262 21181.7539     2.6357     2.7471     7.5468    30.5007     1.0000     1.0000 -1493.9720    71.1240     0.0262    22.0000
  1565.6051  6432.6963 6432696.5000    -999.25     9.6057     9.6057   123.8792     0.0000    -999.25    48.8376     2.7546     2.7603     3.9980  1565.6051     0.5367    -999.25     0.0095     0.0270     0.0270 21104.6465     2.6144     2.7546     7.5878    30.4524     1.0000     1.0000 -1494.0151    70.3081     0.0270    22.0000
  1565.7144  6283.6968 6284832.0000    -999.25     9.6262     9.6262   124.2023     0.0000    -999.25    49.9341     2.7734     2.7489     3.7316  1565.7144     0.5267    -999.25     0.0092     0.0289     0.0289 20619.5254     2.5605     2.7734     7.6919    30.3298     1.0000     1.0000 -1494.1244    68.2390     0.0289    22.0000
  1565.7574  6226.6602 6226660.0000    -999.25     9.6263     9.6263   124.3294     0.0000    -999.25    51.1544     2.7848     2.7484     3.6458  1565.7573     0.5260    -999.25     0.0078     0.0292     0.0292 20428.6738     2.5399     2.7848     7.7553    30.2774     1.0000     1.0000 -1494.1674    67.8747     0.0292    22.0000
  1565.8668  6077.3960 6093014.5000    -999.25     9.6265     9.6265   124.7487     0.0000    -999.25    54.2592     2.8137     2.7471     3.4277  1565.8668     0.5242    -999.25     0.0042     0.0301     0.0301 19990.2051     2.4874     2.8137     7.9167    30.1439     1.0000     1.0000 -1494.2767    66.9480     0.0301    22.0000
  1565.9099  6040.3623 6040362.5000    -999.25     9.6240     9.6240   124.9139     0.0000    -999.25    55.7943     2.8219     2.7520     3.4189  1565.9099     0.5265    -999.25     0.0032     0.0298     0.0298 19817.4629     2.4755     2.8219     7.9631    30.0845     1.0000     1.0000 -1494.3198    67.1364     0.0298    22.0000
  1566.0192  5987.0391 6005827.0000    -999.25     9.6178     9.6178   124.4922     0.0000    -999.25    59.6875     2.8427     2.7644     3.3965  1566.0192     0.5323    -999.25     0.0006     0.0290     0.0290 19704.1582     2.4453     2.8427     8.0808    29.9337     1.0000     1.0000 -1494.4292    67.6140     0.0290    22.0000
  1566.0622  5992.2407 5992240.5000    -999.25     9.6131     9.6131   124.3263     0.0000    -999.25    60.7679     2.8398     2.7752     3.3864  1566.0621     0.5365    -999.25     0.0004     0.0262     0.0262 19659.5820     2.4442     2.8398     8.0644    29.8751     1.0000     1.0000 -1494.4722    68.3369     0.0262    22.0000
  1566.1716  6010.3882 6019109.0000    -999.25     9.6011     9.6011   123.8042     0.0000    -999.25    63.5167     2.8324     2.8029     3.3604  1566.1716     0.5471    -999.25     0.0000     0.0191     0.0191 19747.7324     2.4413     2.8324     8.0224    29.7261     1.0000     1.0000 -1494.5815    70.1760     0.0191    22.0000
  1566.2146  6029.6694 6029669.5000    -999.25     9.5951     9.5951   123.5990     0.0000    -999.25    63.8171     2.8150     2.8128     3.3655  1566.2146     0.5518    -999.25     0.0000     0.0175     0.0175 19782.3809     2.4451     2.8150     7.9251    29.6771     1.0000     1.0000 -1494.6245    70.8958     0.0175    22.0000
  1566.3240  6044.8486 6041181.0000    -999.25     9.5796     9.5796   123.7726     0.0000    -999.25    64.5813     2.7708     2.8382     3.3784  1566.3240     0.5638    -999.25     0.0001     0.0135     0.0135 19820.1484     2.4547     2.7708     7.6773    29.5523     1.0000     1.0000 -1494.7340    72.7270     0.0135    22.0000
  1566.3670  6045.7056 6045705.5000    -999.25     9.5754     9.5754   123.8408     0.0000    -999.25    64.3919     2.7445     2.8317     3.4190  1566.3669     0.5680    -999.25     0.0002     0.0131     0.0131 19834.9922     2.4564     2.7445     7.5339    29.5081     1.0000     1.0000 -1494.7770    73.2431     0.0131    22.0000
  1566.4764  6063.7339 6052137.5000    -999.25     9.5646     9.5646   123.6902     0.0000    -999.25    63.9102     2.6775     2.8152     3.5222  1566.4764     0.5785    -999.25     0.0003     0.0124     0.0124 19856.0938     2.4607     2.6775     7.1690    29.3956     1.0000     1.0000 -1494.8864    74.5560     0.0124    22.0000
  1566.5194  6054.6655 6054665.5000    -999.25     9.5664     9.5664   123.6310     0.0000    -999.25    63.6583     2.6518     2.7830     3.5192  1566.5194     0.5827    -999.25     0.0009     0.0136     0.0136 19864.3887     2.4559     2.6518     7.0340    29.3641     1.0000     1.0000 -1494.9293    74.8757     0.0136    22.0000
  1566.6288  6028.5762 6017172.0000    -999.25     9.5710     9.5710   123.5414     0.0000    -999.25    63.0174     2.5866     2.7013     3.5117  1566.6288     0.5934    -999.25     0.0024     0.0166     0.0166 19741.3789     2.4435     2.5866     6.6903    29.2838     1.0000     1.0000 -1495.0388    75.6890     0.0166    22.0000
