~Version ---------------------------------------------------
VERS. 2.0 : CWLS log ASCII Standard -VERSION 2.0
WRAP.  NO : 
~Well ------------------------------------------------------
STRT.m                                                1236.0668 : 
STOP.m                                                1579.8812 : 
STEP.m                                                   0.1524 : 
NULL.                                                   -999.25 : 
COMP.                                                           : COMPANY
WELL.                                                   Well-17 : WELL
FLD .                                                           : FIELD
LOC .                                                           : LOCATION
SRVC.                                                           : SERVICE COMPANY
DATE. 2021-01-20 14:34:08   : Log Export Date {yyyy-MM-dd HH:mm : ss}
PROV.                                                           : PROVINCE
UWI .                                                   Well-17 : UNIQUE WELL ID
API .                                                           : API NUMBER
~Curve Information -----------------------------------------
DEPTH             .m        : DEPTH
ACOUSTICIMPEDANCE1.kPa.s/m  : ACOUSTICIMPEDANCE1
AI                .kPa.s/m  : AI
AVG_PIGN          .m3/m3    : AVG_PIGN
CALI              .in       : CALI
NPHI              .m3/m3    : NPHI
DT                .us/ft    : DT
FACIES            ._        : FACIES
FLD1              ._        : FLD1
GR                .gAPI     : GR
M2R2              .ohm.m    : M2R2
LLS               .ohm.m    : LLS
LLD               .ohm.m    : LLD
DEPTH_1           .m        : DEPTH_1
NPHI_1            .m3/m3    : NPHI_1
PERF_INT          ._        : PERF_INT
PERMEABILITY      .mD       : PERMEABILITY
PHIT              .m3/m3    : PHIT
PIGN              .m3/m3    : PIGN
PIGN_MODELLING    .m3/m3    : PIGN_MODELLING
PIMP              .kPa.s/m  : PIMP
RHOB              .g/cm3    : RHOB
RT_MODELLING      .ohm.m    : RT_MODELLING
RT_POWER          .ohm.m    : RT_POWER
SP                .mV       : SP
SUWI              ._        : SUWI
SUWI_MODELLING    ._        : SUWI_MODELLING
SXWI              ._        : SXWI
TDVSS             .m        : TDVSS
VCL               .%        : VCL
WATER_VOL         ._        : WATER_VOL
RHOB_1            .g/cm3    : RHOB_1
ZLT               ._        : ZLT
~Params ----------------------------------------------------
~Other -----------------------------------------------------
~ASCII -----------------------------------------------------
  1236.0668  4473.9912 4473991.0000    -999.25    10.2041     0.5227   148.6833    -999.25    -999.25    60.9432     1.2434     1.2451     1.2431  1236.0669     0.5227    -999.25    -999.25     0.2324     0.0510     0.0510 14678.4492     2.1824     1.2431     1.5453   226.1389     1.0000     1.0000     1.0000 -1162.5768    81.3340     0.0510     2.1824    -999.25
  1236.2192  4488.2930 4488293.0000    -999.25    10.1632     0.5007   149.2479    -999.25    -999.25    60.7484     1.2587     1.2601     1.2581  1236.2192     0.5007    -999.25    -999.25     0.2328     0.0517     0.0517 14725.3701     2.1977     1.2581     1.5827   226.0811     1.0000     1.0000     1.0000 -1162.7292    79.7350     0.0517     2.1977    -999.25
  1236.3716  4478.5024 4478502.5000    -999.25    10.1426     0.5102   150.0934     0.0000    -999.25    60.0808     1.2536     1.2533     1.2506  1236.3716     0.5102    -999.25    -999.25     0.2248     0.0416     0.0416 14693.2490     2.2054     1.2506     1.5640   226.0885     1.0000     1.0000     1.0000 -1162.8816    81.5030     0.0416     2.2054    -999.25
  1236.5240  4444.5083 4444508.0000    -999.25    10.1682     0.5326   151.5384     0.0000    -999.25    60.2084     1.2295     1.2272     1.2242  1236.5240     0.5326    -999.25    -999.25     0.2248     0.0415     0.0415 14581.7197     2.2097     1.2242     1.4986   226.1507     1.0000     1.0000     1.0000 -1163.0341    82.2940     0.0415     2.2097    -999.25
  1236.6764  4442.1401 4442140.5000    -999.25    10.2663     0.5319   151.8476     0.0000    -999.25    61.2880     1.1958     1.1928     1.1898  1236.6764     0.5319    -999.25    -999.25     0.2220     0.0380     0.0380 14573.9512     2.2130     1.1898     1.4156   226.2217     1.0000     1.0000     1.0000 -1163.1864    82.5920     0.0380     2.2130    -999.25
  1236.8288  4472.4004 4472400.5000    -999.25    10.3843     0.5180   151.1160     0.0000    -999.25    61.7525     1.1638     1.1615     1.1585  1236.8289     0.5180    -999.25    -999.25     0.2194     0.0349     0.0349 14673.2305     2.2174     1.1585     1.3422   226.2843     1.0000     1.0000     1.0000 -1163.3389    82.6210     0.0349     2.2174    -999.25
  1236.9812  4504.3135 4504313.5000    -999.25    10.4422     0.5170   150.0196     0.0000    -999.25    60.2822     1.1446     1.1439     1.1403  1236.9812     0.5170    -999.25    -999.25     0.2190     0.0344     0.0344 14777.9316     2.2170     1.1403     1.3002   226.3665     1.0000     1.0000     1.0000 -1163.4912    82.7880     0.0344     2.2170    -999.25
  1237.1336  4523.3833 4523383.5000    -999.25    10.4265     0.5272   149.2309     0.0000    -999.25    58.6204     1.1333     1.1346     1.1306  1237.1337     0.5272    -999.25    -999.25     0.2201     0.0358     0.0358 14840.4971     2.2147     1.1306     1.2783   226.4816     1.0000     1.0000     1.0000 -1163.6437    82.7890     0.0358     2.2147    -999.25
  1237.2860  4516.1479 4516148.0000    -999.25    10.3596     0.5352   149.7878     0.0000    -999.25    59.0784     1.1199     1.1213     1.1172  1237.2860     0.5352    -999.25    -999.25     0.2199     0.0355     0.0355 14816.7588     2.2194     1.1172     1.2482   226.6063     1.0000     1.0000     1.0000 -1163.7960    82.8070     0.0355     2.2194    -999.25
  1237.4384  4506.0234 4506023.5000    -999.25    10.2833     0.5307   151.0748     0.0000    -999.25    60.9638     1.1016     1.1026     1.0979  1237.4385     0.5307    -999.25    -999.25     0.2191     0.0344     0.0344 14783.5420     2.2334     1.0979     1.2054   226.7075     1.0000     1.0000     1.0000 -1163.9485    82.9010     0.0344     2.2334    -999.25
  1237.5908  4514.0332 4514033.0000    -999.25    10.2550     0.5131   151.9093     0.0000    -999.25    62.2586     1.0856     1.0866     1.0809  1237.5908     0.5131    -999.25    -999.25     0.2210     0.0371     0.0371 14809.8203     2.2497     1.0809     1.1684   226.7813     1.0000     1.0000     1.0000 -1164.1008    81.4740     0.0371     2.2497    -999.25
  1237.7432  4536.9702 4536970.5000    -999.25    10.3000     0.4997   151.9905     0.0000    -999.25    62.6636     1.0810     1.0807     1.0753  1237.7433     0.4997    -999.25    -999.25     0.2233     0.0400     0.0400 14885.0732     2.2624     1.0753     1.1563   226.8473     1.0000     1.0000     1.0000 -1164.2533    79.9840     0.0400     2.2624    -999.25
  1237.8956  4594.8335 4594833.5000    -999.25    10.3317     0.5040   150.9846     0.0000    -999.25    62.4741     1.0971     1.0948     1.0891  1237.8956     0.5040    -999.25    -999.25     0.2234     0.0402     0.0402 15074.9121     2.2761     1.0891     1.1862   226.9261     1.0000     1.0000     1.0000 -1164.4056    79.9270     0.0402     2.2761    -999.25
  1238.0480  4733.5225 4733522.5000    -999.25    10.2164     0.5229   148.0889     0.0000    -999.25    62.1719     1.1406     1.1376     1.1309  1238.0481     0.5229    -999.25    -999.25     0.2220     0.0383     0.0383 15529.9297     2.2998     1.1309     1.2790   227.0057     1.0000     1.0000     1.0000 -1164.5580    80.8490     0.0383     2.2998    -999.25
  1238.2004  4953.3945 4953394.5000    -999.25    10.0156     0.5454   142.9905     0.0000    -999.25    62.4895     1.1923     1.1899     1.1829  1238.2004     0.5454    -999.25    -999.25     0.2201     0.0359     0.0359 16251.2939     2.3238     1.1829     1.3993   227.0525     1.0000     1.0000     1.0000 -1164.7104    82.0590     0.0359     2.3238    -999.25
  1238.3528  5134.8809 5134881.0000    -999.25     9.9057     0.5577   137.6072     0.0000    -999.25    63.1462     1.2056     1.2043     1.1973  1238.3528     0.5577    -999.25    -999.25     0.2190     0.0344     0.0344 16846.7227     2.3182     1.1973     1.4336   227.0583     1.0000     1.0000     1.0000 -1164.8628    82.7760     0.0344     2.3182    -999.25
  1238.5052  5177.8345 5177834.0000    -999.25     9.8994     0.5465   134.3194     0.0000    -999.25    63.9794     1.1697     1.1701     1.1638  1238.5052     0.5465    -999.25    -999.25     0.2188     0.0342     0.0342 16987.6445     2.2818     1.1638     1.3543   227.0620     1.0000     1.0000     1.0000 -1165.0153    82.9270     0.0342     2.2818    -999.25
  1238.6576  5150.8721 5150872.0000    -999.25     9.8731     0.5289   132.7573     0.0000    -999.25    65.5528     1.1248     1.1271     1.1218  1238.6576     0.5289    -999.25    -999.25     0.2188     0.0342     0.0342 16899.1855     2.2435     1.1218     1.2584   227.0932     1.0000     1.0000     1.0000 -1165.1676    82.9270     0.0342     2.2435    -999.25
  1238.8100  5061.9619 5061962.0000    -999.25     9.8080     0.5370   133.8716     0.0000    -999.25    66.4461     1.1076     1.1100     1.1056  1238.8101     0.5370    -999.25    -999.25     0.2206     0.0364     0.0364 16607.4863     2.2233     1.1056     1.2224   227.1608     1.0000     1.0000     1.0000 -1165.3201    82.7360     0.0364     2.2233    -999.25
  1238.9624  4948.6299 4948630.0000    -999.25     9.7645     0.5667   136.7570     0.0000    -999.25    64.9609     1.1329     1.1342     1.1302  1238.9624     0.5667    -999.25    -999.25     0.2331     0.0519     0.0519 16235.6621     2.2203     1.1302     1.2774   227.2468     1.0000     1.0000     1.0000 -1165.4724    81.4050     0.0519     2.2203    -999.25
  1239.1148  4912.4565 4912456.5000    -999.25     9.7550     0.5803   138.0966     0.0000    -999.25    62.9670     1.1977     1.1974     1.1934  1239.1149     0.5803    -999.25    -999.25     0.2396     0.0599     0.0599 16116.9834     2.2257     1.1934     1.4242   227.2888     1.0000     1.0000     1.0000 -1165.6249    80.7190     0.0599     2.2257    -999.25
  1239.2672  4881.9771 4881977.0000    -999.25     9.7402     0.5646   139.4376     0.0000    -999.25    62.7109     1.2640     1.2610     1.2570  1239.2672     0.5646    -999.25    -999.25     0.2306     0.0487     0.0487 16016.9854     2.2334     1.2570     1.5800   227.2627     1.0000     1.0000     1.0000 -1165.7772    81.6800     0.0487     2.2334    -999.25
