~Version ---------------------------------------------------
VERS. 2.0 : CWLS log ASCII Standard -VERSION 2.0
WRAP.  NO : 
~Well ------------------------------------------------------
STRT.m                                                1249.0292 : 
STOP.m                                                1575.3176 : 
STEP.m                                                   0.1524 : 
NULL.                                                   -999.25 : 
COMP.                                                           : COMPANY
WELL.                                                   Well-10 : WELL
FLD .                                                           : FIELD
LOC .                                                           : LOCATION
SRVC.                                                           : SERVICE COMPANY
DATE. 2021-01-20 14:34:04   : Log Export Date {yyyy-MM-dd HH:mm : ss}
PROV.                                                           : PROVINCE
UWI .                                                   Well-10 : UNIQUE WELL ID
API .                                                           : API NUMBER
~Curve Information -----------------------------------------
DEPTH             .m        : DEPTH
ACOUSTICIMPEDANCE1.kPa.s/m  : ACOUSTICIMPEDANCE1
AI                .kPa.s/m  : AI
AVG_PIGN          .m3/m3    : AVG_PIGN
CALI              .in       : CALI
CALI[DERIVED]1    .in       : CALI[DERIVED]1
DFL               .ohm.m    : DFL
DT                .us/ft    : DT
FACIES            ._        : FACIES
FLD1              ._        : FLD1
GR                .gAPI     : GR
HDRS              .ohm.m    : HDRS
HMRS              .ohm.m    : HMRS
DEPTH_1           .m        : DEPTH_1
NPHI              .m3/m3    : NPHI
PEF               .b/e      : PEF
PERF_INT          ._        : PERF_INT
PERMEABILITY      .mD       : PERMEABILITY
PHIT              .m3/m3    : PHIT
PIGN              .m3/m3    : PIGN
PIGN_MODELLING    .m3/m3    : PIGN_MODELLING
PIMP              .kPa.s/m  : PIMP
RHOB              .g/cm3    : RHOB
RT_MODELLING      .ohm.m    : RT_MODELLING
RT_POWER          .ohm.m    : RT_POWER
SP                .mV       : SP
SUWI              ._        : SUWI
SUWI_MODELLING    ._        : SUWI_MODELLING
SXWI              ._        : SXWI
TDVSS             .m        : TDVSS
TEMP              .K        : TEMP
VCL               .%        : VCL
WATER_VOL         ._        : WATER_VOL
ZLT               ._        : ZLT
~Params ----------------------------------------------------
~Other -----------------------------------------------------
~ASCII -----------------------------------------------------
# ...
  1376.4356  6033.4111 6033411.0000    -999.25     9.0056     9.0056     3.0493   120.9417     0.0000    -999.25    74.2975     1.8872     1.9271  1376.4355     0.4935     6.1933    -999.25     0.1821     0.0291     0.0291     0.0291 19794.6562     2.3940     3.0493     9.2982   143.4529     1.0000     1.0000     1.0000 -1296.4355   166.0925    80.8210     0.0291     1.0000
  1376.5880  5906.7393 5906739.5000    -999.25     9.0541     9.0541     2.7580   123.3083     0.0000    -999.25    74.7621     1.8007     1.7899  1376.5880     0.4964     6.3979    -999.25     0.1917     0.0286     0.0286     0.0286 19379.0664     2.3896     2.7580     7.6066   143.1827     1.0000     1.0000     1.0000 -1296.5880   166.1020    81.1020     0.0286     1.0000
  1376.7404  5927.4873 5927487.5000    -999.25     8.8694     8.8694     2.4317   123.0721     0.0000    -999.25    74.5382     1.7344     1.6983  1376.7404     0.4884     6.6244    -999.25     0.2298     0.0289     0.0289     0.0289 19447.1367     2.3934     2.4317     5.9132   142.6331     1.0000     1.0000     1.0000 -1296.7404   166.1115    80.9440     0.0289     1.0000
  1376.8928  6178.0083 6178008.0000    -999.25     8.6966     8.6966     2.2790   119.1965     0.0000    -999.25    72.9277     1.7612     1.7271  1376.8928     0.4791     6.8042    -999.25     0.3265     0.0295     0.0295     0.0295 20269.0547     2.4160     2.2790     5.1938   142.0462     1.0000     1.0000     1.0000 -1296.8928   166.1211    79.6760     0.0295     1.0000
  1377.0452  6565.5264 6565526.5000    -999.25     8.4873     8.4873     2.3784   113.0757     0.0000    -999.25    69.6229     1.9011     1.9057  1377.0452     0.4571     6.8898    -999.25     0.4968     0.0297     0.0297     0.0297 21540.4414     2.4357     2.3784     5.6568   141.8728     1.0000     1.0000     1.0000 -1297.0452   166.1306    76.7270     0.0297     1.0000
  1377.1976  6814.8633 6814863.5000    -999.25     8.5006     8.5006     2.7429   109.1801     0.0000    -999.25    66.4360     2.1927     2.2788  1377.1976     0.4429     6.9286    -999.25     0.6357     0.0294     0.0294     0.0294 22358.4766     2.4411     2.7429     7.5235   142.4267     1.0000     1.0000     1.0000 -1297.1976   166.1402    75.9910     0.0294     1.0000
  1377.3500  6653.0166 6653017.0000    -999.25     9.2172     9.2172     3.4981   111.2771     0.0000    -999.25    65.8827     2.5725     2.7225  1377.3500     0.4316     6.9726    -999.25     0.5135     0.0288     0.0288     0.0288 21827.4824     2.4289     3.4981    12.2367   143.6689     1.0000     1.0000     1.0000 -1297.3500   166.1497    78.7530     0.0288     1.0000
  1377.5024  6100.2354 6100235.0000    -999.25     9.9032     9.9032     4.1907   119.0573     0.0000    -999.25    67.4728     2.5554     2.6447  1377.5024     0.4640     7.0280    -999.25     0.1535     0.0272     0.0272     0.0272 20013.8945     2.3828     4.1907    17.5620   145.2448     1.0000     1.0000     1.0000 -1297.5024   166.1592    81.4950     0.0272     1.0000
  1377.6548  5503.7915 5503791.5000    -999.25    10.0467    10.0467     3.6825   129.2071     0.0000    -999.25    69.6834     1.9742     1.9947  1377.6548     0.5286     7.1069    -999.25     0.0222     0.0252     0.0252     0.0252 18057.0586     2.3331     3.6825    13.5608   146.5748     1.0000     1.0000     1.0000 -1297.6548   166.1687    82.9950     0.0252     1.0000
  1377.8072  5087.2358 5087236.0000    -999.25    10.1325    10.1325     2.4075   137.4323     0.0000    -999.25    72.3413     1.5078     1.4930  1377.8073     0.5843     7.2143    -999.25     0.0056     0.0240     0.0240     0.0240 16690.4062     2.2938     2.4075     5.7961   147.3268     1.0000     1.0000     1.0000 -1297.8073   166.1783    83.6500     0.0240     1.0000
  1377.9596  4941.3115 4941311.5000    -999.25     9.8572     9.8572     1.7913   140.0474     0.0000    -999.25    74.2052     1.3026     1.2871  1377.9596     0.6028     7.3252    -999.25     0.0107     0.0235     0.0235     0.0235 16211.6514     2.2704     1.7913     3.2088   147.4062     1.0000     1.0000     1.0000 -1297.9596   166.1878    83.9210     0.0235     1.0000
  1378.1120  5066.6855 5066685.5000    -999.25     9.4497     9.4497     1.5693   136.8286     0.0000    -999.25    74.2724     1.2426     1.2361  1378.1121     0.5667     7.4333    -999.25     0.0416     0.0235     0.0235     0.0235 16622.9844     2.2745     1.5693     2.4627   146.8612     1.0000     1.0000     1.0000 -1298.1121   166.1973    83.9510     0.0235     1.0000
  1378.2644  5365.4360 5365436.0000    -999.25     9.0126     9.0126     1.5323   130.7324     0.0000    -999.25    73.3005     1.2639     1.2793  1378.2644     0.5369     7.4558    -999.25     0.1135     0.0249     0.0249     0.0249 17603.1367     2.3013     1.5323     2.3479   145.6631     1.0000     1.0000     1.0000 -1298.2644   166.2069    83.1870     0.0249     1.0000
  1378.4168  5830.5073 5830507.5000    -999.25     8.8077     8.8077     1.5607   123.1222     0.0000    -999.25    72.2594     1.3672     1.3966  1378.4167     0.4956     7.3737    -999.25     0.1533     0.0278     0.0278     0.0278 19128.9609     2.3552     1.5607     2.4358   144.0106     1.0000     1.0000     1.0000 -1298.4167   166.2164    81.4700     0.0278     1.0000
  1378.5692  6591.6479 6591648.0000    -999.25     8.6432     8.6432     1.7803   113.8391     0.0000    -999.25    70.4699     1.5819     1.6070  1378.5692     0.4677     7.3010    -999.25     0.1968     0.0297     0.0297     0.0297 21626.1426     2.4619     1.7803     3.1695   142.0428     1.0000     1.0000     1.0000 -1298.5692   166.2259    70.8620     0.0297     1.0000
  1378.7216  7619.4204 7619420.5000    -999.25     8.4075     8.4075     2.2226   104.0599     0.0000    -999.25    67.9308     1.8684     1.9135  1378.7216     0.4449     7.2671    -999.25     0.2726     0.0300     0.0300     0.0300 24998.0996     2.6013     2.2226     4.9400   139.7660     1.0000     1.0000     1.0000 -1298.7216   166.2355    53.9140     0.0300     1.0000
  1378.8740  8526.4805 8526481.0000    -999.25     8.3548     8.3548     2.9592    97.5441     0.0000    -999.25    65.9952     2.3088     2.4136  1378.8740     0.3970     7.2986    -999.25     0.3693     0.0300     0.0300     0.0300 27974.0176     2.7287     2.9592     8.7569   137.1043     1.0000     1.0000     1.0000 -1298.8740   166.2450    40.4990     0.0300     1.0000
  1379.0264  8822.3584 8822358.0000    -999.25     8.3862     8.3862     4.3169    97.0332     0.0000    -999.25    64.9584     2.9345     3.0502  1379.0264     0.3694     7.3481    -999.25     0.3429     0.0300     0.0300     0.0300 28944.7441     2.8086     4.3169    18.6356   134.2221     1.0000     1.0000     1.0000 -1299.0264   166.2545    38.8310     0.0300     1.0000
  1379.1788  8274.4844 8274484.5000    -999.25     8.4208     8.4208     5.8068   102.2239     0.0000    -999.25    64.1809     3.1259     3.2080  1379.1788     0.4022     7.2792    -999.25     0.3155     0.0300     0.0300     0.0300 27147.2598     2.7751     5.8068    33.7189   131.4156     1.0000     1.0000     1.0000 -1299.1788   166.2641    48.0780     0.0300     1.0000
  1379.3312  7361.3774 7361377.5000    -999.25     8.4259     8.4259     5.9680   110.3658     0.0000    -999.25    64.4348     2.6500     2.7534  1379.3312     0.4326     7.1195    -999.25     0.4194     0.0300     0.0300     0.0300 24151.5020     2.6655     5.9680    35.6170   129.0090     1.0000     1.0000     1.0000 -1299.3312   166.2736    62.2580     0.0300     1.0000
  1379.4836  6641.5864 6641586.5000    -999.25     8.4266     8.4266     3.8939   116.5536     0.0000    -999.25    66.3354     2.2338     2.3357  1379.4836     0.4385     6.9541    -999.25     0.5809     0.0299     0.0299     0.0299 21789.9805     2.5397     3.8939    15.1625   127.2939     1.0000     1.0000     1.0000 -1299.4836   166.2831    74.4040     0.0299     1.0000
  1379.6360  6257.7500 6257750.0000    -999.25     8.3993     8.3993     2.8961   118.6420     0.0000    -999.25    67.5581     2.0749     2.1804  1379.6360     0.4435     6.8361    -999.25     0.7051     0.0293     0.0293     0.0293 20530.6758     2.4358     2.8961     8.3874   126.2066     1.0000     1.0000     1.0000 -1299.6360   166.2927    79.8750     0.0293     1.0000
