~Version ---------------------------------------------------
VERS. 2.0 : CWLS log ASCII Standard -VERSION 2.0
WRAP.  NO : 
~Well ------------------------------------------------------
STRT.m                                                1290.3698 : 
STOP.m                                                1526.7422 : 
STEP.m                                                   0.1524 : 
NULL.                                                   -999.25 : 
COMP.                                                           : COMPANY
WELL.                                                   Well-18 : WELL
FLD .                                                           : FIELD
LOC .                                                           : LOCATION
SRVC.                                                           : SERVICE COMPANY
DATE. 2021-01-20 14:34:10   : Log Export Date {yyyy-MM-dd HH:mm : ss}
PROV.                                                           : PROVINCE
UWI .                                                   Well-18 : UNIQUE WELL ID
API .                                                           : API NUMBER
~Curve Information -----------------------------------------
DEPTH             .m        : DEPTH
ACOUSTICIMPEDANCE1.kPa.s/m  : ACOUSTICIMPEDANCE1
AI                .kPa.s/m  : AI
AVG_PIGN          .m3/m3    : AVG_PIGN
BS                .in       : BS
CALI              .in       : CALI
CALI[DERIVED]1    .in       : CALI[DERIVED]1
DT                .us/ft    : DT
FACIES            ._        : FACIES
FLD1              ._        : FLD1
GR                .gAPI     : GR
DEPTH_1           .m        : DEPTH_1
NPHI              .m3/m3    : NPHI
PEF               .b/e      : PEF
PERF_INT          ._        : PERF_INT
PHIT              .m3/m3    : PHIT
PIGN              .m3/m3    : PIGN
PIGN_MODELLING    .m3/m3    : PIGN_MODELLING
PIMP              .kPa.s/m  : PIMP
RHOB              .g/cm3    : RHOB
LLD               .ohm.m    : LLD
RT_MODELLING      .ohm.m    : RT_MODELLING
RT_POWER          .ohm.m    : RT_POWER
RXO               .ohm.m    : RXO
SP                .mV       : SP
SUWI              ._        : SUWI
SUWI_MODELLING    ._        : SUWI_MODELLING
SXWI              ._        : SXWI
TDVSS             .m        : TDVSS
TEMP              .K        : TEMP
VCL               .%        : VCL
WATER_VOL         ._        : WATER_VOL
ZLT               ._        : ZLT
~Params ----------------------------------------------------
~Other -----------------------------------------------------
~ASCII -----------------------------------------------------
# ...
  1354.0730  5872.9375 5872937.5000    -999.25     8.5000     8.7165     8.7165   123.5198     0.0000    -999.25   101.9378  1354.0730     0.4244     6.3569    -999.25     0.1778     0.0239     0.0239 19268.1680     2.3800     1.9977     1.9977     3.9906     2.1785   -61.3125     1.0000     1.0000     1.0000 -1261.8890   157.0069    76.9680     0.0239     0.0000
  1354.2254  6014.6958 6014695.5000    -999.25     8.5000     8.6906     8.6906   123.0309     0.0000    -999.25    96.5933  1354.2255     0.4578     5.8115    -999.25     0.1803     0.0293     0.0293 19733.2539     2.4278     1.9882     1.9882     3.9529     1.8054   -61.3125     1.0000     1.0000     1.0000 -1262.0393   157.0156    75.4990     0.0293     0.0000
  1354.3778  6298.1514 6298151.5000    -999.25     8.5000     8.6693     8.6693   123.1076     0.0000    -999.25    97.0533  1354.3778     0.4765     6.7063    -999.25     0.1750     0.0293     0.0293 20663.2266     2.5438     2.0807     2.0807     4.3291     1.8155   -61.6250     1.0000     1.0000     1.0000 -1262.1896   157.0242    72.8410     0.0293     0.0000
  1354.5302  6509.9292 6509929.0000    -999.25     8.5000     8.6693     8.6693   122.4504     0.0000    -999.25    98.6896  1354.5303     0.4354     7.6932    -999.25     0.1663     0.0245     0.0245 21358.0352     2.6153     2.1696     2.1696     4.7073     2.2659   -61.8125     1.0000     1.0000     1.0000 -1262.3400   157.0329    70.9030     0.0245     0.0000
  1354.6826  6262.4019 6262401.5000    -999.25     8.5000     8.6618     8.6618   123.0073     0.0000    -999.25   100.6074  1354.6826     0.3858     7.3114    -999.25     0.1617     0.0203     0.0203 20545.9375     2.5273     2.2716     2.2716     5.1602     2.8276   -61.6875     1.0000     1.0000     1.0000 -1262.4902   157.0416    70.6540     0.0203     0.0000
  1354.8350  6039.7695 6039769.5000    -999.25     8.5000     8.7502     8.7502   122.8078     0.0000    -999.25    98.2084  1354.8351     0.3941     6.4604    -999.25     0.1681     0.0209     0.0209 19815.5176     2.4335     2.3094     2.3094     5.3332     1.8345   -62.0000     1.0000     1.0000     1.0000 -1262.6406   157.0502    73.6020     0.0209     0.0000
  1354.9874  5925.8418 5925841.5000    -999.25     8.5000     8.7588     8.7588   123.3686     0.0000    -999.25    99.7460  1354.9874     0.4239     6.1887    -999.25     0.1753     0.0235     0.0235 19441.7383     2.3985     2.1718     2.1718     4.7166     1.8822   -62.3125     1.0000     1.0000     1.0000 -1262.7909   157.0589    75.9290     0.0235     0.0000
  1355.1398  5930.6274 5930627.5000    -999.25     8.5000     8.7588     8.7588   124.0194     0.0000    -999.25    96.0289  1355.1398     0.4586     6.1955    -999.25     0.1777     0.0248     0.0248 19457.4395     2.4131     2.1640     2.1640     4.6831     2.1221   -62.2500     1.0000     1.0000     1.0000 -1262.9412   157.0676    76.4270     0.0248     0.0000
  1355.2922  5914.2388 5914239.0000    -999.25     8.5000     8.7588     8.7588   124.1157     0.0000    -999.25    96.9048  1355.2922     0.4398     6.1738    -999.25     0.1743     0.0237     0.0237 19403.6699     2.4083     2.1679     2.1679     4.6996     2.1257   -62.3125     1.0000     1.0000     1.0000 -1263.0916   157.0762    75.3100     0.0237     0.0000
  1355.4446  5879.3901 5879390.0000    -999.25     8.5000     8.7588     8.7588   124.7736     0.0000    -999.25    94.9562  1355.4446     0.4140     5.9971    -999.25     0.1719     0.0223     0.0223 19289.3379     2.4068     2.1513     2.1513     4.6280     2.1233   -62.3125     1.0000     1.0000     1.0000 -1263.2418   157.0849    74.7890     0.0223     0.0000
  1355.5970  5787.7642 5787764.0000    -999.25     8.5000     8.7588     8.7588   126.2328     0.0000    -999.25   100.3826  1355.5970     0.4131     5.9981    -999.25     0.1743     0.0225     0.0225 18988.7266     2.3970     2.1184     2.1184     4.4877     1.8583   -62.1250     1.0000     1.0000     1.0000 -1263.3921   157.0936    75.9040     0.0225     0.0000
  1355.7494  5744.8940 5744894.0000    -999.25     8.5000     8.7588     8.7588   126.8246     0.0000    -999.25    96.0910  1355.7494     0.4245     5.8610    -999.25     0.1795     0.0247     0.0247 18848.0781     2.3904     2.0459     2.0459     4.1859     1.8675   -62.4375     1.0000     1.0000     1.0000 -1263.5425   157.1022    77.3610     0.0247     0.0000
  1355.9018  5742.9873 5742987.5000    -999.25     8.5000     8.7588     8.7588   125.9910     0.0000    -999.25    94.2808  1355.9019     0.4486     5.7363    -999.25     0.1785     0.0250     0.0250 18841.8223     2.3739     2.0017     2.0017     4.0067     1.7983   -62.3125     1.0000     1.0000     1.0000 -1263.6927   157.1109    76.7350     0.0250     0.0000
  1356.0542  5730.3618 5730361.5000    -999.25     8.5000     8.7588     8.7588   126.0186     0.0000    -999.25    90.1649  1356.0542     0.4144     5.6897    -999.25     0.1749     0.0241     0.0241 18800.3984     2.3692     1.9740     1.9740     3.8967     1.8495   -62.5000     1.0000     1.0000     1.0000 -1263.8430   157.1196    75.3810     0.0241     0.0000
  1356.2066  5791.1328 5791133.0000    -999.25     8.5000     8.7588     8.7588   125.5804     0.0000    -999.25    94.4130  1356.2067     0.4225     5.7790    -999.25     0.1780     0.0258     0.0258 18999.7793     2.3860     1.9534     1.9534     3.8157     1.9360   -62.5000     1.0000     1.0000     1.0000 -1263.9934   157.1282    76.0990     0.0258     0.0000
  1356.3590  5816.3491 5816349.0000    -999.25     8.5000     8.7588     8.7588   126.2727     0.0000    -999.25    91.4116  1356.3590     0.4376     5.8096    -999.25     0.1802     0.0274     0.0274 19082.5098     2.4096     1.9814     1.9814     3.9258     1.8650   -62.3750     1.0000     1.0000     1.0000 -1264.1437   157.1369    76.4110     0.0274     0.0000
  1356.5114  5969.4771 5969477.0000    -999.25     8.5000     8.7588     8.7588   124.2539     0.0000    -999.25    95.3116  1356.5115     0.4446     6.0307    -999.25     0.1784     0.0267     0.0267 19584.8984     2.4335     2.0461     2.0461     4.1867     1.9472   -62.0625     1.0000     1.0000     1.0000 -1264.2939   157.1456    75.8160     0.0267     0.0000
  1356.6638  5994.2188 5994218.5000    -999.25     8.5000     8.7588     8.7588   123.6851     0.0000    -999.25    95.2058  1356.6638     0.4339     6.0559    -999.25     0.1726     0.0238     0.0238 19666.0723     2.4324     2.1073     2.1073     4.4405     1.8271   -61.9375     1.0000     1.0000     1.0000 -1264.4443   157.1542    74.3840     0.0238     0.0000
  1356.8162  5974.1821 5974182.0000    -999.25     8.5000     8.7588     8.7588   124.0081     0.0000    -999.25   100.3864  1356.8163     0.4060     6.2553    -999.25     0.1671     0.0209     0.0209 19600.3340     2.4306     2.1547     2.1547     4.6427     1.9749   -61.8125     1.0000     1.0000     1.0000 -1264.5946   157.1629    73.1450     0.0209     0.0000
  1356.9686  5973.7969 5973797.0000    -999.25     8.5000     8.7588     8.7588   123.3783     0.0000    -999.25    99.1729  1356.9686     0.3993     6.2837    -999.25     0.1647     0.0194     0.0194 19599.0703     2.4181     2.1683     2.1683     4.7013     2.1502   -61.3750     1.0000     1.0000     1.0000 -1264.7450   157.1716    72.6240     0.0194     0.0000
  1357.1210  5907.7349 5907735.0000    -999.25     8.5000     8.7588     8.7588   124.9282     0.0000    -999.25   101.5596  1357.1210     0.3878     6.3543    -999.25     0.1637     0.0186     0.0186 19382.3320     2.4214     2.1852     2.1852     4.7752     2.1317   -61.2500     1.0000     1.0000     1.0000 -1264.8953   157.1802    72.5400     0.0186     0.0000
  1357.2734  5970.2026 5970202.5000    -999.25     8.5000     8.7588     8.7588   123.6670     0.0000    -999.25   104.9027  1357.2734     0.3902     6.1834    -999.25     0.1646     0.0186     0.0186 19587.2793     2.4223     2.1892     2.1892     4.7928     1.9788   -61.3125     1.0000     1.0000     1.0000 -1265.0455   157.1889    73.0170     0.0186     0.0000
