~Version ---------------------------------------------------
VERS. 2.0 : CWLS log ASCII Standard -VERSION 2.0
WRAP.  NO : 
~Well ------------------------------------------------------
STRT.m                                                   1260.0 : 
STOP.m                                                1659.7452 : 
STEP.m                                                   0.1524 : 
NULL.                                                   -999.25 : 
COMP.                                                           : COMPANY
WELL.                                                    Well-6 : WELL
FLD .                                                           : FIELD
LOC .                                                           : LOCATION
SRVC.                                                           : SERVICE COMPANY
DATE. 2021-01-20 14:34:00   : Log Export Date {yyyy-MM-dd HH:mm : ss}
PROV.                                                           : PROVINCE
UWI .                                                    Well-6 : UNIQUE WELL ID
API .                                                           : API NUMBER
~Curve Information -----------------------------------------
DEPTH             .m        : DEPTH
ACOUSTICIMPEDANCE1.kPa.s/m  : ACOUSTICIMPEDANCE1
AI                .kPa.s/m  : AI
AVG_PIGN          .m3/m3    : AVG_PIGN
CALI              .in       : CALI
CALI[DERIVED]1    .in       : CALI[DERIVED]1
DT                .us/ft    : DT
FACIES            ._        : FACIES
FLD1              ._        : FLD1
GR                .gAPI     : GR
LLD               .ohm.m    : LLD
LLS               .ohm.m    : LLS
LL3               .ohm.m    : LL3
DEPTH_1           .m        : DEPTH_1
NPHI              .m3/m3    : NPHI
ONE-WAYTIME1      .ms       : ONE-WAYTIME1
PERF_INT          ._        : PERF_INT
PERMEABILITY      .mD       : PERMEABILITY
PHIT              .m3/m3    : PHIT
PIGE              .m3/m3    : PIGE
PIGN              .m3/m3    : PIGN
PIGN_MODELLING    .m3/m3    : PIGN_MODELLING
PIMP              .kPa.s/m  : PIMP
RHOB              .g/cm3    : RHOB
LLD_1             .ohm.m    : LLD_1
RT_MODELLING      .ohm.m    : RT_MODELLING
RT_POWER          .ohm.m    : RT_POWER
SP                .mV       : SP
SUWI              ._        : SUWI
SUWI_MODELLING    ._        : SUWI_MODELLING
SXWI              ._        : SXWI
TDVSS             .m        : TDVSS
VCL               .%        : VCL
WATER_VOL         ._        : WATER_VOL
ZLT               ._        : ZLT
~Params ----------------------------------------------------
~Other -----------------------------------------------------
~ASCII -----------------------------------------------------
# ...
  1631.2464  6822.8892 6826911.5000    -999.25     8.9434     8.9434   115.4292     0.0000    -999.25    52.1398     2.3637     2.3553     3.2067  1631.2463     0.5811  -749.5629    -999.25     0.0342     0.2424     0.0441     0.0441     0.0441 22398.0039     2.5839     2.3639     2.3637     5.5870    44.8776     1.0000     1.0000     1.0000 -1553.5464    71.3490     0.0441    23.0000
  1631.2900  6815.7520 6815752.0000    -999.25     8.9454     8.9454   115.4770     0.0000    -999.25    52.6113     2.3873     2.3776     3.2568  1631.2899     0.5830  -749.5840    -999.25     0.0339     0.2417     0.0437     0.0437     0.0437 22361.3906     2.5822     2.3875     2.3873     5.7004    44.8400     1.0000     1.0000     1.0000 -1553.5900    71.8053     0.0437    23.0000
  1631.3988  6810.4619 6807525.0000    -999.25     8.9503     8.9503   115.3843     0.0000    -999.25    53.7877     2.4461     2.4332     3.3817  1631.3988     0.5877  -749.6365    -999.25     0.0329     0.2399     0.0427     0.0427     0.0427 22334.4004     2.5781     2.4463     2.4461     5.9834    44.7462     1.0000     1.0000     1.0000 -1553.6987    72.9440     0.0427    23.0000
  1631.4425  6804.2207 6804220.5000    -999.25     8.9528     8.9528   115.3470     0.0000    -999.25    54.2482     2.4706     2.4650     3.3778  1631.4425     0.5892  -749.6575    -999.25     0.0325     0.2394     0.0428     0.0428     0.0428 22323.5586     2.5750     2.4709     2.4706     6.1055    44.7012     1.0000     1.0000     1.0000 -1553.7424    73.3497     0.0428    23.0000
  1631.5512  6804.1074 6799072.5000    -999.25     8.9591     8.9591   114.9930     0.0000    -999.25    55.3936     2.5317     2.5439     3.3681  1631.5511     0.5929  -749.7100    -999.25     0.0316     0.2381     0.0428     0.0428     0.0428 22306.6699     2.5670     2.5319     2.5317     6.4094    44.5894     1.0000     1.0000     1.0000 -1553.8512    74.3590     0.0428    23.0000
  1631.5948  6797.0078 6797007.5000    -999.25     8.9600     8.9600   114.8510     0.0000    -999.25    55.6047     2.5548     2.5761     3.4095  1631.5947     0.5928  -749.7310    -999.25     0.0312     0.2379     0.0439     0.0439     0.0439 22299.8945     2.5612     2.5550     2.5548     6.5281    44.5408     1.0000     1.0000     1.0000 -1553.8948    74.4849     0.0439    23.0000
  1631.7036  6754.8604 6754250.0000    -999.25     8.9620     8.9620   114.9095     0.0000    -999.25    56.1313     2.6124     2.6565     3.5129  1631.7036     0.5926  -749.7835    -999.25     0.0302     0.2376     0.0465     0.0465     0.0465 22159.6133     2.5466     2.6126     2.6124     6.8246    44.4195     1.0000     1.0000     1.0000 -1554.0035    74.7990     0.0465    23.0000
  1631.7473  6737.0767 6737076.5000    -999.25     8.9614     8.9614   114.9330     0.0000    -999.25    56.0919     2.6357     2.6813     3.5786  1631.7473     0.5908  -749.8046    -999.25     0.0298     0.2375     0.0484     0.0484     0.0484 22103.2695     2.5404     2.6359     2.6357     6.9480    44.3935     1.0000     1.0000     1.0000 -1554.0472    74.5644     0.0484    23.0000
  1631.8560  6693.8237 6698777.0000    -999.25     8.9599     8.9599   114.9751     0.0000    -999.25    55.9938     2.6935     2.7430     3.7422  1631.8560     0.5863  -749.8571    -999.25     0.0289     0.2373     0.0529     0.0529     0.0529 21977.6133     2.5250     2.6938     2.6935     7.2551    44.3286     1.0000     1.0000     1.0000 -1554.1560    73.9810     0.0529    23.0000
  1631.8996  6683.4146 6683415.0000    -999.25     8.9596     8.9596   114.9920     0.0000    -999.25    55.8174     2.7201     2.7619     3.7745  1631.8995     0.5832  -749.8781    -999.25     0.0285     0.2368     0.0549     0.0549     0.0549 21927.2129     2.5215     2.7203     2.7201     7.4004    44.2936     1.0000     1.0000     1.0000 -1554.1996    73.4191     0.0549    23.0000
  1632.0084  6671.4072 6678296.5000    -999.25     8.9590     8.9590   114.7935     0.0000    -999.25    55.3772     2.7862     2.8093     3.8552  1632.0084     0.5754  -749.9306    -999.25     0.0275     0.2357     0.0597     0.0597     0.0597 21910.4199     2.5126     2.7865     2.7862     7.7631    44.2064     1.0000     1.0000     1.0000 -1554.3084    72.0170     0.0597    23.0000
  1632.0520  6676.2456 6676245.5000    -999.25     8.9596     8.9596   114.7140     0.0000    -999.25    55.3318     2.8170     2.8296     3.8256  1632.0520     0.5716  -749.9516    -999.25     0.0271     0.2349     0.0612     0.0612     0.0612 21903.6914     2.5127     2.8173     2.8170     7.9381    44.1689     1.0000     1.0000     1.0000 -1554.3519    71.2486     0.0612    23.0000
  1632.1608  6722.9253 6725871.5000    -999.25     8.9611     8.9611   113.9266     0.0000    -999.25    55.2184     2.8939     2.8805     3.7515  1632.1608     0.5620  -750.0041    -999.25     0.0262     0.2329     0.0650     0.0650     0.0650 22066.5078     2.5129     2.8942     2.8939     8.3749    44.0755     1.0000     1.0000     1.0000 -1554.4608    69.3310     0.0650    23.0000
  1632.2044  6745.7588 6745758.5000    -999.25     8.9614     8.9614   113.6110     0.0000    -999.25    55.3789     2.9256     2.9077     3.7535  1632.2043     0.5572  -750.0251    -999.25     0.0258     0.2318     0.0638     0.0638     0.0638 22131.7539     2.5144     2.9259     2.9256     8.5615    44.0368     1.0000     1.0000     1.0000 -1554.5044    68.9110     0.0638    23.0000
  1632.3132  6803.2075 6800529.5000    -999.25     8.9620     8.9620   112.8250     0.0000    -999.25    55.7794     3.0045     2.9755     3.7584  1632.3132     0.5451  -750.0776    -999.25     0.0248     0.2290     0.0608     0.0608     0.0608 22311.4512     2.5183     3.0048     3.0045     9.0271    43.9401     1.0000     1.0000     1.0000 -1554.6132    67.8630     0.0608    23.0000
  1632.3568  6822.4785 6822478.5000    -999.25     8.9620     8.9620   112.5100     0.0000    -999.25    55.8335     3.0303     3.0078     3.8008  1632.3568     0.5400  -750.0987    -999.25     0.0244     0.2281     0.0591     0.0591     0.0591 22383.4609     2.5184     3.0306     3.0303     9.1842    43.9070     1.0000     1.0000     1.0000 -1554.6567    67.5875     0.0591    23.0000
  1632.4656  6858.2451 6853860.5000    -999.25     8.9620     8.9620   111.9324     0.0000    -999.25    55.9684     3.0945     3.0885     3.9066  1632.4656     0.5271  -750.1512    -999.25     0.0235     0.2259     0.0547     0.0547     0.0547 22486.4199     2.5186     3.0948     3.0945     9.5761    43.8243     1.0000     1.0000     1.0000 -1554.7656    66.9000     0.0547    23.0000
  1632.5092  6866.4365 6866436.5000    -999.25     8.9620     8.9620   111.7010     0.0000    -999.25    55.6577     3.1104     3.1195     3.9694  1632.5092     0.5240  -750.1722    -999.25     0.0231     0.2256     0.0555     0.0555     0.0555 22527.6797     2.5164     3.1106     3.1104     9.6754    43.7903     1.0000     1.0000     1.0000 -1554.8092    66.4597     0.0555    23.0000
  1632.6180  6842.2339 6839387.0000    -999.25     8.9620     8.9620   111.8509     0.0000    -999.25    54.8821     3.1501     3.1969     4.1262  1632.6180     0.5163  -750.2247    -999.25     0.0221     0.2248     0.0577     0.0577     0.0577 22438.9336     2.5109     3.1502     3.1501     9.9233    43.7055     1.0000     1.0000     1.0000 -1554.9180    65.3610     0.0577    23.0000
  1632.6616  6828.5479 6828547.5000    -999.25     8.9610     8.9610   111.9110     0.0000    -999.25    54.3236     3.1552     3.2176     4.1754  1632.6616     0.5167  -750.2457    -999.25     0.0217     0.2251     0.0612     0.0612     0.0612 22403.3711     2.5072     3.1553     3.1552     9.9556    43.6694     1.0000     1.0000     1.0000 -1554.9615    64.8872     0.0612    23.0000
  1632.7704  6757.2534 6759567.0000    -999.25     8.9584     8.9584   112.6779     0.0000    -999.25    52.9300     3.1680     3.2691     4.2982  1632.7704     0.5176  -750.2982    -999.25     0.0208     0.2257     0.0701     0.0701     0.0701 22177.0566     2.4980     3.1680     3.1680    10.0362    43.5793     1.0000     1.0000     1.0000 -1555.0704    63.7050     0.0701    23.0000
