~Version ---------------------------------------------------
VERS. 2.0 : CWLS log ASCII Standard -VERSION 2.0
WRAP.  NO : 
~Well ------------------------------------------------------
STRT.m                                                1290.3698 : 
STOP.m                                                1526.7422 : 
STEP.m                                                   0.1524 : 
NULL.                                                   -999.25 : 
COMP.                                                           : COMPANY
WELL.                                                   Well-18 : WELL
FLD .                                                           : FIELD
LOC .                                                           : LOCATION
SRVC.                                                           : SERVICE COMPANY
DATE. 2021-01-20 14:34:10   : Log Export Date {yyyy-MM-dd HH:mm : ss}
PROV.                                                           : PROVINCE
UWI .                                                   Well-18 : UNIQUE WELL ID
API .                                                           : API NUMBER
~Curve Information -----------------------------------------
DEPTH             .m        : DEPTH
ACOUSTICIMPEDANCE1.kPa.s/m  : ACOUSTICIMPEDANCE1
AI                .kPa.s/m  : AI
AVG_PIGN          .m3/m3    : AVG_PIGN
BS                .in       : BS
CALI              .in       : CALI
CALI[DERIVED]1    .in       : CALI[DERIVED]1
DT                .us/ft    : DT
FACIES            ._        : FACIES
FLD1              ._        : FLD1
GR                .gAPI     : GR
DEPTH_1           .m        : DEPTH_1
NPHI              .m3/m3    : NPHI
PEF               .b/e      : PEF
PERF_INT          ._        : PERF_INT
PHIT              .m3/m3    : PHIT
PIGN              .m3/m3    : PIGN
PIGN_MODELLING    .m3/m3    : PIGN_MODELLING
PIMP              .kPa.s/m  : PIMP
RHOB              .g/cm3    : RHOB
LLD               .ohm.m    : LLD
RT_MODELLING      .ohm.m    : RT_MODELLING
RT_POWER          .ohm.m    : RT_POWER
RXO               .ohm.m    : RXO
SP                .mV       : SP
SUWI              ._        : SUWI
SUWI_MODELLING    ._        : SUWI_MODELLING
SXWI              ._        : SXWI
TDVSS             .m        : TDVSS
TEMP              .K        : TEMP
VCL               .%        : VCL
WATER_VOL         ._        : WATER_VOL
ZLT               ._        : ZLT
~Params ----------------------------------------------------
~Other -----------------------------------------------------
~ASCII -----------------------------------------------------
# ...
  1508.3018  5653.9399 5653940.0000    -999.25     8.5000     8.5244     8.5244   123.8459     4.0000    -999.25    69.0626  1508.3019     0.5370     4.5103    -999.25     0.2908     0.1629     0.1629 18549.6719     2.2973     4.4802     4.4802    20.0723     3.1367   -61.3750     0.8060     0.8060     0.8596 -1414.1960   165.7780    63.9610     0.1313    22.0000
  1508.4542  5740.5249 5740525.0000    -999.25     8.5000     8.4927     8.4927   121.8133     4.0000    -999.25    71.3512  1508.4542     0.5437     4.1155    -999.25     0.2797     0.1599     0.1599 18833.7441     2.2942     4.3847     4.3847    19.2259     3.5777   -61.3750     0.8412     0.8412     0.8659 -1414.3470   165.7866    59.9230     0.1345    22.0000
  1508.6066  5945.7515 5945751.5000    -999.25     8.5000     8.4903     8.4903   118.8134     4.0000    -999.25    67.1014  1508.6066     0.4763     4.0285    -999.25     0.2334     0.1201     0.1201 19507.0586     2.3177     4.4909     4.4909    20.1683     3.5014   -61.3750     0.8985     0.8985     0.9036 -1414.4980   165.7953    56.6470     0.1079    22.0000
  1508.7590  6770.7983 6770798.5000    -999.25     8.5000     8.4989     8.4989   110.2148     4.0000    -999.25    67.6747  1508.7590     0.4038     4.4929    -999.25     0.1599     0.0434     0.0434 22213.9062     2.4483     5.8923     5.8923    34.7190     3.6913   -61.3750     0.9649     0.9649     0.9663 -1414.6489   165.8040    58.2740     0.0419    22.0000
  1508.9114  7642.5469 7642546.5000    -999.25     8.5000     8.5454     8.5454   105.0970     4.0000    -999.25    70.7547  1508.9114     0.3606     6.6463    -999.25     0.1265     0.0001     0.0100 25073.9727     2.6352     7.7653     7.7653    60.2996     3.9532   -61.3750     1.0000     1.0000     1.0000 -1414.7999   165.8126    63.2630     0.0001    22.0000
  1509.0638  7015.9409 7015941.0000    -999.25     8.5000     8.5798     8.5798   114.1359     4.0000    -999.25    78.8161  1509.0638     0.3683     5.9890    -999.25     0.1727     0.0429     0.0429 23018.1777     2.6272     8.0728     8.0728    65.1703    18.5692   -61.3750     0.8557     0.8557     0.9505 -1414.9509   165.8213    64.9070     0.0367    22.0000
  1509.2162  6564.9575 6564957.5000    -999.25     8.5000     8.5585     8.5585   112.9741     0.0000    -999.25    80.7866  1509.2162     0.4351     5.0100    -999.25     0.2559     0.1234     0.1234 21538.5742     2.4333     8.3529     8.3529    69.7704     3.3431   -61.3750     0.6511     0.6511     0.8582 -1415.1018   165.8300    66.2340     0.0804    22.0000
  1509.3686  5746.8433 5746843.0000    -999.25     8.5000     8.5477     8.5477   120.7777     0.0000    -999.25    84.1753  1509.3687     0.4883     4.2913    -999.25     0.3030     0.1697     0.1697 18854.4727     2.2772     7.4180     7.4180    55.0272     3.4769   -61.3750     0.6282     0.6282     0.8171 -1415.2528   165.8386    66.6680     0.1066    22.0000
  1509.5210  5798.2168 5798217.0000    -999.25     8.5000     8.5159     8.5159   117.5891     0.0000    -999.25    86.0570  1509.5210     0.5160     3.9434    -999.25     0.3111     0.1831     0.1831 19023.0215     2.2369     5.8462     5.8462    34.1784     3.9753   -61.3750     0.6561     0.6561     0.8187 -1415.4038   165.8473    64.0180     0.1201    22.0000
  1509.6734  5772.3428 5772342.5000    -999.25     8.5000     8.5308     8.5308   117.1024     0.0000    -999.25    88.3063  1509.6735     0.4943     3.8734    -999.25     0.3070     0.1776     0.1776 18938.1328     2.2177     6.0190     6.0190    36.2287     3.7596   -61.3750     0.6610     0.6610     0.8131 -1415.5547   165.8560    64.7190     0.1174    22.0000
  1509.8258  5896.3413 5896341.5000    -999.25     8.5000     8.5775     8.5775   116.2577     4.0000    -999.25    87.9054  1509.8258     0.4879     4.0859    -999.25     0.2865     0.1572     0.1572 19344.9531     2.2490     5.8134     5.8134    33.7961     4.5843   -61.3750     0.6891     0.6891     0.8198 -1415.7057   165.8646    64.6140     0.1084    22.0000
  1509.9782  6078.1426 6078142.5000    -999.25     8.5000     8.5798     8.5798   115.5034     4.0000    -999.25    88.0263  1509.9783     0.4847     5.0511    -999.25     0.2674     0.1384     0.1384 19941.4121     2.3033     6.2212     6.2212    38.7035     3.9907   -61.3750     0.6971     0.6971     0.8454 -1415.8567   165.8733    64.5260     0.0965    22.0000
  1510.1306  6175.8062 6175806.0000    -999.25     8.5000     8.5729     8.5729   115.6460     4.0000    -999.25    87.5826  1510.1306     0.4651     5.0664    -999.25     0.2642     0.1383     0.1383 20261.8320     2.3432     6.7489     6.7489    45.5471     3.1259   -61.3750     0.7151     0.7151     0.8530 -1416.0077   165.8820    62.9630     0.0989    22.0000
  1510.2830  6060.0156 6060015.5000    -999.25     8.5000     8.5457     8.5457   116.5580     4.0000    -999.25    87.4627  1510.2831     0.4187     4.5771    -999.25     0.2748     0.1647     0.1647 19881.9414     2.3174     5.9799     5.9799    35.7587     3.5876   -61.3750     0.7454     0.7454     0.8812 -1416.1586   165.8906    55.0240     0.1228    22.0000
  1510.4354  5930.8936 5930893.5000    -999.25     8.5000     8.4903     8.4903   116.7676     4.0000    -999.25    87.1290  1510.4354     0.3965     3.9138    -999.25     0.2873     0.1840     0.1840 19458.3125     2.2721     6.1112     6.1112    37.3464     1.6627   -61.3750     0.7411     0.7411     0.9084 -1416.3096   165.8993    51.6410     0.1363    22.0000
  1510.5878  5923.9902 5923990.5000    -999.25     8.5000     8.5982     8.5982   115.8437     4.0000    -999.25    89.7915  1510.5878     0.4213     3.8180    -999.25     0.2836     0.1720     0.1720 19435.6641     2.2515     5.9175     5.9175    35.0170     1.8131   -61.3750     0.7378     0.7378     0.8717 -1416.4606   165.9080    55.8330     0.1269    22.0000
  1510.7402  6091.3496 6091349.5000    -999.25     8.5000     8.6565     8.6565   113.9069     4.0000    -999.25    91.0010  1510.7402     0.4257     3.8850    -999.25     0.2722     0.1484     0.1484 19984.7422     2.2764     5.7457     5.7457    33.0136     3.6788   -61.3750     0.7254     0.7254     0.8344 -1416.6115   165.9166    61.9070     0.1076    22.0000
  1510.8926  6089.2876 6089287.5000    -999.25     8.5000     8.6991     8.6991   115.4271     4.0000    -999.25    91.4819  1510.8926     0.4418     4.0132    -999.25     0.2706     0.1402     0.1402 19977.9766     2.3060     6.1888     6.1888    38.3007     3.9515   -61.3750     0.6914     0.6914     0.8189 -1416.7625   165.9253    65.1890     0.0969    22.0000
  1511.0450  6019.8184 6019818.0000    -999.25     8.5000     8.6991     8.6991   116.6832     4.0000    -999.25    91.2036  1511.0450     0.4442     4.4026    -999.25     0.2833     0.1532     0.1532 19750.0605     2.3045     6.6231     6.6231    43.8651     4.4661   -61.3750     0.6568     0.6568     0.8218 -1416.9135   165.9340    65.0240     0.1006    22.0000
  1511.1974  5941.5737 5941573.5000    -999.25     8.5000     8.6970     8.6970   115.9831     4.0000    -999.25    90.9507  1511.1974     0.4757     4.3182    -999.25     0.3043     0.1745     0.1745 19493.3516     2.2609     6.7442     6.7442    45.4838     3.1722   -61.3750     0.6392     0.6392     0.8177 -1417.0643   165.9426    64.8970     0.1116    22.0000
  1511.3498  5738.1895 5738189.5000    -999.25     8.5000     8.6501     8.6501   117.5656     4.0000    -999.25    89.5549  1511.3499     0.4973     3.9766    -999.25     0.3220     0.1980     0.1980 18826.0801     2.2133     6.0306     6.0306    36.3684     4.5604   -61.3750     0.6474     0.6474     0.8106 -1417.2153   165.9513    62.0060     0.1282    22.0000
  1511.5022  5485.1367 5485136.5000    -999.25     8.5000     8.6945     8.6945   121.5391     4.0000    -999.25    90.5748  1511.5022     0.4885     3.4276    -999.25     0.3325     0.2160     0.2160 17995.8555     2.1872     5.6679     5.6679    32.1245     3.7100   -61.3750     0.6661     0.6661     0.8210 -1417.3663   165.9600    58.2330     0.1439    22.0000
