~Version ---------------------------------------------------
VERS. 2.0 : CWLS log ASCII Standard -VERSION 2.0
WRAP.  NO : 
~Well ------------------------------------------------------
STRT.m                                                1249.0292 : 
STOP.m                                                1575.3176 : 
STEP.m                                                   0.1524 : 
NULL.                                                   -999.25 : 
COMP.                                                           : COMPANY
WELL.                                                   Well-10 : WELL
FLD .                                                           : FIELD
LOC .                                                           : LOCATION
SRVC.                                                           : SERVICE COMPANY
DATE. 2021-01-20 14:34:04   : Log Export Date {yyyy-MM-dd HH:mm : ss}
PROV.                                                           : PROVINCE
UWI .                                                   Well-10 : UNIQUE WELL ID
API .                                                           : API NUMBER
~Curve Information -----------------------------------------
DEPTH             .m        : DEPTH
ACOUSTICIMPEDANCE1.kPa.s/m  : ACOUSTICIMPEDANCE1
AI                .kPa.s/m  : AI
AVG_PIGN          .m3/m3    : AVG_PIGN
CALI              .in       : CALI
CALI[DERIVED]1    .in       : CALI[DERIVED]1
DFL               .ohm.m    : DFL
DT                .us/ft    : DT
FACIES            ._        : FACIES
FLD1              ._        : FLD1
GR                .gAPI     : GR
HDRS              .ohm.m    : HDRS
HMRS              .ohm.m    : HMRS
DEPTH_1           .m        : DEPTH_1
NPHI              .m3/m3    : NPHI
PEF               .b/e      : PEF
PERF_INT          ._        : PERF_INT
PERMEABILITY      .mD       : PERMEABILITY
PHIT              .m3/m3    : PHIT
PIGN              .m3/m3    : PIGN
PIGN_MODELLING    .m3/m3    : PIGN_MODELLING
PIMP              .kPa.s/m  : PIMP
RHOB              .g/cm3    : RHOB
RT_MODELLING      .ohm.m    : RT_MODELLING
RT_POWER          .ohm.m    : RT_POWER
SP                .mV       : SP
SUWI              ._        : SUWI
SUWI_MODELLING    ._        : SUWI_MODELLING
SXWI              ._        : SXWI
TDVSS             .m        : TDVSS
TEMP              .K        : TEMP
VCL               .%        : VCL
WATER_VOL         ._        : WATER_VOL
ZLT               ._        : ZLT
~Params ----------------------------------------------------
~Other -----------------------------------------------------
~ASCII -----------------------------------------------------
# ...
  1507.1948  5447.4268 5447427.0000    -999.25     8.3286     8.3286     4.5289   127.6792     0.0000    -999.25    76.3579     2.8605     2.9132  1507.1948     0.5791     4.7592    -999.25     1.3099     0.0035     0.0035     0.0100 17872.1348     2.2819     4.5289    20.5109   116.4514     0.9905     0.9905     0.9867 -1427.1948   174.2711    66.7180     0.0034    23.0000
  1507.3472  5231.3843 5231384.5000    -999.25     8.2927     8.2927     4.6266   130.0563     0.0000    -999.25    76.8497     2.9531     2.9743  1507.3472     0.5167     4.3104    -999.25     1.3145     0.0001     0.0001     0.0100 17163.3340     2.2322     4.6266    21.4054   116.7445     1.0000     1.0000     1.0000 -1427.3472   174.2807    60.9420     0.0001    24.0000
  1507.4996  5153.4800 5153480.0000    -999.25     8.2570     8.2570     4.6434   129.4200     0.0000    -999.25    76.2454     3.0430     3.0397  1507.4996     0.4945     3.9587    -999.25     1.3192     0.0001     0.0001     0.0100 16907.7422     2.1882     4.6434    21.5612   116.7676     1.0000     1.0000     1.0000 -1427.4996   174.2902    54.0640     0.0001    24.0000
  1507.6520  5065.4502 5065450.0000    -999.25     8.2513     8.2513     4.5237   128.1671     0.0000    -999.25    74.5609     3.2159     3.1974  1507.6520     0.5207     3.6378    -999.25     1.3238     0.0001     0.0001     0.0100 16618.9297     2.1300     4.5237    20.4639   116.5947     1.0000     1.0000     1.0000 -1427.6520   174.2997    45.9000     0.0001    24.0000
  1507.8044  4816.9810 4816981.0000    -999.25     8.2275     8.2275     4.7804   128.6151     0.0000    -999.25    70.9187     3.5990     3.5791  1507.8044     0.5730     3.3030    -999.25     1.3285     0.0001     0.0001     0.0100 15803.7432     2.0326     4.7804    22.8522   116.2029     1.0000     1.0000     1.0000 -1427.8044   174.3093    42.7410     0.0001    24.0000
  1507.9568  4417.3008 4417301.0000    -999.25     8.2088     8.2088     5.5821   131.5374     0.0000    -999.25    65.0356     4.4002     4.3703  1507.9568     0.7064     3.0164    -999.25     1.3332     0.0001     0.0001     0.0100 14492.4570     1.9063     5.5821    31.1598   115.9838     1.0000     1.0000     1.0000 -1427.9568   174.3188    42.6980     0.0001    24.0000
  1508.1092  4033.2019 4033201.7500    -999.25     8.2244     8.2244     7.1869   135.7437     0.0000    -999.25    59.0702     5.8456     5.7638  1508.1093     0.7921     2.8809    -999.25     1.3378     0.0001     0.0001     0.0100 13232.2891     1.7962     7.1869    51.6515   115.7212     1.0000     1.0000     1.0000 -1428.1093   174.3283    41.6270     0.0001    24.0000
  1508.2616  3865.8706 3865870.5000    -999.25     8.2846     8.2846    10.8089   138.6232     0.0000    -999.25    55.8675     7.6767     7.5308  1508.2616     0.8209     3.1037    -999.25     1.3425     0.0001     0.0001     0.0100 12683.3018     1.7582    10.8089   116.8323   115.2339     1.0000     1.0000     1.0000 -1428.2616   174.3379    44.7380     0.0001    24.0000
  1508.4140  4083.7463 4083746.2500    -999.25     8.2794     8.2794    15.3796   137.3999     0.0000    -999.25    55.8226     7.8277     7.7049  1508.4141     0.6712     3.7500    -999.25     1.3471     0.0001     0.0001     0.0100 13398.1182     1.8409    15.3796   236.5321   114.9903     1.0000     1.0000     1.0000 -1428.4141   174.3474    50.2160     0.0001    24.0000
  1508.5664  4646.7651 4646765.0000    -999.25     8.2942     8.2942    11.7589   132.3425     0.0000    -999.25    57.7690     6.0479     6.0282  1508.5664     0.5863     4.5998    -999.25     1.3518     0.0001     0.0001     0.0100 15245.2920     2.0176    11.7589   138.2717   114.5991     1.0000     1.0000     1.0000 -1428.5664   174.3569    55.1170     0.0001    24.0000
  1508.7188  5361.0498 5361049.5000    -999.25     8.3157     8.3157     7.3632   125.3131     0.0000    -999.25    60.1719     4.8482     4.8954  1508.7188     0.5432     5.3635    -999.25     1.3565     0.0001     0.0001     0.0100 17588.7461     2.2041     7.3632    54.2167   113.8838     1.0000     1.0000     1.0000 -1428.7188   174.3665    60.4880     0.0001    24.0000
  1508.8712  5985.0957 5985095.5000    -999.25     8.3130     8.3130     6.4623   119.6009     0.0000    -999.25    61.7001     4.6217     4.6673  1508.8712     0.5418     5.7942    -999.25     1.3611     0.0001     0.0001     0.0100 19636.1406     2.3485     6.4623    41.7613   113.1951     1.0000     1.0000     1.0000 -1428.8712   174.3760    64.1850     0.0001    24.0000
  1509.0236  6255.8994 6255899.5000    -999.25     8.2975     8.2975     6.9924   117.2690     0.0000    -999.25    62.3060     4.6468     4.6556  1509.0236     0.5249     5.8355    -999.25     1.3658     0.0001     0.0001     0.0100 20524.6035     2.4069     6.9924    48.8937   112.5383     1.0000     1.0000     1.0000 -1429.0236   174.3855    63.1880     0.0001    24.0000
  1509.1760  6247.3638 6247363.5000    -999.25     8.2899     8.2899     7.2492   116.5364     0.0000    -999.25    63.1241     4.4651     4.4478  1509.1760     0.5012     5.6077    -999.25     1.3704     0.0001     0.0001     0.0100 20496.5996     2.3886     7.2492    52.5509   112.1183     1.0000     1.0000     1.0000 -1429.1760   174.3951    61.2420     0.0001    24.0000
  1509.3284  6187.5317 6187532.0000    -999.25     8.2930     8.2930     6.6795   116.0968     0.0000    -999.25    65.1765     4.2246     4.2121  1509.3284     0.4876     5.3290    -999.25     1.3751     0.0001     0.0001     0.0100 20300.3008     2.3568     6.6795    44.6157   111.9058     1.0000     1.0000     1.0000 -1429.3284   174.4046    61.1020     0.0001    24.0000
  1509.4808  6185.2539 6185254.0000    -999.25     8.2987     8.2987     6.5605   115.4743     0.0000    -999.25    68.6453     4.1334     4.1543  1509.4808     0.4832     5.1377    -999.25     1.3797     0.0001     0.0001     0.0100 20292.8281     2.3433     6.5605    43.0402   112.0892     1.0000     1.0000     1.0000 -1429.4808   174.4141    61.9150     0.0001    24.0000
  1509.6332  6342.8267 6342826.5000    -999.25     8.3017     8.3017     6.9248   114.1914     0.0000    -999.25    71.7897     4.0947     4.1655  1509.6332     0.5008     5.1136    -999.25     1.3844     0.0001     0.0001     0.0100 20809.7988     2.3763     6.9248    47.9529   112.8200     1.0000     1.0000     1.0000 -1429.6332   174.4236    63.0040     0.0001    24.0000
  1509.7856  6653.0884 6653088.5000    -999.25     8.3044     8.3044     7.4185   111.8257     0.0000    -999.25    72.3533     4.0197     4.1329  1509.7856     0.4981     5.2595    -999.25     1.3891     0.0001     0.0001     0.0100 21827.7188     2.4409     7.4185    55.0341   113.5805     1.0000     1.0000     1.0000 -1429.7856   174.4332    61.6760     0.0001    24.0000
  1509.9380  6903.2075 6903207.5000    -999.25     8.3448     8.3448     7.4705   111.4564     0.0000    -999.25    70.4648     3.9676     4.0932  1509.9380     0.4773     5.6232    -999.25     1.3937     0.0144     0.0144     0.0144 22648.3203     2.5243     7.4705    55.8084   114.4705     1.0000     1.0000     1.0000 -1429.9380   174.4427    58.1340     0.0144    24.0000
  1510.0904  6688.7842 6688784.0000    -999.25     8.6199     8.6199     6.5211   118.5336     0.0000    -999.25    67.6133     3.8296     3.9037  1510.0905     0.4728     6.1125    -999.25     1.3984     0.0272     0.0272     0.0272 21944.8301     2.6012     6.5211    42.5247   115.6700     1.0000     1.0000     1.0000 -1430.0905   174.4522    61.3010     0.0272    24.0000
  1510.2428  6152.0137 6152013.5000    -999.25     8.5938     8.5938     5.3250   130.1838     0.0000    -999.25    64.9484     3.3560     3.3490  1510.2428     0.5095     6.5826    -999.25     1.4030     0.0300     0.0300     0.0300 20183.7715     2.6276     5.3250    28.3556   116.5986     1.0000     1.0000     1.0000 -1430.2428   174.4618    68.1020     0.0300    24.0000
  1510.3952  5946.7104 5946710.5000    -999.25     8.8348     8.8348     4.0156   134.5091     0.0000    -999.25    64.8921     2.7673     2.7190  1510.3953     0.5063     6.9934    -999.25     1.4077     0.0300     0.0300     0.0300 19510.2051     2.6243     4.0156    16.1250   117.2945     1.0000     1.0000     1.0000 -1430.3953   174.4713    71.8110     0.0300    24.0000
