~Version ---------------------------------------------------
VERS. 2.0 : CWLS log ASCII Standard -VERSION 2.0
WRAP.  NO : 
~Well ------------------------------------------------------
STRT.m                                                1295.9144 : 
STOP.m                                                1639.8812 : 
STEP.m                                                   0.1524 : 
NULL.                                                   -999.25 : 
COMP.                                                           : COMPANY
WELL.                                                    Well-1 : WELL
FLD .                                                           : FIELD
LOC .                                                           : LOCATION
SRVC.                                                           : SERVICE COMPANY
DATE. 2021-01-20 14:33:59   : Log Export Date {yyyy-MM-dd HH:mm : ss}
PROV.                                                           : PROVINCE
UWI .                                                    Well-1 : UNIQUE WELL ID
API .                                                           : API NUMBER
~Curve Information -----------------------------------------
DEPTH             .m        : DEPTH
ACOUSTICIMPEDANCE1.kPa.s/m  : ACOUSTICIMPEDANCE1
AI                .kPa.s/m  : AI
AVG_PIGN          .m3/m3    : AVG_PIGN
CALI              .in       : CALI
CALI[DERIVED]1    .in       : CALI[DERIVED]1
DFL               .ohm.m    : DFL
DT                .us/ft    : DT
FACIES            ._        : FACIES
FLD1              ._        : FLD1
GR                .gAPI     : GR
HDRS              .ohm.m    : HDRS
HMRS              .ohm.m    : HMRS
DEPTH_1           .m        : DEPTH_1
NPHI              .m3/m3    : NPHI
ONE-WAYTIME1      .ms       : ONE-WAYTIME1
PERF_INT          ._        : PERF_INT
PERMEABILITY      .mD       : PERMEABILITY
PIGN              .m3/m3    : PIGN
PIGN_MODELLING    .m3/m3    : PIGN_MODELLING
PIMP              .kPa.s/m  : PIMP
RHOB              .g/cm3    : RHOB
RT_MODELLING      .ohm.m    : RT_MODELLING
RT_POWER          .ohm.m    : RT_POWER
SP                .mV       : SP
SUWI              ._        : SUWI
SUWI_MODELLING    ._        : SUWI_MODELLING
TDVSS             .m        : TDVSS
VCL               .%        : VCL
WATER_VOL         ._        : WATER_VOL
ZLT               ._        : ZLT
~Params ----------------------------------------------------
~Other -----------------------------------------------------
~ASCII -----------------------------------------------------
  1295.9144  4834.3213 4834321.0000    -999.25     9.1419     9.1419     1.0697   137.8066    -999.25    -999.25    61.3278     0.9144     0.9398  1295.9144     0.5643  -587.3891    -999.25    -999.25     0.0306     0.0306 15860.6338     2.1857     1.0697     1.1443   283.6404     1.0000     1.0000 -1217.4244    66.3700     0.0306    -999.25
  1296.0668  4751.9272 4751927.0000    -999.25     9.2247     9.2247     1.2028   139.5873     0.0000    -999.25    61.9954     0.9650     0.9785  1296.0668     0.5611  -587.4626    -999.25    -999.25     0.0302     0.0302 15590.3115     2.1762     1.2028     1.4467   283.5604     1.0000     1.0000 -1217.5768    66.7440     0.0302    -999.25
  1296.2192  4777.4341 4777434.5000    -999.25     9.2680     9.2680     1.2145   140.0185     0.0000    -999.25    63.5188     0.8993     0.9119  1296.2192     0.5630  -587.5362    -999.25    -999.25     0.0295     0.0295 15673.9971     2.1946     1.2145     1.4750   283.5041     1.0000     1.0000 -1217.7291    67.5200     0.0295    -999.25
  1296.3716  4810.3301 4810330.0000    -999.25     9.2766     9.2766     1.0487   139.3474     0.0000    -999.25    64.9925     0.8250     0.8443  1296.3716     0.5677  -587.6097    -999.25    -999.25     0.0287     0.0287 15781.9229     2.1992     1.0487     1.0998   283.9129     1.0000     1.0000 -1217.8816    68.4310     0.0287    -999.25
  1296.5240  4827.2563 4827256.5000    -999.25     9.2866     9.2866     0.9479   138.8638     0.0000    -999.25    65.6985     0.8143     0.8354  1296.5239     0.5743  -587.6832    -999.25    -999.25     0.0276     0.0276 15837.4551     2.1992     0.9479     0.8984   284.0639     1.0000     1.0000 -1218.0339    69.6500     0.0276    -999.25
  1296.6764  4823.1411 4823141.0000    -999.25     9.3008     9.3008     0.9471   139.0847     0.0000    -999.25    65.1353     0.8262     0.8443  1296.6764     0.5844  -587.7568    -999.25    -999.25     0.0261     0.0261 15823.9531     2.2009     0.9471     0.8971   283.8429     1.0000     1.0000 -1218.1864    71.2800     0.0261    -999.25
  1296.8288  4820.8628 4820863.0000    -999.25     9.2951     9.2951     0.9822   139.2288     0.0000    -999.25    63.4583     0.8360     0.8556  1296.8287     0.5984  -587.8303    -999.25    -999.25     0.0243     0.0243 15816.4795     2.2021     0.9822     0.9647   283.8681     1.0000     1.0000 -1218.3387    73.2450     0.0243    -999.25
  1296.9812  4853.9077 4853907.5000    -999.25     9.2564     9.2564     1.0116   138.7143     0.0000    -999.25    61.7829     0.8425     0.8626  1296.9812     0.6146  -587.9038    -999.25    -999.25     0.0225     0.0225 15924.8936     2.2090     1.0116     1.0234   283.6264     1.0000     1.0000 -1218.4912    75.2730     0.0225    -999.25
  1297.1336  4923.1733 4923173.0000    -999.25     9.1901     9.1901     1.0237   137.7427     0.0000    -999.25    60.9213     0.8396     0.8536  1297.1335     0.6306  -587.9774    -999.25    -999.25     0.0214     0.0214 16152.1436     2.2248     1.0237     1.0480   283.2007     1.0000     1.0000 -1218.6436    76.4480     0.0214    -999.25
  1297.2860  5010.9248 5010924.5000    -999.25     9.1392     9.1392     1.0042   136.4887     0.0000    -999.25    60.5683     0.8220     0.8341  1297.2860     0.6386  -588.0509    -999.25    -999.25     0.0219     0.0219 16440.0410     2.2439     1.0042     1.0084   283.1617     1.0000     1.0000 -1218.7960    75.9120     0.0219    -999.25
  1297.4384  5115.7886 5115789.0000    -999.25     9.1234     9.1234     0.9722   134.4929     0.0000    -999.25    59.9326     0.8167     0.8276  1297.4384     0.6329  -588.1245    -999.25    -999.25     0.0239     0.0239 16784.0840     2.2573     0.9722     0.9451   283.0885     1.0000     1.0000 -1218.9484    73.7420     0.0239    -999.25
  1297.5908  5195.4697 5195469.5000    -999.25     9.1255     9.1255     0.9844   132.1891     0.0000    -999.25    59.3473     0.8339     0.8464  1297.5908     0.6151  -588.1979    -999.25    -999.25     0.0262     0.0262 17045.5039     2.2532     0.9844     0.9690   282.7950     1.0000     1.0000 -1219.1008    71.1840     0.0262    -999.25
  1297.7432  5192.4106 5192410.5000    -999.25     9.0951     9.0951     1.0159   131.2661     0.0000    -999.25    59.4679     0.8366     0.8621  1297.7432     0.5949  -588.2715    -999.25    -999.25     0.0276     0.0276 17035.4668     2.2362     1.0159     1.0320   282.6720     1.0000     1.0000 -1219.2532    69.6630     0.0276    -999.25
  1297.8956  5120.9468 5120947.0000    -999.25     9.0192     9.0192     1.0138   132.6212     0.0000    -999.25    59.4067     0.8220     0.8548  1297.8956     0.5841  -588.3450    -999.25    -999.25     0.0278     0.0278 16801.0059     2.2282     1.0138     1.0277   282.4119     1.0000     1.0000 -1219.4056    69.4190     0.0278    -999.25
  1298.0480  5046.7246 5046724.5000    -999.25     8.9314     8.9314     1.0005   134.6103     0.0000    -999.25    58.2693     0.8202     0.8482  1298.0480     0.5837  -588.4186    -999.25    -999.25     0.0272     0.0272 16557.4961     2.2288     1.0005     1.0010   281.8163     1.0000     1.0000 -1219.5580    70.1110     0.0272    -999.25
  1298.2004  5023.0513 5023051.5000    -999.25     8.8858     8.8858     1.0103   135.5688     0.0000    -999.25    56.2808     0.8206     0.8462  1298.2004     0.5908  -588.4921    -999.25    -999.25     0.0262     0.0262 16479.8281     2.2341     1.0103     1.0208   281.4995     1.0000     1.0000 -1219.7103    71.1450     0.0262    -999.25
  1298.3528  5012.6719 5012672.0000    -999.25     8.8745     8.8745     1.0078   136.2265     0.0000    -999.25    53.8451     0.8090     0.8311  1298.3528     0.5999  -588.5656    -999.25    -999.25     0.0254     0.0254 16445.7734     2.2404     1.0078     1.0157   281.2861     1.0000     1.0000 -1219.8628    72.0990     0.0254    -999.25
  1298.5052  4972.1162 4972116.5000    -999.25     8.8929     8.8929     0.9687   137.3505     0.0000    -999.25    51.6840     0.8119     0.8314  1298.5051     0.6083  -588.6392    -999.25    -999.25     0.0251     0.0251 16312.7178     2.2406     0.9687     0.9383   280.9508     1.0000     1.0000 -1220.0151    72.3680     0.0251    -999.25
  1298.6576  5008.7085 5008708.5000    -999.25     8.9237     8.9237     1.0024   136.6641     0.0000    -999.25    51.0392     0.8424     0.8739  1298.6576     0.6106  -588.7126    -999.25    -999.25     0.0260     0.0260 16432.7715     2.2458     1.0024     1.0047   280.9194     1.0000     1.0000 -1220.1676    71.4410     0.0260    -999.25
  1298.8100  5289.7202 5289720.0000    -999.25     8.9291     8.9291     1.0738   131.2674     0.0000    -999.25    51.7117     0.8482     0.8856  1298.8099     0.6014  -588.7862    -999.25    -999.25     0.0275     0.0275 17354.7246     2.2781     1.0738     1.1531   280.8879     1.0000     1.0000 -1220.3199    69.7430     0.0275    -999.25
  1298.9624  5733.6338 5733634.0000    -999.25     8.8752     8.8752     1.0391   123.4258     0.0000    -999.25    51.4235     0.8041     0.8257  1298.9624     0.5858  -588.8597    -999.25    -999.25     0.0287     0.0287 18811.1348     2.3218     1.0391     1.0797   280.4238     1.0000     1.0000 -1220.4724    68.4220     0.0287    -999.25
  1299.1148  6029.9272 6029927.5000    -999.25     8.7881     8.7881     0.9061   118.8193     0.0000    -999.25    49.4153     0.7728     0.7831  1299.1147     0.5755  -588.9333    -999.25    -999.25     0.0288     0.0288 19783.2266     2.3506     0.9061     0.8209   280.0910     1.0000     1.0000 -1220.6248    68.2740     0.0288    -999.25
  1299.2672  5955.0996 5955099.5000    -999.25     8.7759     8.7759     0.8747   120.3564     0.0000    -999.25    47.2049     0.8298     0.8405  1299.2672     0.5772  -589.0068    -999.25    -999.25     0.0281     0.0281 19537.7285     2.3515     0.8747     0.7652   279.9365     1.0000     1.0000 -1220.7772    69.0960     0.0281    -999.25
  1299.4196  5546.3940 5546394.0000    -999.25     8.8659     8.8659     1.1540   126.9342     0.0000    -999.25    45.7631     0.9887     1.0150  1299.4196     0.5882  -589.0803    -999.25    -999.25     0.0273     0.0273 18196.8320     2.3098     1.1540     1.3316   279.6711     1.0000     1.0000 -1220.9296    69.9400     0.0273    -999.25
