~Version ---------------------------------------------------
VERS. 2.0 : CWLS log ASCII Standard -VERSION 2.0
WRAP.  NO : 
~Well ------------------------------------------------------
STRT.m                                                   1260.0 : 
STOP.m                                                1587.9648 : 
STEP.m                                                   0.1524 : 
NULL.                                                   -999.25 : 
COMP.                                                           : COMPANY
WELL.                                                    Well-5 : WELL
FLD .                                                           : FIELD
LOC .                                                           : LOCATION
SRVC.                                                           : SERVICE COMPANY
DATE. 2021-01-20 14:34:00   : Log Export Date {yyyy-MM-dd HH:mm : ss}
PROV.                                                           : PROVINCE
UWI .                                                    Well-5 : UNIQUE WELL ID
API .                                                           : API NUMBER
~Curve Information -----------------------------------------
DEPTH             .m        : DEPTH
ACOUSTICIMPEDANCE1.kPa.s/m  : ACOUSTICIMPEDANCE1
AI                .kPa.s/m  : AI
AVG_PIGN          .m3/m3    : AVG_PIGN
CALI              .in       : CALI
CALI[DERIVED]1    .in       : CALI[DERIVED]1
DT                .us/ft    : DT
FACIES            ._        : FACIES
FLD1              ._        : FLD1
GR                .gAPI     : GR
LLD               .ohm.m    : LLD
LLS               .ohm.m    : LLS
LL3               .ohm.m    : LL3
DEPTH_1           .m        : DEPTH_1
NPHI              .m3/m3    : NPHI
PERF_INT          ._        : PERF_INT
PERMEABILITY      .mD       : PERMEABILITY
PIGN              .m3/m3    : PIGN
PIGN_MODELLING    .m3/m3    : PIGN_MODELLING
PIMP              .kPa.s/m  : PIMP
RHOB              .g/cm3    : RHOB
RT_MODELLING      .ohm.m    : RT_MODELLING
RT_POWER          .ohm.m    : RT_POWER
SP                .mV       : SP
SUWI              ._        : SUWI
SUWI_MODELLING    ._        : SUWI_MODELLING
TDVSS             .m        : TDVSS
VCL               .%        : VCL
WATER_VOL         ._        : WATER_VOL
ZLT               ._        : ZLT
~Params ----------------------------------------------------
~Other -----------------------------------------------------
~ASCII -----------------------------------------------------
# ...
  1585.7218  5612.0845 5612084.5000    -999.25     9.9188     9.9188   128.3809     0.0000    -999.25    72.7694     1.7509     1.6298     2.1475  1585.7218     0.5911    -999.25    -999.25     0.0219     0.0219 18412.3516     2.3638     1.7509     3.0665    36.1383     1.0000     1.0000 -1514.1317    75.7182     0.0219    25.0000
  1585.8312  5680.7271 5701198.5000    -999.25     9.9987     9.9987   127.4336     0.0000    -999.25    74.7083     1.7064     1.5453     1.9761  1585.8312     0.5760    -999.25    -999.25     0.0233     0.0233 18704.7207     2.3751     1.7064     2.9117    36.3379     1.0000     1.0000 -1514.2412    73.8640     0.0233    25.0000
  1585.8742  5736.2251 5736225.0000    -999.25    10.0079    10.0079   127.0612     0.0000    -999.25    75.3931     1.6997     1.5365     1.9139  1585.8741     0.5686    -999.25    -999.25     0.0213     0.0213 18819.6367     2.3912     1.6997     2.8892    36.3802     1.0000     1.0000 -1514.2842    73.3903     0.0213    25.0000
  1585.9836  6011.5083 6029652.0000    -999.25    10.0314    10.0314   123.3319     0.0000    -999.25    77.1355     1.6829     1.5141     1.7555  1585.9836     0.5496    -999.25    -999.25     0.0164     0.0164 19782.3242     2.4325     1.6829     2.8320    36.4878     1.0000     1.0000 -1514.3936    72.1850     0.0164    25.0000
  1586.0266  6144.9844 6144984.5000    -999.25    10.0129    10.0129   121.8661     0.0000    -999.25    76.9497     1.6801     1.5279     1.7843  1586.0266     0.5432    -999.25    -999.25     0.0156     0.0156 20160.7109     2.4569     1.6801     2.8229    36.4976     1.0000     1.0000 -1514.4365    71.9692     0.0156    25.0000
  1586.1360  6619.1133 6628165.5000    -999.25     9.9658     9.9658   116.0021     0.0000    -999.25    76.4769     1.6732     1.5630     1.8575  1586.1360     0.5270    -999.25    -999.25     0.0136     0.0136 21745.9492     2.5191     1.6732     2.7998    36.5223     1.0000     1.0000 -1514.5460    71.4200     0.0136    25.0000
  1586.1790  6818.0811 6818081.0000    -999.25     9.9342     9.9342   113.6972     0.0000    -999.25    74.9615     1.6699     1.5912     1.9601  1586.1790     0.5211    -999.25    -999.25     0.0137     0.0137 22369.0332     2.5433     1.6699     2.7887    36.5068     1.0000     1.0000 -1514.5890    71.1943     0.0137    25.0000
  1586.2884  7322.2759 7312370.5000    -999.25     9.8539     9.8539   108.4276     0.0000    -999.25    71.1062     1.6615     1.6631     2.2211  1586.2883     0.5061    -999.25    -999.25     0.0140     0.0140 23990.7168     2.6048     1.6615     2.7605    36.4674     1.0000     1.0000 -1514.6984    70.6200     0.0140    25.0000
  1586.3314  7506.6528 7506652.5000    -999.25     9.8286     9.8286   106.3564     0.0000    -999.25    68.7197     1.6562     1.6915     2.2825  1586.3313     0.5008    -999.25    -999.25     0.0142     0.0142 24628.1250     2.6194     1.6562     2.7430    36.4390     1.0000     1.0000 -1514.7413    70.2631     0.0142    25.0000
  1586.4408  7749.4116 7721126.5000    -999.25     9.7641     9.7641   104.4835     0.0000    -999.25    62.6481     1.6427     1.7640     2.4386  1586.4408     0.4872    -999.25    -999.25     0.0146     0.0146 25331.7812     2.6565     1.6427     2.6985    36.3668     1.0000     1.0000 -1514.8508    69.3550     0.0146    25.0000
  1586.4839  7805.6226 7805622.5000    -999.25     9.7456     9.7456   103.7457     0.0000    -999.25    60.4183     1.6371     1.7776     2.4803  1586.4839     0.4843    -999.25    -999.25     0.0148     0.0148 25608.9980     2.6568     1.6371     2.6803    36.3269     1.0000     1.0000 -1514.8939    69.0114     0.0148    25.0000
  1586.5932  7686.6182 7660010.0000    -999.25     9.6986     9.6986   105.3894     0.0000    -999.25    54.7636     1.6230     1.8120     2.5859  1586.5931     0.4770    -999.25    -999.25     0.0152     0.0152 25131.2676     2.6578     1.6230     2.6342    36.2255     1.0000     1.0000 -1515.0032    68.1400     0.0152    25.0000
  1586.6362  7602.7246 7602724.5000    -999.25     9.6977     9.6977   106.0361     0.0000    -999.25    53.7729     1.6194     1.8038     2.6073  1586.6361     0.4778    -999.25    -999.25     0.0152     0.0152 24943.3223     2.6449     1.6194     2.6224    36.1837     1.0000     1.0000 -1515.0461    67.9862     0.0152    25.0000
  1586.7456  7229.1890 7222073.0000    -999.25     9.6954     9.6954   110.1337     0.0000    -999.25    51.2524     1.6101     1.7829     2.6615  1586.7456     0.4800    -999.25    -999.25     0.0154     0.0154 23694.4648     2.6121     1.6101     2.5923    36.0773     1.0000     1.0000 -1515.1556    67.5950     0.0154    25.0000
  1586.7887  7072.1089 7072109.0000    -999.25     9.7043     9.7043   111.7480     0.0000    -999.25    51.8751     1.6071     1.7592     2.6076  1586.7887     0.4847    -999.25    -999.25     0.0153     0.0153 23202.4570     2.5928     1.6071     2.5827    36.0412     1.0000     1.0000 -1515.1987    67.7873     0.0153    25.0000
  1586.8980  6650.9302 6659747.5000    -999.25     9.7271     9.7271   116.5814     0.0000    -999.25    53.4541     1.5995     1.6992     2.4709  1586.8979     0.4966    -999.25    -999.25     0.0151     0.0151 21849.5645     2.5439     1.5995     2.5584    35.9496     1.0000     1.0000 -1515.3080    68.2750     0.0151    25.0000
  1586.9410  6497.5190 6497519.0000    -999.25     9.7340     9.7340   118.4829     0.0000    -999.25    55.7144     1.5942     1.6704     2.3603  1586.9409     0.5035    -999.25    -999.25     0.0149     0.0149 21317.3203     2.5257     1.5942     2.5416    35.9238     1.0000     1.0000 -1515.3510    68.7564     0.0149    25.0000
  1587.0504  6200.7310 6214447.5000    -999.25     9.7513     9.7513   121.8850     0.0000    -999.25    61.4652     1.5809     1.5971     2.0789  1587.0504     0.5211    -999.25    -999.25     0.0143     0.0143 20388.6074     2.4796     1.5809     2.4991    35.8580     1.0000     1.0000 -1515.4603    69.9810     0.0143    25.0000
  1587.0935  6102.9263 6102926.5000    -999.25     9.7566     9.7566   123.2253     0.0000    -999.25    64.5183     1.5721     1.5705     2.0162  1587.0935     0.5267    -999.25    -999.25     0.0141     0.0141 20022.7246     2.4673     1.5721     2.4718    35.8445     1.0000     1.0000 -1515.5034    70.4363     0.0141    25.0000
  1587.2028  5953.9380 5967097.0000    -999.25     9.7700     9.7700   124.7154     0.0000    -999.25    72.2609     1.5500     1.5028     1.8571  1587.2028     0.5410    -999.25    -999.25     0.0135     0.0135 19577.0898     2.4362     1.5500     2.4025    35.8102     1.0000     1.0000 -1515.6128    71.5910     0.0135    25.0000
  1587.2458  5913.6602 5913660.0000    -999.25     9.7698     9.7698   125.3016     0.0000    -999.25    75.2713     1.5388     1.4832     1.8152  1587.2457     0.5442    -999.25    -999.25     0.0134     0.0134 19401.7715     2.4311     1.5388     2.3681    35.8053     1.0000     1.0000 -1515.6558    71.9031     0.0134    25.0000
  1587.3552  5868.1362 5879326.0000    -999.25     9.7692     9.7692   125.5988     0.0000    -999.25    82.9302     1.5102     1.4334     1.7086  1587.3552     0.5521    -999.25    -999.25     0.0130     0.0130 19289.1270     2.4181     1.5102     2.2806    35.7930     1.0000     1.0000 -1515.7651    72.6970     0.0130    25.0000
  1587.3982  5865.8306 5865831.0000    -999.25     9.7584     9.7584   125.7156     0.0000    -999.25    85.0197     1.4991     1.4236     1.6872  1587.3982     0.5536    -999.25    -999.25     0.0129     0.0129 19244.8516     2.4194     1.4991     2.2475    35.7931     1.0000     1.0000 -1515.8081    72.9159     0.0129    25.0000
  1587.5076  5926.3828 5932484.0000    -999.25     9.7309     9.7309   124.6009     0.0000    -999.25    90.3357     1.4709     1.3986     1.6326  1587.5076     0.5574    -999.25    -999.25     0.0126     0.0126 19463.5293     2.4227     1.4709     2.1635    35.7933     1.0000     1.0000 -1515.9176    73.4730     0.0126    25.0000
  1587.5506  5958.6821 5958682.5000    -999.25     9.7176     9.7176   124.1628     0.0000    -999.25    91.3274     1.4632     1.3985     1.6435  1587.5505     0.5575    -999.25    -999.25     0.0126     0.0126 19549.4824     2.4273     1.4632     2.1412    35.8005     1.0000     1.0000 -1515.9606    73.5729     0.0126    25.0000
