~Version ---------------------------------------------------
VERS. 2.0 : CWLS log ASCII Standard -VERSION 2.0
WRAP.  NO : 
~Well ------------------------------------------------------
STRT.m                                                   1260.0 : 
STOP.m                                                1587.9648 : 
STEP.m                                                   0.1524 : 
NULL.                                                   -999.25 : 
COMP.                                                           : COMPANY
WELL.                                                    Well-5 : WELL
FLD .                                                           : FIELD
LOC .                                                           : LOCATION
SRVC.                                                           : SERVICE COMPANY
DATE. 2021-01-20 14:34:00   : Log Export Date {yyyy-MM-dd HH:mm : ss}
PROV.                                                           : PROVINCE
UWI .                                                    Well-5 : UNIQUE WELL ID
API .                                                           : API NUMBER
~Curve Information -----------------------------------------
DEPTH             .m        : DEPTH
ACOUSTICIMPEDANCE1.kPa.s/m  : ACOUSTICIMPEDANCE1
AI                .kPa.s/m  : AI
AVG_PIGN          .m3/m3    : AVG_PIGN
CALI              .in       : CALI
CALI[DERIVED]1    .in       : CALI[DERIVED]1
DT                .us/ft    : DT
FACIES            ._        : FACIES
FLD1              ._        : FLD1
GR                .gAPI     : GR
LLD               .ohm.m    : LLD
LLS               .ohm.m    : LLS
LL3               .ohm.m    : LL3
DEPTH_1           .m        : DEPTH_1
NPHI              .m3/m3    : NPHI
PERF_INT          ._        : PERF_INT
PERMEABILITY      .mD       : PERMEABILITY
PIGN              .m3/m3    : PIGN
PIGN_MODELLING    .m3/m3    : PIGN_MODELLING
PIMP              .kPa.s/m  : PIMP
RHOB              .g/cm3    : RHOB
RT_MODELLING      .ohm.m    : RT_MODELLING
RT_POWER          .ohm.m    : RT_POWER
SP                .mV       : SP
SUWI              ._        : SUWI
SUWI_MODELLING    ._        : SUWI_MODELLING
TDVSS             .m        : TDVSS
VCL               .%        : VCL
WATER_VOL         ._        : WATER_VOL
ZLT               ._        : ZLT
~Params ----------------------------------------------------
~Other -----------------------------------------------------
~ASCII -----------------------------------------------------
# ...
  1368.5518  5025.1260 5025126.0000    -999.25    11.8702    11.8702   136.0231     0.0000    -999.25    60.8569     1.0719     1.0694     1.2882  1368.5518     0.6057    -999.25     0.0041     0.0193     0.0193 16486.6328     2.2426     1.0719     1.1490    23.6816     1.0000     1.0000 -1296.9618    78.7721     0.0193     1.0000
  1368.6612  5001.7803 5003018.5000    -999.25    11.9098    11.9098   136.5871     0.0000    -999.25    61.0578     1.0624     1.0563     1.3060  1368.6611     0.6157    -999.25     0.0029     0.0181     0.0181 16414.1016     2.2414     1.0624     1.1286    23.8094     1.0000     1.0000 -1297.0712    80.0370     0.0181     1.0000
  1368.7042  4994.3291 4994329.0000    -999.25    11.9127    11.9127   136.8088     0.0000    -999.25    61.5058     1.0636     1.0541     1.3159  1368.7041     0.6178    -999.25     0.0030     0.0185     0.0185 16385.5938     2.2417     1.0636     1.1313    23.8237     1.0000     1.0000 -1297.1141    80.0421     0.0185     1.0000
  1368.8136  5000.6646 5003079.5000    -999.25    11.9202    11.9202   136.6810     0.0000    -999.25    62.6456     1.0669     1.0485     1.3411  1368.8136     0.6233    -999.25     0.0032     0.0193     0.0193 16414.3027     2.2424     1.0669     1.1382    23.8599     1.0000     1.0000 -1297.2236    80.0550     0.0193     1.0000
  1368.8567  5006.5273 5006527.0000    -999.25    11.9193    11.9193   136.6306     0.0000    -999.25    63.3499     1.0743     1.0511     1.3418  1368.8567     0.6212    -999.25     0.0260     0.0295     0.0295 16425.6133     2.2442     1.0743     1.1543    23.8293     1.0000     1.0000 -1297.2667    75.3352     0.0295     1.0000
  1368.9660  5064.5439 5070580.0000    -999.25    11.9169    11.9169   135.3404     0.0000    -999.25    65.1359     1.0932     1.0575     1.3438  1368.9659     0.6157    -999.25     0.0841     0.0554     0.0554 16635.7617     2.2488     1.0932     1.1952    23.7518     1.0000     1.0000 -1297.3760    63.3660     0.0554     1.0000
  1369.0090  5095.7793 5095779.5000    -999.25    11.8903    11.8903   134.8328     0.0000    -999.25    65.8461     1.1071     1.0675     1.3456  1369.0089     0.6087    -999.25     0.1290     0.0596     0.0596 16718.4375     2.2542     1.1071     1.2261    23.6992     1.0000     1.0000 -1297.4189    61.1215     0.0596     1.0000
  1369.1184  5272.4517 5284388.5000    -999.25    11.8227    11.8227   131.1065     0.0000    -999.25    67.6528     1.1423     1.0929     1.3504  1369.1184     0.5910    -999.25     0.2433     0.0704     0.0704 17337.2344     2.2679     1.1423     1.3049    23.5652     1.0000     1.0000 -1297.5284    55.4110     0.0704     1.0000
  1369.1615  5358.6943 5358694.5000    -999.25    11.7666    11.7666   129.6385     0.0000    -999.25    68.1374     1.1616     1.1130     1.3668  1369.1615     0.5808    -999.25     0.2917     0.0712     0.0712 17581.0195     2.2792     1.1616     1.3503    23.4761     1.0000     1.0000 -1297.5715    54.9837     0.0712     1.0000
  1369.2708  5725.4365 5744944.5000    -999.25    11.6245    11.6245   122.8583     0.0000    -999.25    69.3664     1.2105     1.1639     1.4086  1369.2708     0.5550    -999.25     0.4146     0.0730     0.0730 18848.2441     2.3078     1.2105     1.4652    23.2500     1.0000     1.0000 -1297.6808    53.9000     0.0730     1.0000
  1369.3138  5896.9004 5896900.0000    -999.25    11.5530    11.5530   120.1909     0.0000    -999.25    69.3198     1.2320     1.1956     1.4489  1369.3137     0.5457    -999.25     0.4932     0.0741     0.0741 19346.7852     2.3253     1.2320     1.5191    23.1513     1.0000     1.0000 -1297.7238    54.0208     0.0741     1.0000
  1369.4232  6407.1353 6425249.5000    -999.25    11.3711    11.3711   112.7384     0.0000    -999.25    69.2014     1.2869     1.2761     1.5517  1369.4232     0.5223    -999.25     0.6933     0.0770     0.0770 21080.2168     2.3699     1.2869     1.6562    22.9003     1.0000     1.0000 -1297.8331    54.3280     0.0770     1.0000
  1369.4663  6633.4023 6633402.0000    -999.25    11.2965    11.2965   109.8024     0.0000    -999.25    68.9932     1.3072     1.3157     1.6692  1369.4663     0.5158    -999.25     0.7728     0.0777     0.0777 21763.1309     2.3896     1.3072     1.7097    22.7959     1.0000     1.0000 -1297.8762    54.2703     0.0777     1.0000
  1369.5756  7147.1587 7148218.5000    -999.25    11.1074    11.1074   104.0502     0.0000    -999.25    68.4652     1.3585     1.4161     1.9673  1369.5756     0.4995    -999.25     0.9743     0.0795     0.0795 23452.1602     2.4398     1.3585     1.8455    22.5313     1.0000     1.0000 -1297.9856    54.1240     0.0795     1.0000
  1369.6186  7350.7534 7350753.5000    -999.25    11.0452    11.0452   101.7872     0.0000    -999.25    67.7613     1.3754     1.4512     2.0687  1369.6185     0.4946    -999.25     1.0305     0.0796     0.0796 24116.6445     2.4548     1.3754     1.8924    22.4427     1.0000     1.0000 -1298.0286    53.6189     0.0796     1.0000
  1369.7280  7565.2236 7543014.5000    -999.25    10.8868    10.8868   100.4315     0.0000    -999.25    65.9704     1.4184     1.5404     2.3269  1369.7280     0.4821    -999.25     1.1732     0.0800     0.0800 24747.4219     2.4927     1.4184     2.0119    22.2174     1.0000     1.0000 -1298.1379    52.3340     0.0800     1.0000
  1369.7710  7618.5835 7618583.5000    -999.25    10.8600    10.8600    99.8987     0.0000    -999.25    64.7222     1.4328     1.5568     2.3648  1369.7710     0.4776    -999.25     1.2106     0.0800     0.0800 24995.3516     2.4970     1.4328     2.0534    22.1536     1.0000     1.0000 -1298.1809    51.8044     0.0800     1.0000
  1369.8804  7335.7993 7319279.5000    -999.25    10.7918    10.7918   104.2003     0.0000    -999.25    61.5467     1.4693     1.5985     2.4615  1369.8804     0.4664    -999.25     1.3058     0.0800     0.0800 24013.3828     2.5079     1.4693     2.1589    21.9910     1.0000     1.0000 -1298.2904    50.4570     0.0800     1.0000
  1369.9234  7201.6367 7201637.0000    -999.25    10.7921    10.7921   105.8911     0.0000    -999.25    60.3880     1.4830     1.5947     2.4576  1369.9233     0.4632    -999.25     1.3217     0.0800     0.0800 23627.4180     2.5019     1.4830     2.1999    21.9290     1.0000     1.0000 -1298.3334    50.1458     0.0800     1.0000
  1370.0328  6721.7686 6724164.0000    -999.25    10.7930    10.7930   112.7681     0.0000    -999.25    57.4400     1.5179     1.5853     2.4475  1370.0328     0.4551    -999.25     1.3621     0.0800     0.0800 22060.9062     2.4869     1.5179     2.3041    21.7711     1.0000     1.0000 -1298.4427    49.3540     0.0800     1.0000
  1370.0758  6536.4917 6536492.0000    -999.25    10.8110    10.8110   115.4711     0.0000    -999.25    57.1518     1.5311     1.5727     2.4053  1370.0758     0.4541    -999.25     1.3542     0.0800     0.0800 21445.1836     2.4763     1.5311     2.3446    21.7226     1.0000     1.0000 -1298.4857    49.3235     0.0800     1.0000
  1370.1852  6167.9941 6178527.0000    -999.25    10.8570    10.8570   121.0395     0.0000    -999.25    56.4187     1.5645     1.5409     2.2979  1370.1852     0.4516    -999.25     1.3341     0.0800     0.0800 20270.7578     2.4494     1.5645     2.4478    21.5994     1.0000     1.0000 -1298.5952    49.2460     0.0800     1.0000
  1370.2282  6037.8276 6037827.5000    -999.25    10.8654    10.8654   123.2282     0.0000    -999.25    57.0989     1.5732     1.5319     2.1824  1370.2281     0.4546    -999.25     1.2897     0.0797     0.0797 19809.1465     2.4410     1.5732     2.4751    21.5451     1.0000     1.0000 -1298.6382    49.4322     0.0797     1.0000
  1370.3376  5872.3286 5882062.0000    -999.25    10.8867    10.8867   125.6005     0.0000    -999.25    58.8296     1.5952     1.5088     1.8888  1370.3376     0.4624    -999.25     1.1766     0.0792     0.0792 19298.1055     2.4198     1.5952     2.5448    21.4069     1.0000     1.0000 -1298.7476    49.9060     0.0792     1.0000
  1370.3806  5820.8379 5820838.0000    -999.25    10.8747    10.8747   126.5329     0.0000    -999.25    60.4239     1.5942     1.5068     1.8039  1370.3806     0.4699    -999.25     1.1185     0.0791     0.0791 19097.2383     2.4164     1.5942     2.5414    21.3598     1.0000     1.0000 -1298.7905    50.7508     0.0791     1.0000
