~Version ---------------------------------------------------
VERS. 2.0 : CWLS log ASCII Standard -VERSION 2.0
WRAP.  NO : 
~Well ------------------------------------------------------
STRT.m                                                1236.0668 : 
STOP.m                                                1579.8812 : 
STEP.m                                                   0.1524 : 
NULL.                                                   -999.25 : 
COMP.                                                           : COMPANY
WELL.                                                   Well-17 : WELL
FLD .                                                           : FIELD
LOC .                                                           : LOCATION
SRVC.                                                           : SERVICE COMPANY
DATE. 2021-01-20 14:34:08   : Log Export Date {yyyy-MM-dd HH:mm : ss}
PROV.                                                           : PROVINCE
UWI .                                                   Well-17 : UNIQUE WELL ID
API .                                                           : API NUMBER
~Curve Information -----------------------------------------
DEPTH             .m        : DEPTH
ACOUSTICIMPEDANCE1.kPa.s/m  : ACOUSTICIMPEDANCE1
AI                .kPa.s/m  : AI
AVG_PIGN          .m3/m3    : AVG_PIGN
CALI              .in       : CALI
NPHI              .m3/m3    : NPHI
DT                .us/ft    : DT
FACIES            ._        : FACIES
FLD1              ._        : FLD1
GR                .gAPI     : GR
M2R2              .ohm.m    : M2R2
LLS               .ohm.m    : LLS
LLD               .ohm.m    : LLD
DEPTH_1           .m        : DEPTH_1
NPHI_1            .m3/m3    : NPHI_1
PERF_INT          ._        : PERF_INT
PERMEABILITY      .mD       : PERMEABILITY
PHIT              .m3/m3    : PHIT
PIGN              .m3/m3    : PIGN
PIGN_MODELLING    .m3/m3    : PIGN_MODELLING
PIMP              .kPa.s/m  : PIMP
RHOB              .g/cm3    : RHOB
RT_MODELLING      .ohm.m    : RT_MODELLING
RT_POWER          .ohm.m    : RT_POWER
SP                .mV       : SP
SUWI              ._        : SUWI
SUWI_MODELLING    ._        : SUWI_MODELLING
SXWI              ._        : SXWI
TDVSS             .m        : TDVSS
VCL               .%        : VCL
WATER_VOL         ._        : WATER_VOL
RHOB_1            .g/cm3    : RHOB_1
ZLT               ._        : ZLT
~Params ----------------------------------------------------
~Other -----------------------------------------------------
~ASCII -----------------------------------------------------
# ...
  1510.9964  2447.0134 2447013.5000    -999.25     8.8185     0.6744   151.5023     3.0000    -999.25    19.9462    26.1444    27.7632    30.4652  1510.9965     0.6744    -999.25     0.0079     0.0081     0.0100     0.0100  8028.2593     1.2163    30.4652   928.1254   205.8552     1.0000     1.0000     1.0000 -1437.5065     8.2330     0.0100     1.2163    19.0000
  1511.1488  2448.8130 2448813.0000    -999.25     8.8327     0.6615   150.8533     3.0000    -999.25    17.4438    25.5119    26.8323    29.2004  1511.1488     0.6615    -999.25     0.0077     0.0077     0.0100     0.0100  8034.1636     1.2120    29.2004   852.6651   205.5927     1.0000     1.0000     1.0000 -1437.6588     7.8430     0.0100     1.2120    19.0000
  1511.3012  2453.9539 2453954.0000    -999.25     8.8165     0.6524   150.3323     3.0000    -999.25    17.0874    24.7179    25.8655    27.9734  1511.3013     0.6524    -999.25     0.0076     0.0076     0.0100     0.0100  8051.0298     1.2103    27.9734   782.5094   205.3860     1.0000     1.0000     1.0000 -1437.8113     7.7860     0.0100     1.2103    19.0000
  1511.4536  2452.7698 2452769.7500    -999.25     8.7999     0.6455   149.9464     3.0000    -999.25    17.8208    25.2844    26.4840    28.6441  1511.4536     0.6455    -999.25     0.0074     0.0075     0.0100     0.0100  8047.1450     1.2066    28.6441   820.4845   205.2659     1.0000     1.0000     1.0000 -1437.9636     7.6280     0.0100     1.2066    19.0000
  1511.6060  2438.9321 2438932.0000    -999.25     8.7973     0.6398   149.7523     3.0000    -999.25    18.3034    26.4520    27.7941    30.1382  1511.6061     0.6398    -999.25     0.0073     0.0069     0.0100     0.0100  8001.7456     1.1983    30.1382   908.3099   205.2256     1.0000     1.0000     1.0000 -1438.1161     7.0710     0.0100     1.1983    19.0000
  1511.7584  2415.4011 2415401.2500    -999.25     8.7886     0.6410   149.7802     3.0000    -999.25    18.3050    27.8681    29.3753    31.9828  1511.7584     0.6410    -999.25     0.0071     0.0060     0.0100     0.0100  7924.5444     1.1869    31.9828  1022.9026   205.2449     1.0000     1.0000     1.0000 -1438.2684     6.1680     0.0100     1.1869    19.0000
  1511.9108  2409.3633 2409363.2500    -999.25     8.7719     0.6427   149.0626     3.0000    -999.25    17.9674    29.5904    31.2750    34.2746  1511.9109     0.6427    -999.25     0.0070     0.0053     0.0100     0.0100  7904.7349     1.1783    34.2746  1174.7509   205.3074     1.0000     1.0000     1.0000 -1438.4209     5.4480     0.0100     1.1783    19.0000
  1512.0632  2422.8682 2422868.2500    -999.25     8.7680     0.6249   147.6039     3.0000    -999.25    17.7430    30.7167    32.5030    35.8473  1512.0632     0.6249    -999.25     0.0068     0.0051     0.0100     0.0100  7949.0425     1.1733    35.8473  1285.0255   205.3770     1.0000     1.0000     1.0000 -1438.5732     5.2340     0.0100     1.1733    19.0000
  1512.2156  2424.8979 2424898.0000    -999.25     8.7804     0.5894   146.9776     3.0000    -999.25    18.1904    30.7059    32.4881    35.9845  1512.2157     0.5894    -999.25     0.0067     0.0017     0.0100     0.0100  7955.7017     1.1693    35.9845  1294.8843   205.4749     1.0000     1.0000     1.0000 -1438.7256     1.7000     0.0100     1.1693    19.0000
  1512.3680  2414.5596 2414559.7500    -999.25     8.7968     0.5608   147.1020     3.0000    -999.25    18.6840    29.9347    31.6866    35.1861  1512.3680     0.5608    -999.25     0.0065     0.0001     0.0100     0.0100  7921.7837     1.1653    35.1861  1238.0608   205.6678     1.0000     1.0000     1.0000 -1438.8781     0.0000     0.0100     1.1653    19.0000
  1512.5204  2409.1614 2409161.5000    -999.25     8.8013     0.5699   147.0963     3.0000    -999.25    18.3098    28.7251    30.4869    33.8876  1512.5204     0.5699    -999.25     0.0064     0.0001     0.0100     0.0100  7904.0732     1.1627    33.8876  1148.3682   205.9093     1.0000     1.0000     1.0000 -1439.0304     0.0000     0.0100     1.1627    19.0000
  1512.6728  2411.9851 2411985.0000    -999.25     8.7889     0.6198   146.7560     3.0000    -999.25    17.7294    27.6615    29.5487    32.8953  1512.6729     0.6198    -999.25     0.0062     0.0027     0.0100     0.0100  7913.3369     1.1613    32.8953  1082.1027   206.1324     1.0000     1.0000     1.0000 -1439.1829     2.7600     0.0100     1.1613    19.0000
  1512.8252  2412.7014 2412701.2500    -999.25     8.7796     0.6700   146.5861     3.0000    -999.25    17.5509    26.8763    29.0118    32.3850  1512.8252     0.6700    -999.25     0.0061     0.0036     0.0100     0.0100  7915.6870     1.1603    32.3850  1048.7900   206.3780     1.0000     1.0000     1.0000 -1439.3352     3.7110     0.0100     1.1603    19.0000
  1512.9776  2415.2168 2415216.7500    -999.25     8.7982     0.6745   146.3073     3.0000    -999.25    17.3330    26.1422    28.6029    32.0161  1512.9777     0.6745    -999.25     0.0059     0.0035     0.0100     0.0100  7923.9395     1.1593    32.0161  1025.0320   206.6924     1.0000     1.0000     1.0000 -1439.4877     3.5680     0.0100     1.1593    19.0000
  1513.1300  2412.1580 2412158.0000    -999.25     8.8476     0.6456   147.1297     3.0000    -999.25    17.1648    25.8805    28.8120    32.4042  1513.1300     0.6456    -999.25     0.0058     0.0042     0.0100     0.0100  7913.9038     1.1644    32.4042  1050.0341   207.0888     1.0000     1.0000     1.0000 -1439.6400     4.2670     0.0100     1.1644    19.0000
  1513.2824  2416.2710 2416271.0000    -999.25     8.9335     0.6120   149.6683     3.0000    -999.25    17.9372    25.1538    28.4540    31.6550  1513.2825     0.6120    -999.25     0.0056     0.0055     0.0100     0.0100  7927.3984     1.1865    31.6550  1002.0391   207.5686     1.0000     1.0000     1.0000 -1439.7925     5.6520     0.0100     1.1865    19.0000
  1513.4348  2445.7993 2445799.5000    -999.25     9.0936     0.5764   152.0623     3.0000    -999.25    20.2125    21.2161    23.7720    26.3147  1513.4348     0.5764    -999.25     0.0055     0.0036     0.0100     0.0100  8024.2764     1.2202    26.3147   692.4629   208.0830     1.0000     1.0000     1.0000 -1439.9448     3.6880     0.0100     1.2202    19.0000
  1513.5872  2442.1013 2442101.5000    -999.25     9.2742     0.5504   153.8502     3.0000    -999.25    23.0857    16.0061    17.7947    19.6819  1513.5873     0.5504    -999.25     0.0053     0.0009     0.0100     0.0100  8012.1436     1.2327    19.6819   387.3772   208.5130     1.0000     1.0000     1.0000 -1440.0973     0.8120     0.0100     1.2327    19.0000
  1513.7396  2388.8992 2388899.2500    -999.25     9.3024     0.5596   154.1468     3.0000    -999.25    24.7575    13.4060    14.8373    16.3632  1513.7396     0.5596    -999.25     0.0052     0.0003     0.0100     0.0100  7837.5962     1.2081    16.3632   267.7530   208.7267     1.0000     1.0000     1.0000 -1440.2496     0.2180     0.0100     1.2081    19.0000
  1513.8920  2340.5852 2340585.2500    -999.25     9.1321     0.5989   152.5103     3.0000    -999.25    23.9592    14.4659    15.7878    17.2679  1513.8921     0.5989    -999.25     0.0050     0.0026     0.0100     0.0100  7679.0854     1.1711    17.2679   298.1814   208.7226     1.0000     1.0000     1.0000 -1440.4021     2.7080     0.0100     1.1711    19.0000
  1514.0444  2340.3748 2340374.7500    -999.25     8.9411     0.6228   149.6302     3.0000    -999.25    21.3919    19.3052    20.7979    22.8180  1514.0444     0.6228    -999.25     0.0048     0.0033     0.0100     0.0100  7678.3950     1.1489    22.8180   520.6611   208.6751     1.0000     1.0000     1.0000 -1440.5544     3.3620     0.0100     1.1489    19.0000
  1514.1968  2381.3442 2381344.2500    -999.25     8.8548     0.6166   146.5977     3.0000    -999.25    19.2699    24.2016    25.7093    28.4946  1514.1969     0.6166    -999.25     0.0047     0.0030     0.0100     0.0100  7812.8091     1.1453    28.4946   811.9405   208.7188     1.0000     1.0000     1.0000 -1440.7068     3.0380     0.0100     1.1453    19.0000
