~Version ---------------------------------------------------
VERS. 2.0 : CWLS log ASCII Standard -VERSION 2.0
WRAP.  NO : 
~Well ------------------------------------------------------
STRT.m                                                   1260.0 : 
STOP.m                                                1587.9648 : 
STEP.m                                                   0.1524 : 
NULL.                                                   -999.25 : 
COMP.                                                           : COMPANY
WELL.                                                    Well-5 : WELL
FLD .                                                           : FIELD
LOC .                                                           : LOCATION
SRVC.                                                           : SERVICE COMPANY
DATE. 2021-01-20 14:34:00   : Log Export Date {yyyy-MM-dd HH:mm : ss}
PROV.                                                           : PROVINCE
UWI .                                                    Well-5 : UNIQUE WELL ID
API .                                                           : API NUMBER
~Curve Information -----------------------------------------
DEPTH             .m        : DEPTH
ACOUSTICIMPEDANCE1.kPa.s/m  : ACOUSTICIMPEDANCE1
AI                .kPa.s/m  : AI
AVG_PIGN          .m3/m3    : AVG_PIGN
CALI              .in       : CALI
CALI[DERIVED]1    .in       : CALI[DERIVED]1
DT                .us/ft    : DT
FACIES            ._        : FACIES
FLD1              ._        : FLD1
GR                .gAPI     : GR
LLD               .ohm.m    : LLD
LLS               .ohm.m    : LLS
LL3               .ohm.m    : LL3
DEPTH_1           .m        : DEPTH_1
NPHI              .m3/m3    : NPHI
PERF_INT          ._        : PERF_INT
PERMEABILITY      .mD       : PERMEABILITY
PIGN              .m3/m3    : PIGN
PIGN_MODELLING    .m3/m3    : PIGN_MODELLING
PIMP              .kPa.s/m  : PIMP
RHOB              .g/cm3    : RHOB
RT_MODELLING      .ohm.m    : RT_MODELLING
RT_POWER          .ohm.m    : RT_POWER
SP                .mV       : SP
SUWI              ._        : SUWI
SUWI_MODELLING    ._        : SUWI_MODELLING
TDVSS             .m        : TDVSS
VCL               .%        : VCL
WATER_VOL         ._        : WATER_VOL
ZLT               ._        : ZLT
~Params ----------------------------------------------------
~Other -----------------------------------------------------
~ASCII -----------------------------------------------------
# ...
  1541.9400  5327.2231 5331029.0000    -999.25    10.0010    10.0010   136.2640     0.0000    -999.25    85.5190     2.1072     2.0238     2.2574  1541.9399     0.6199    -999.25     0.0156     0.0184     0.0184 17490.2539     2.3816     2.1072     4.4402    30.7227     1.0000     1.0000 -1470.3500    79.2690     0.0184    20.0000
  1541.9830  5315.2139 5315214.0000    -999.25     9.9871     9.9871   136.3455     0.0000    -999.25    87.0564     2.1142     2.0323     2.2703  1541.9829     0.6138    -999.25     0.0163     0.0192     0.0192 17438.3672     2.3776     2.1142     4.4700    30.6798     1.0000     1.0000 -1470.3929    78.5032     0.0192    20.0000
  1542.0924  5293.7720 5298752.0000    -999.25     9.9516     9.9516   136.3195     0.0000    -999.25    90.9677     2.1321     2.0540     2.3034  1542.0924     0.5980    -999.25     0.0181     0.0213     0.0213 17384.3574     2.3676     2.1321     4.5458    30.5707     1.0000     1.0000 -1470.5024    76.5550     0.0213    20.0000
  1542.1355  5292.2666 5292266.5000    -999.25     9.9311     9.9311   136.3093     0.0000    -999.25    92.5946     2.1413     2.0679     2.3324  1542.1355     0.5980    -999.25     0.0180     0.0213     0.0213 17363.0781     2.3667     2.1413     4.5854    30.5335     1.0000     1.0000 -1470.5455    76.5841     0.0213    20.0000
  1542.2448  5287.2915 5294522.5000    -999.25     9.8791     9.8791   136.3131     0.0000    -999.25    96.7203     2.1647     2.1033     2.4062  1542.2448     0.5979    -999.25     0.0176     0.0212     0.0212 17370.4805     2.3646     2.1647     4.6859    30.4390     1.0000     1.0000 -1470.6548    76.6580     0.0212    20.0000
  1542.2878  5295.4097 5295410.0000    -999.25     9.8608     9.8608   136.3146     0.0000    -999.25    97.6782     2.1781     2.1239     2.4416  1542.2877     0.6026    -999.25     0.0168     0.0206     0.0206 17373.3926     2.3682     2.1781     4.7445    30.4104     1.0000     1.0000 -1470.6978    77.2511     0.0206    20.0000
  1542.3972  5332.4824 5338928.5000    -999.25     9.8142     9.8142   135.8987     0.0000    -999.25   100.1154     2.2122     2.1762     2.5316  1542.3972     0.6145    -999.25     0.0148     0.0190     0.0190 17516.1699     2.3776     2.2122     4.8938    30.3377     1.0000     1.0000 -1470.8071    78.7600     0.0190    20.0000
  1542.4403  5356.0732 5356073.5000    -999.25     9.7990     9.7990   135.7348     0.0000    -999.25   100.3421     2.2303     2.2016     2.5790  1542.4403     0.6179    -999.25     0.0116     0.0169     0.0169 17572.4199     2.3852     2.2303     4.9749    30.3098     1.0000     1.0000 -1470.8502    79.3833     0.0169    20.0000
  1542.5496  5440.5405 5442346.0000    -999.25     9.7605     9.7605   134.7127     0.0000    -999.25   100.9172     2.2761     2.2661     2.6993  1542.5496     0.6267    -999.25     0.0032     0.0115     0.0115 17855.4668     2.4046     2.2761     5.1804    30.2390     1.0000     1.0000 -1470.9596    80.9640     0.0115    20.0000
  1542.5926  5476.2871 5476287.0000    -999.25     9.7530     9.7530   134.3106     0.0000    -999.25   100.3467     2.2978     2.2917     2.7337  1542.5925     0.6242    -999.25     0.0026     0.0108     0.0110 17966.8203     2.4131     2.2978     5.2811    30.2146     1.0000     1.0000 -1471.0026    80.8348     0.0108    20.0000
  1542.7020  5576.5664 5572210.0000    -999.25     9.7340     9.7340   133.0878     0.0000    -999.25    98.8952     2.3531     2.3571     2.8212  1542.7020     0.6179    -999.25     0.0011     0.0093     0.0100 18281.5273     2.4349     2.3531     5.5371    30.1525     1.0000     1.0000 -1471.1119    80.5060     0.0093    20.0000
  1542.7450  5609.9126 5609912.5000    -999.25     9.7297     9.7297   132.6071     0.0000    -999.25    97.9958     2.3767     2.3785     2.8382  1542.7450     0.6117    -999.25     0.0010     0.0096     0.0101 18405.2246     2.4407     2.3767     5.6502    30.1331     1.0000     1.0000 -1471.1549    79.8511     0.0096    20.0000
  1542.8544  5575.7266 5568557.0000    -999.25     9.7190     9.7190   134.2148     0.0000    -999.25    95.7075     2.4368     2.4330     2.8816  1542.8544     0.5959    -999.25     0.0007     0.0104     0.0104 18269.5449     2.4552     2.4368     5.9380    30.0837     1.0000     1.0000 -1471.2644    78.1850     0.0104    20.0000
  1542.8974  5552.3022 5552302.0000    -999.25     9.7194     9.7194   134.8467     0.0000    -999.25    94.6791     2.4594     2.4488     2.8861  1542.8973     0.5917    -999.25     0.0007     0.0106     0.0106 18216.2148     2.4564     2.4594     6.0502    30.0731     1.0000     1.0000 -1471.3074    77.7025     0.0106    20.0000
  1543.0068  5440.1211 5435157.5000    -999.25     9.7204     9.7204   137.7979     0.0000    -999.25    92.0627     2.5171     2.4889     2.8976  1543.0068     0.5810    -999.25     0.0005     0.0112     0.0112 17831.8809     2.4594     2.5171     6.3356    30.0460     1.0000     1.0000 -1471.4167    76.4750     0.0112    20.0000
  1543.0498  5389.1133 5389113.5000    -999.25     9.7236     9.7236   138.9579     0.0000    -999.25    91.8784     2.5360     2.5007     2.8991  1543.0498     0.5818    -999.25     0.0005     0.0112     0.0112 17680.8184     2.4569     2.5360     6.4323    30.0462     1.0000     1.0000 -1471.4597    76.5348     0.0112    20.0000
  1543.1592  5226.9688 5228434.5000    -999.25     9.7318     9.7318   142.8901     0.0000    -999.25    91.4096     2.5842     2.5305     2.9028  1543.1592     0.5838    -999.25     0.0005     0.0111     0.0111 17153.6582     2.4504     2.5842     6.6781    30.0466     1.0000     1.0000 -1471.5692    76.6870     0.0111    20.0000
  1543.2022  5165.2793 5165279.0000    -999.25     9.7355     9.7355   144.4356     0.0000    -999.25    91.6528     2.5965     2.5407     2.8854  1543.2021     0.5884    -999.25     0.0005     0.0108     0.0108 16946.4551     2.4477     2.5965     6.7424    30.0592     1.0000     1.0000 -1471.6122    77.2129     0.0108    20.0000
  1543.3116  5045.7129 5050413.5000    -999.25     9.7451     9.7451   147.4389     0.0000    -999.25    92.2716     2.6279     2.5667     2.8411  1543.3116     0.6003    -999.25     0.0007     0.0102     0.0102 16569.5996     2.4407     2.6279     6.9061    30.0912     1.0000     1.0000 -1471.7216    78.5510     0.0102    20.0000
  1543.3546  5005.2651 5005265.5000    -999.25     9.7465     9.7465   148.6194     0.0000    -999.25    92.7738     2.6332     2.5746     2.8350  1543.3546     0.6061    -999.25     0.0007     0.0099     0.0102 16421.4746     2.4405     2.6332     6.9338    30.1216     1.0000     1.0000 -1471.7645    79.2536     0.0099    20.0000
  1543.4640  4994.9839 4997303.0000    -999.25     9.7502     9.7502   148.8973     0.0000    -999.25    94.0513     2.6465     2.5946     2.8194  1543.4640     0.6208    -999.25     0.0008     0.0090     0.0100 16395.3516     2.4401     2.6465     7.0041    30.1989     1.0000     1.0000 -1471.8740    81.0410     0.0090    20.0000
  1543.5070  4994.1733 4994173.5000    -999.25     9.7493     9.7493   149.0065     0.0000    -999.25    94.5013     2.6454     2.5998     2.8173  1543.5070     0.6249    -999.25     0.0008     0.0088     0.0100 16385.0840     2.4415     2.6454     6.9984    30.2488     1.0000     1.0000 -1471.9170    81.5525     0.0088    20.0000
  1543.6164  5077.6680 5076940.0000    -999.25     9.7472     9.7472   146.7692     0.0000    -999.25    95.6459     2.6427     2.6130     2.8118  1543.6163     0.6352    -999.25     0.0007     0.0082     0.0100 16656.6270     2.4450     2.6427     6.9838    30.3757     1.0000     1.0000 -1472.0264    82.8540     0.0082    20.0000
  1543.6594  5109.4712 5109471.5000    -999.25     9.7474     9.7474   145.8898     0.0000    -999.25    96.2351     2.6369     2.6151     2.8392  1543.6593     0.6359    -999.25     0.0007     0.0081     0.0100 16763.3574     2.4456     2.6369     6.9531    30.4425     1.0000     1.0000 -1472.0693    82.9254     0.0081    20.0000
  1543.7688  5186.2246 5184634.5000    -999.25     9.7478     9.7478   143.8164     0.0000    -999.25    97.7342     2.6220     2.6205     2.9089  1543.7688     0.6375    -999.25     0.0008     0.0080     0.0100 17009.9551     2.4471     2.6220     6.8750    30.6124     1.0000     1.0000 -1472.1788    83.1070     0.0080    20.0000
