~Version ---------------------------------------------------
VERS. 2.0 : CWLS log ASCII Standard -VERSION 2.0
WRAP.  NO : 
~Well ------------------------------------------------------
STRT.m                                                1236.0668 : 
STOP.m                                                1579.8812 : 
STEP.m                                                   0.1524 : 
NULL.                                                   -999.25 : 
COMP.                                                           : COMPANY
WELL.                                                   Well-17 : WELL
FLD .                                                           : FIELD
LOC .                                                           : LOCATION
SRVC.                                                           : SERVICE COMPANY
DATE. 2021-01-20 14:34:08   : Log Export Date {yyyy-MM-dd HH:mm : ss}
PROV.                                                           : PROVINCE
UWI .                                                   Well-17 : UNIQUE WELL ID
API .                                                           : API NUMBER
~Curve Information -----------------------------------------
DEPTH             .m        : DEPTH
ACOUSTICIMPEDANCE1.kPa.s/m  : ACOUSTICIMPEDANCE1
AI                .kPa.s/m  : AI
AVG_PIGN          .m3/m3    : AVG_PIGN
CALI              .in       : CALI
NPHI              .m3/m3    : NPHI
DT                .us/ft    : DT
FACIES            ._        : FACIES
FLD1              ._        : FLD1
GR                .gAPI     : GR
M2R2              .ohm.m    : M2R2
LLS               .ohm.m    : LLS
LLD               .ohm.m    : LLD
DEPTH_1           .m        : DEPTH_1
NPHI_1            .m3/m3    : NPHI_1
PERF_INT          ._        : PERF_INT
PERMEABILITY      .mD       : PERMEABILITY
PHIT              .m3/m3    : PHIT
PIGN              .m3/m3    : PIGN
PIGN_MODELLING    .m3/m3    : PIGN_MODELLING
PIMP              .kPa.s/m  : PIMP
RHOB              .g/cm3    : RHOB
RT_MODELLING      .ohm.m    : RT_MODELLING
RT_POWER          .ohm.m    : RT_POWER
SP                .mV       : SP
SUWI              ._        : SUWI
SUWI_MODELLING    ._        : SUWI_MODELLING
SXWI              ._        : SXWI
TDVSS             .m        : TDVSS
VCL               .%        : VCL
WATER_VOL         ._        : WATER_VOL
RHOB_1            .g/cm3    : RHOB_1
ZLT               ._        : ZLT
~Params ----------------------------------------------------
~Other -----------------------------------------------------
~ASCII -----------------------------------------------------
# ...
  1578.0524  5336.1050 5336105.0000    -999.25     8.7202     0.5488   128.7446     0.0000    -999.25    93.4149     2.2490     2.2333     2.2313  1578.0525     0.5488    -999.25    -999.25     0.2094     0.0338     0.0338 17506.9062     2.2539     2.2313     4.9789   234.9469     1.0000     1.0000     1.0000 -1504.5625    87.0290     0.0338     2.2539    -999.25
  1578.2048  5255.8496 5255849.5000    -999.25     8.6962     0.5471   130.4252     0.0000    -999.25    93.3887     2.2719     2.2599     2.2602  1578.2048     0.5471    -999.25    -999.25     0.2190     0.0372     0.0372 17243.5996     2.2490     2.2602     5.1086   235.0936     1.0000     1.0000     1.0000 -1504.7148    86.1700     0.0372     2.2490    -999.25
  1578.3572  5262.8638 5262864.0000    -999.25     8.6971     0.5358   130.8739     0.0000    -999.25    -999.25     2.3142     2.3032     2.3049  1578.3573     0.5358    -999.25    -999.25    -999.25    -999.25    -999.25 17266.6133     2.2597     2.3049     5.3126   235.0648    -999.25    -999.25    -999.25 -1504.8672    -999.25    -999.25     2.2597    -999.25
  1578.5096  5275.6187 5275618.5000    -999.25     8.7238     0.5243   131.5206    -999.25    -999.25    -999.25     2.3263     2.3140     2.3166  1578.5096     0.5243    -999.25    -999.25    -999.25    -999.25    -999.25 17308.4609     2.2764     2.3166     5.3668   234.8828    -999.25    -999.25    -999.25 -1505.0197    -999.25    -999.25     2.2764    -999.25
  1578.6620  5299.0986 5299098.5000    -999.25     8.7484     0.5291   131.4136    -999.25    -999.25    -999.25     2.2954     2.2811     2.2841  1578.6620     0.5291    -999.25    -999.25    -999.25    -999.25    -999.25 17385.4941     2.2847     2.2841     5.2171   234.6350    -999.25    -999.25    -999.25 -1505.1720    -999.25    -999.25     2.2847    -999.25
  1578.8144  5336.8765 5336876.5000    -999.25     8.7550     0.5468   130.3280    -999.25    -999.25    -999.25     2.2568     2.2405     2.2435  1578.8145     0.5468    -999.25    -999.25    -999.25    -999.25    -999.25 17509.4375     2.2820     2.2435     5.0332   234.3921    -999.25    -999.25    -999.25 -1505.3245    -999.25    -999.25     2.2820    -999.25
  1578.9668  5350.6147 5350615.0000    -999.25     8.7563     0.5563   129.5365    -999.25    -999.25    -999.25     2.2336     2.2152     2.2176  1578.9668     0.5563    -999.25    -999.25    -999.25    -999.25    -999.25 17554.5098     2.2739     2.2176     4.9176   234.2015    -999.25    -999.25    -999.25 -1505.4768    -999.25    -999.25     2.2739    -999.25
  1579.1192  5357.1250 5357125.0000    -999.25     8.7577     0.5533   128.9438    -999.25    -999.25    -999.25     2.2387     2.2157     2.2177  1579.1193     0.5533    -999.25    -999.25    -999.25    -999.25    -999.25 17575.8691     2.2663     2.2177     4.9183   234.0781    -999.25    -999.25    -999.25 -1505.6293    -999.25    -999.25     2.2663    -999.25
  1579.2716  5334.6553 5334655.5000    -999.25     8.7587     0.5443   129.5092    -999.25    -999.25    -999.25     2.2756     2.2465     2.2472  1579.2716     0.5443    -999.25    -999.25    -999.25    -999.25    -999.25 17502.1504     2.2667     2.2472     5.0499   234.0262    -999.25    -999.25    -999.25 -1505.7816    -999.25    -999.25     2.2667    -999.25
  1579.4240  5360.0659 5360065.5000    -999.25     8.7778     0.5338   130.0775    -999.25    -999.25    -999.25     2.3212     2.2835     2.2822  1579.4241     0.5338    -999.25    -999.25    -999.25    -999.25    -999.25 17585.5176     2.2875     2.2822     5.2083   234.0748    -999.25    -999.25    -999.25 -1505.9341    -999.25    -999.25     2.2875    -999.25
  1579.5764  5489.7476 5489747.5000    -999.25     8.8159     0.5233   129.2489    -999.25    -999.25    -999.25     2.3642     2.3152     2.3118  1579.5764     0.5233    -999.25    -999.25    -999.25    -999.25    -999.25 18010.9824     2.3279     2.3118     5.3445   234.1971    -999.25    -999.25    -999.25 -1506.0864    -999.25    -999.25     2.3279    -999.25
  1579.7288  5656.5747 5656575.0000    -999.25     8.8347     0.5164   127.9884    -999.25    -999.25    -999.25     2.4270     2.3640     2.3586  1579.7289     0.5164    -999.25    -999.25    -999.25    -999.25    -999.25 18558.3164     2.3753     2.3586     5.5631   234.2685    -999.25    -999.25    -999.25 -1506.2389    -999.25    -999.25     2.3753    -999.25
  1579.8812  5934.8047 5934804.5000    -999.25     8.8249     0.5122   125.0743    -999.25    -999.25    -999.25     2.5242     2.4441     2.4361  1579.8812     0.5122    -999.25    -999.25    -999.25    -999.25    -999.25 19471.1445     2.4353     2.4361     5.9347   234.2333    -999.25    -999.25    -999.25 -1506.3912    -999.25    -999.25     2.4353    -999.25
