~Version ---------------------------------------------------
VERS. 2.0 : CWLS log ASCII Standard -VERSION 2.0
WRAP.  NO : 
~Well ------------------------------------------------------
STRT.m                                                1295.9144 : 
STOP.m                                                1639.8812 : 
STEP.m                                                   0.1524 : 
NULL.                                                   -999.25 : 
COMP.                                                           : COMPANY
WELL.                                                    Well-1 : WELL
FLD .                                                           : FIELD
LOC .                                                           : LOCATION
SRVC.                                                           : SERVICE COMPANY
DATE. 2021-01-20 14:33:59   : Log Export Date {yyyy-MM-dd HH:mm : ss}
PROV.                                                           : PROVINCE
UWI .                                                    Well-1 : UNIQUE WELL ID
API .                                                           : API NUMBER
~Curve Information -----------------------------------------
DEPTH             .m        : DEPTH
ACOUSTICIMPEDANCE1.kPa.s/m  : ACOUSTICIMPEDANCE1
AI                .kPa.s/m  : AI
AVG_PIGN          .m3/m3    : AVG_PIGN
CALI              .in       : CALI
CALI[DERIVED]1    .in       : CALI[DERIVED]1
DFL               .ohm.m    : DFL
DT                .us/ft    : DT
FACIES            ._        : FACIES
FLD1              ._        : FLD1
GR                .gAPI     : GR
HDRS              .ohm.m    : HDRS
HMRS              .ohm.m    : HMRS
DEPTH_1           .m        : DEPTH_1
NPHI              .m3/m3    : NPHI
ONE-WAYTIME1      .ms       : ONE-WAYTIME1
PERF_INT          ._        : PERF_INT
PERMEABILITY      .mD       : PERMEABILITY
PIGN              .m3/m3    : PIGN
PIGN_MODELLING    .m3/m3    : PIGN_MODELLING
PIMP              .kPa.s/m  : PIMP
RHOB              .g/cm3    : RHOB
RT_MODELLING      .ohm.m    : RT_MODELLING
RT_POWER          .ohm.m    : RT_POWER
SP                .mV       : SP
SUWI              ._        : SUWI
SUWI_MODELLING    ._        : SUWI_MODELLING
TDVSS             .m        : TDVSS
VCL               .%        : VCL
WATER_VOL         ._        : WATER_VOL
ZLT               ._        : ZLT
~Params ----------------------------------------------------
~Other -----------------------------------------------------
~ASCII -----------------------------------------------------
# ...
  1636.0712  6208.1665 6208166.5000    -999.25     8.8224     8.8224     1.9817   125.0000     0.0000    -999.25    93.6033     1.6660     1.7273  1636.0712     0.6058  -751.5097    -999.25    -999.25     0.0168     0.0168 20368.0000     2.5460     1.9817     3.9272   287.9501     1.0000     1.0000 -1557.5812    81.5260     0.0168    -999.25
  1636.2236  6196.2183 6196218.5000    -999.25     8.8395     8.8395     2.1983   125.0000     0.0000    -999.25    93.6033     1.6753     1.7651  1636.2236     0.6051  -751.5833    -999.25    -999.25     0.0154     0.0154 20328.8008     2.5411     2.1983     4.8326   287.6006     1.0000     1.0000 -1557.7336    83.0520     0.0154    -999.25
  1636.3760  6190.1714 6190171.5000    -999.25     8.8561     8.8561     2.2951   125.0000     0.0000    -999.25    93.6033     1.6074     1.7520  1636.3760     0.6192  -751.6567    -999.25    -999.25     0.0133     0.0133 20308.9609     2.5386     2.2951     5.2675   287.3854     1.0000     1.0000 -1557.8860    85.3700     0.0133    -999.25
  1636.5284  6175.5410 6175541.0000    -999.25     8.8737     8.8737     2.1653   125.0000     0.0000    -999.25    93.6033     1.5524     1.6601  1636.5284     0.6451  -751.7303    -999.25    -999.25     0.0127     0.0127 20260.9609     2.5326     2.1653     4.6885   287.4345     1.0000     1.0000 -1558.0383    85.9880     0.0127    -999.25
  1636.6808  6108.7773 6108777.0000    -999.25     8.8841     8.8841     2.0028   125.0000     0.0000    -999.25    93.6033     1.5200     1.5263  1636.6808     0.6715  -751.8038    -999.25    -999.25     0.0131     0.0131 20041.9199     2.5052     2.0028     4.0114   287.3777     1.0000     1.0000 -1558.1908    85.5630     0.0131    -999.25
  1636.8332  6033.9185 6033918.5000    -999.25     8.9000     8.9000     1.8645   125.0000     0.0000    -999.25    93.6033     1.4589     1.4484  1636.8331     0.6884  -751.8774    -999.25    -999.25     0.0136     0.0136 19796.3203     2.4745     1.8645     3.4762   287.2938     1.0000     1.0000 -1558.3431    85.0170     0.0136    -999.25
  1636.9856  5985.9795 5985979.5000    -999.25     8.9119     8.9119     1.7545   125.0000     0.0000    -999.25    93.6033     1.4631     1.4643  1636.9856     0.6914  -751.9509    -999.25    -999.25     0.0140     0.0140 19639.0391     2.4549     1.7545     3.0781   287.0482     1.0000     1.0000 -1558.4956    84.6030     0.0140    -999.25
  1637.1380  5944.1367 5944136.5000    -999.25     8.9211     8.9211     1.7930   125.0000     0.0000    -999.25    93.6033     1.5839     1.5700  1637.1379     0.6812  -752.0244    -999.25    -999.25     0.0145     0.0145 19501.7598     2.4377     1.7930     3.2149   286.8257     1.0000     1.0000 -1558.6479    84.0950     0.0145    -999.25
  1637.2904  5902.0010 5902001.0000    -999.25     8.9375     8.9375     1.9874   125.0000     0.0000    -999.25    93.6033     1.7339     1.7149  1637.2904     0.6679  -752.0980    -999.25    -999.25     0.0154     0.0154 19363.5195     2.4204     1.9874     3.9499   286.7547     1.0000     1.0000 -1558.8004    83.0070     0.0154    -999.25
  1637.4428  5865.4487 5865449.0000    -999.25     8.9639     8.9639     2.2469   125.0000     0.0000    -999.25    93.6033     1.8142     1.8062  1637.4427     0.6568  -752.1715    -999.25    -999.25     0.0161     0.0161 19243.5996     2.4054     2.2469     5.0483   286.7065     1.0000     1.0000 -1558.9528    82.2620     0.0161    -999.25
  1637.5952  5840.8701 5840870.0000    -999.25     8.9880     8.9880     2.4002   125.0000     0.0000    -999.25    93.6033     1.7914     1.7911  1637.5952     0.6537  -752.2450    -999.25    -999.25     0.0154     0.0154 19162.9609     2.3954     2.4002     5.7612   286.9768     1.0000     1.0000 -1559.1052    83.1200     0.0154    -999.25
  1637.7476  5834.1406 5834140.5000    -999.25     9.0123     9.0123     2.3298   125.0000     0.0000    -999.25    93.6033     1.7212     1.7000  1637.7476     0.6619  -752.3185    -999.25    -999.25     0.0139     0.0139 19140.8809     2.3926     2.3298     5.4281   287.1959     1.0000     1.0000 -1559.2576    84.6710     0.0139    -999.25
  1637.9000  5842.7720 5842772.0000    -999.25     9.0420     9.0420     2.1330   125.0000     0.0000    -999.25    93.6033     1.6340     1.5945  1637.9000     0.6786  -752.3921    -999.25    -999.25     0.0134     0.0134 19169.1992     2.3961     2.1330     4.5499   287.4005     1.0000     1.0000 -1559.4100    85.2150     0.0134    -999.25
  1638.0524  5844.7471 5844747.5000    -999.25     9.0968     9.0968     1.9614   125.0000     0.0000    -999.25    93.6033     1.5289     1.5160  1638.0524     0.6931  -752.4656    -999.25    -999.25     0.0132     0.0132 19175.6797     2.3970     1.9614     3.8472   287.8965     1.0000     1.0000 -1559.5624    85.4580     0.0132    -999.25
  1638.2048  5832.6772 5832677.0000    -999.25     9.1841     9.1841     1.8292   125.0000     0.0000    -999.25    93.6033     1.4091     1.4421  1638.2048     0.6987  -752.5391    -999.25    -999.25     0.0131     0.0131 19136.0801     2.3920     1.8292     3.3460   288.1779     1.0000     1.0000 -1559.7148    85.5810     0.0131    -999.25
  1638.3572  5814.9014 5814901.5000    -999.25     9.2914     9.2914     1.6738   125.0000     0.0000    -999.25    93.6033     1.2738     1.3474  1638.3572     0.6967  -752.6127    -999.25    -999.25     0.0131     0.0131 19077.7598     2.3847     1.6738     2.8017   288.5567     1.0000     1.0000 -1559.8672    85.6180     0.0131    -999.25
  1638.5096  5805.0986 5805098.5000    -999.25     9.3081     9.3081     1.4602   125.0000     0.0000    -999.25    93.6033     1.1542     1.2422  1638.5096     0.6928  -752.6862    -999.25    -999.25     0.0131     0.0131 19045.5996     2.3807     1.4602     2.1323   288.9805     1.0000     1.0000 -1560.0195    85.5560     0.0131    -999.25
  1638.6620  5832.8970 5832897.0000    -999.25     9.1679     9.1679     1.3409   125.0000     0.0000    -999.25    93.6033     1.0901     1.1682  1638.6620     0.6926  -752.7597    -999.25    -999.25     0.0132     0.0132 19136.8008     2.3921     1.3409     1.7981   289.1069     1.0000     1.0000 -1560.1720    85.4250     0.0132    -999.25
  1638.8144  5894.1489 5894149.0000    -999.25     9.0039     9.0039     1.3406   125.0000     0.0000    -999.25    93.6033     1.0909     1.1643  1638.8143     0.6986  -752.8333    -999.25    -999.25     0.0135     0.0135 19337.7598     2.4172     1.3406     1.7973   289.2867     1.0000     1.0000 -1560.3243    85.1280     0.0135    -999.25
  1638.9668  5945.8916 5945891.5000    -999.25     8.9595     8.9595     1.4315   125.0000     0.0000    -999.25    93.6033     1.1397     1.2285  1638.9668     0.6956  -752.9068    -999.25    -999.25     0.0144     0.0144 19507.5195     2.4384     1.4315     2.0492   289.3399     1.0000     1.0000 -1560.4768    84.2000     0.0144    -999.25
  1639.1192  5938.9429 5938942.5000    -999.25     9.0124     9.0124     1.4775   125.0000     0.0000    -999.25    93.6033     1.1738     1.2653  1639.1191     0.6754  -752.9803    -999.25    -999.25     0.0168     0.0168 19484.7207     2.4356     1.4775     2.1830   289.2181     1.0000     1.0000 -1560.6291    81.5310     0.0168    -999.25
  1639.2716  5878.4702 5878470.5000    -999.25     9.0949     9.0949     1.5039   125.0000     0.0000    -999.25    93.6033     1.1470     1.1941  1639.2716     0.6451  -753.0538    -999.25    -999.25     0.0202     0.0202 19286.3203     2.4108     1.5039     2.2617   289.3066     1.0000     1.0000 -1560.7816    77.7960     0.0202    -999.25
  1639.4240  5841.7236 5841723.5000    -999.25     9.1389     9.1389     1.4555   125.0000     0.0000    -999.25    93.6033     1.2304     1.2766  1639.4240     0.6195  -753.1274    -999.25    -999.25     0.0221     0.0221 19165.7598     2.3957     1.4555     2.1185   289.4051     1.0000     1.0000 -1560.9340    75.7080     0.0221    -999.25
  1639.5764  5840.7729 5840773.0000    -999.25     9.0905     9.0905     1.7116   125.0000     0.0000    -999.25    93.6033     1.5122     1.7314  1639.5764     0.6057  -753.2009    -999.25    -999.25     0.0217     0.0217 19162.6406     2.3953     1.7116     2.9297   289.5397     1.0000     1.0000 -1561.0864    76.1310     0.0217    -999.25
