~Version ---------------------------------------------------
VERS. 2.0 : CWLS log ASCII Standard -VERSION 2.0
WRAP.  NO : 
~Well ------------------------------------------------------
STRT.m                                                   1260.0 : 
STOP.m                                                1587.9648 : 
STEP.m                                                   0.1524 : 
NULL.                                                   -999.25 : 
COMP.                                                           : COMPANY
WELL.                                                    Well-5 : WELL
FLD .                                                           : FIELD
LOC .                                                           : LOCATION
SRVC.                                                           : SERVICE COMPANY
DATE. 2021-01-20 14:34:00   : Log Export Date {yyyy-MM-dd HH:mm : ss}
PROV.                                                           : PROVINCE
UWI .                                                    Well-5 : UNIQUE WELL ID
API .                                                           : API NUMBER
~Curve Information -----------------------------------------
DEPTH             .m        : DEPTH
ACOUSTICIMPEDANCE1.kPa.s/m  : ACOUSTICIMPEDANCE1
AI                .kPa.s/m  : AI
AVG_PIGN          .m3/m3    : AVG_PIGN
CALI              .in       : CALI
CALI[DERIVED]1    .in       : CALI[DERIVED]1
DT                .us/ft    : DT
FACIES            ._        : FACIES
FLD1              ._        : FLD1
GR                .gAPI     : GR
LLD               .ohm.m    : LLD
LLS               .ohm.m    : LLS
LL3               .ohm.m    : LL3
DEPTH_1           .m        : DEPTH_1
NPHI              .m3/m3    : NPHI
PERF_INT          ._        : PERF_INT
PERMEABILITY      .mD       : PERMEABILITY
PIGN              .m3/m3    : PIGN
PIGN_MODELLING    .m3/m3    : PIGN_MODELLING
PIMP              .kPa.s/m  : PIMP
RHOB              .g/cm3    : RHOB
RT_MODELLING      .ohm.m    : RT_MODELLING
RT_POWER          .ohm.m    : RT_POWER
SP                .mV       : SP
SUWI              ._        : SUWI
SUWI_MODELLING    ._        : SUWI_MODELLING
TDVSS             .m        : TDVSS
VCL               .%        : VCL
WATER_VOL         ._        : WATER_VOL
ZLT               ._        : ZLT
~Params ----------------------------------------------------
~Other -----------------------------------------------------
~ASCII -----------------------------------------------------
# ...
  1347.6300  5017.1445 5014328.0000    -999.25    10.7994    10.7994   135.0012     0.0000    -999.25    71.0436     1.1482     1.1419     1.3126  1347.6300     0.5626    -999.25    -999.25     0.0243     0.0243 16451.2070     2.2222     1.1482     1.3184    21.9012     1.0000     1.0000 -1276.0400    73.2250     0.0243     0.0000
  1347.6731  5013.5732 5013573.0000    -999.25    10.7974    10.7974   135.0339     0.0000    -999.25    70.4143     1.1422     1.1369     1.3116  1347.6731     0.5668    -999.25    -999.25     0.0239     0.0239 16448.7305     2.2211     1.1422     1.3046    21.9277     1.0000     1.0000 -1276.0831    73.7505     0.0239     0.0000
  1347.7824  4989.0493 4985393.0000    -999.25    10.7924    10.7924   135.5360     0.0000    -999.25    68.8184     1.1268     1.1242     1.3089  1347.7823     0.5774    -999.25    -999.25     0.0226     0.0226 16356.2764     2.2185     1.1268     1.2697    21.9949     1.0000     1.0000 -1276.1924    75.0830     0.0226     0.0000
  1347.8254  4974.3066 4974306.5000    -999.25    10.7907    10.7907   135.7335     0.0000    -999.25    68.4814     1.1229     1.1208     1.3113  1347.8253     0.5791    -999.25    -999.25     0.0225     0.0225 16319.9033     2.2152     1.1229     1.2609    22.0602     1.0000     1.0000 -1276.2354    75.3003     0.0225     0.0000
  1347.9348  4949.1431 4948341.5000    -999.25    10.7863    10.7863   135.9015     0.0000    -999.25    67.6240     1.1129     1.1120     1.3175  1347.9348     0.5837    -999.25    -999.25     0.0220     0.0220 16234.7158     2.2067     1.1129     1.2385    22.2264     1.0000     1.0000 -1276.3447    75.8530     0.0220     0.0000
  1347.9779  4938.1118 4938112.0000    -999.25    10.7990    10.7990   135.9677     0.0000    -999.25    67.5498     1.1115     1.1108     1.3190  1347.9779     0.5825    -999.25    -999.25     0.0221     0.0221 16201.1543     2.2028     1.1115     1.2354    22.2773     1.0000     1.0000 -1276.3878    75.7042     0.0221     0.0000
  1348.0872  4940.8057 4943658.0000    -999.25    10.8314    10.8314   135.2919     0.0000    -999.25    67.3615     1.1079     1.1078     1.3227  1348.0872     0.5796    -999.25    -999.25     0.0224     0.0224 16219.3506     2.1931     1.1079     1.2276    22.4064     1.0000     1.0000 -1276.4972    75.3270     0.0224     0.0000
  1348.1302  4945.8403 4945840.0000    -999.25    10.8380    10.8380   135.0260     0.0000    -999.25    67.5004     1.1097     1.1089     1.3249  1348.1301     0.5774    -999.25    -999.25     0.0227     0.0227 16226.5098     2.1910     1.1097     1.2314    22.4088     1.0000     1.0000 -1276.5402    75.0587     0.0227     0.0000
  1348.2396  4974.6729 4979748.5000    -999.25    10.8550    10.8550   133.9192     0.0000    -999.25    67.8537     1.1141     1.1116     1.3303  1348.2396     0.5718    -999.25    -999.25     0.0233     0.0233 16337.7568     2.1857     1.1141     1.2411    22.4150     1.0000     1.0000 -1276.6495    74.3760     0.0233     0.0000
  1348.2826  4993.0762 4993076.0000    -999.25    10.8323    10.8323   133.4842     0.0000    -999.25    68.0686     1.1205     1.1142     1.3356  1348.2826     0.5717    -999.25    -999.25     0.0233     0.0233 16381.4834     2.1867     1.1205     1.2556    22.4088     1.0000     1.0000 -1276.6925    74.3692     0.0233     0.0000
  1348.3920  5047.9097 5051282.5000    -999.25    10.7746    10.7746   132.1816     0.0000    -999.25    68.6154     1.1369     1.1208     1.3491  1348.3920     0.5714    -999.25    -999.25     0.0233     0.0233 16572.4492     2.1891     1.1369     1.2925    22.3929     1.0000     1.0000 -1276.8020    74.3520     0.0233     0.0000
  1348.4350  5074.1611 5074161.0000    -999.25    10.7573    10.7573   131.6696     0.0000    -999.25    68.9311     1.1439     1.1240     1.3557  1348.4349     0.5738    -999.25    -999.25     0.0231     0.0231 16647.5098     2.1920     1.1439     1.3087    22.3947     1.0000     1.0000 -1276.8450    74.6398     0.0231     0.0000
  1348.5444  5116.0859 5116573.5000    -999.25    10.7133    10.7133   131.0243     0.0000    -999.25    69.7342     1.1619     1.1322     1.3724  1348.5444     0.5798    -999.25    -999.25     0.0224     0.0224 16786.6582     2.1992     1.1619     1.3501    22.3993     1.0000     1.0000 -1276.9543    75.3720     0.0224     0.0000
  1348.5874  5133.2441 5133244.0000    -999.25    10.7091    10.7091   130.7706     0.0000    -999.25    69.9855     1.1664     1.1355     1.3783  1348.5874     0.5820    -999.25    -999.25     0.0222     0.0222 16841.3516     2.2024     1.1664     1.3605    22.3906     1.0000     1.0000 -1276.9973    75.6265     0.0222     0.0000
  1348.6968  5145.4292 5143604.5000    -999.25    10.6982    10.6982   130.9287     0.0000    -999.25    70.6248     1.1776     1.1440     1.3932  1348.6968     0.5876    -999.25    -999.25     0.0216     0.0216 16875.3418     2.2102     1.1776     1.3867    22.3684     1.0000     1.0000 -1277.1068    76.2740     0.0216     0.0000
  1348.7398  5147.6763 5147676.5000    -999.25    10.6871    10.6871   130.9908     0.0000    -999.25    70.6651     1.1778     1.1470     1.3960  1348.7397     0.5870    -999.25    -999.25     0.0217     0.0217 16888.7012     2.2123     1.1778     1.3873    22.3580     1.0000     1.0000 -1277.1498    76.1837     0.0217     0.0000
  1348.8492  5144.8423 5143090.0000    -999.25    10.6590    10.6590   131.3666     0.0000    -999.25    70.7678     1.1784     1.1547     1.4032  1348.8492     0.5856    -999.25    -999.25     0.0219     0.0219 16873.6562     2.2174     1.1784     1.3887    22.3317     1.0000     1.0000 -1277.2592    75.9540     0.0219     0.0000
  1348.8922  5141.2876 5141287.5000    -999.25    10.6505    10.6505   131.5143     0.0000    -999.25    70.7702     1.1760     1.1571     1.4032  1348.8922     0.5825    -999.25    -999.25     0.0222     0.0222 16867.7422     2.2183     1.1760     1.3830    22.3253     1.0000     1.0000 -1277.3021    75.5553     0.0222     0.0000
  1349.0016  5123.3340 5122680.5000    -999.25    10.6288    10.6288   132.1204     0.0000    -999.25    70.7762     1.1698     1.1633     1.4031  1349.0016     0.5746    -999.25    -999.25     0.0231     0.0231 16806.6953     2.2208     1.1698     1.3684    22.3091     1.0000     1.0000 -1277.4116    74.5410     0.0231     0.0000
  1349.0446  5115.3672 5115367.0000    -999.25    10.6416    10.6416   132.3586     0.0000    -999.25    70.9626     1.1672     1.1648     1.3997  1349.0446     0.5707    -999.25    -999.25     0.0236     0.0236 16782.7012     2.2213     1.1672     1.3625    22.2976     1.0000     1.0000 -1277.4546    74.0484     0.0236     0.0000
  1349.1540  5098.2891 5098473.0000    -999.25    10.6742    10.6742   132.8848     0.0000    -999.25    71.4370     1.1608     1.1687     1.3911  1349.1539     0.5607    -999.25    -999.25     0.0247     0.0247 16727.2754     2.2227     1.1608     1.3474    22.2684     1.0000     1.0000 -1277.5640    72.7950     0.0247     0.0000
  1349.1970  5091.8330 5091833.0000    -999.25    10.6768    10.6768   133.0916     0.0000    -999.25    71.6843     1.1617     1.1699     1.3902  1349.1969     0.5575    -999.25    -999.25     0.0251     0.0251 16705.4902     2.2234     1.1617     1.3495    22.2557     1.0000     1.0000 -1277.6069    72.3873     0.0251     0.0000
  1349.3064  5074.1772 5072659.0000    -999.25    10.6834    10.6834   133.6526     0.0000    -999.25    72.3136     1.1639     1.1732     1.3880  1349.3064     0.5494    -999.25    -999.25     0.0260     0.0260 16642.5820     2.2250     1.1639     1.3547    22.2235     1.0000     1.0000 -1277.7164    71.3500     0.0260     0.0000
  1349.3495  5065.1050 5065105.0000    -999.25    10.6710    10.6710   133.8736     0.0000    -999.25    72.6284     1.1657     1.1781     1.3842  1349.3495     0.5461    -999.25    -999.25     0.0264     0.0264 16617.7988     2.2247     1.1657     1.3588    22.2336     1.0000     1.0000 -1277.7595    70.9221     0.0264     0.0000
  1349.4588  5039.0752 5035776.5000    -999.25    10.6396    10.6396   134.5183     0.0000    -999.25    73.4267     1.1701     1.1906     1.3745  1349.4587     0.5376    -999.25    -999.25     0.0274     0.0274 16521.5781     2.2239     1.1701     1.3690    22.2594     1.0000     1.0000 -1277.8688    69.8370     0.0274     0.0000
