~Version ---------------------------------------------------
VERS. 2.0 : CWLS log ASCII Standard -VERSION 2.0
WRAP.  NO : 
~Well ------------------------------------------------------
STRT.m                                                1236.0668 : 
STOP.m                                                1579.8812 : 
STEP.m                                                   0.1524 : 
NULL.                                                   -999.25 : 
COMP.                                                           : COMPANY
WELL.                                                   Well-17 : WELL
FLD .                                                           : FIELD
LOC .                                                           : LOCATION
SRVC.                                                           : SERVICE COMPANY
DATE. 2021-01-20 14:34:08   : Log Export Date {yyyy-MM-dd HH:mm : ss}
PROV.                                                           : PROVINCE
UWI .                                                   Well-17 : UNIQUE WELL ID
API .                                                           : API NUMBER
~Curve Information -----------------------------------------
DEPTH             .m        : DEPTH
ACOUSTICIMPEDANCE1.kPa.s/m  : ACOUSTICIMPEDANCE1
AI                .kPa.s/m  : AI
AVG_PIGN          .m3/m3    : AVG_PIGN
CALI              .in       : CALI
NPHI              .m3/m3    : NPHI
DT                .us/ft    : DT
FACIES            ._        : FACIES
FLD1              ._        : FLD1
GR                .gAPI     : GR
M2R2              .ohm.m    : M2R2
LLS               .ohm.m    : LLS
LLD               .ohm.m    : LLD
DEPTH_1           .m        : DEPTH_1
NPHI_1            .m3/m3    : NPHI_1
PERF_INT          ._        : PERF_INT
PERMEABILITY      .mD       : PERMEABILITY
PHIT              .m3/m3    : PHIT
PIGN              .m3/m3    : PIGN
PIGN_MODELLING    .m3/m3    : PIGN_MODELLING
PIMP              .kPa.s/m  : PIMP
RHOB              .g/cm3    : RHOB
RT_MODELLING      .ohm.m    : RT_MODELLING
RT_POWER          .ohm.m    : RT_POWER
SP                .mV       : SP
SUWI              ._        : SUWI
SUWI_MODELLING    ._        : SUWI_MODELLING
SXWI              ._        : SXWI
TDVSS             .m        : TDVSS
VCL               .%        : VCL
WATER_VOL         ._        : WATER_VOL
RHOB_1            .g/cm3    : RHOB_1
ZLT               ._        : ZLT
~Params ----------------------------------------------------
~Other -----------------------------------------------------
~ASCII -----------------------------------------------------
# ...
  1303.1228  5108.1499 5108150.0000    -999.25     9.6359     0.5283   130.6162     0.0000    -999.25    76.7473     1.2084     1.2011     1.1761  1303.1228     0.5283    -999.25    -999.25     0.2249     0.0417     0.0417 16759.0215     2.1890     1.1761     1.3832   233.2096     1.0000     1.0000     1.0000 -1229.6328    82.2790     0.0417     2.1890    -999.25
  1303.2752  5086.8877 5086887.5000    -999.25     9.4879     0.5355   131.2425     0.0000    -999.25    76.0195     1.2301     1.2238     1.1988  1303.2753     0.5355    -999.25    -999.25     0.2286     0.0462     0.0462 16689.2637     2.1903     1.1988     1.4371   233.1959     1.0000     1.0000     1.0000 -1229.7853    81.8880     0.0462     2.1903    -999.25
  1303.4276  5172.0742 5172074.5000    -999.25     9.4188     0.5470   129.1987     0.0000    -999.25    75.6214     1.2393     1.2333     1.2097  1303.4276     0.5470    -999.25    -999.25     0.2336     0.0525     0.0525 16968.7480     2.1923     1.2097     1.4633   233.1682     1.0000     1.0000     1.0000 -1229.9376    81.3540     0.0525     2.1923    -999.25
  1303.5800  5314.0303 5314030.5000    -999.25     9.4292     0.5612   125.8621     0.0000    -999.25    76.7560     1.2299     1.2246     1.2029  1303.5801     0.5612    -999.25    -999.25     0.2391     0.0592     0.0592 17434.4824     2.1943     1.2029     1.4471   233.0965     1.0000     1.0000     1.0000 -1230.0901    80.7770     0.0592     2.1943    -999.25
  1303.7324  5395.9917 5395992.0000    -999.25     9.4538     0.5610   123.9119     0.0000    -999.25    78.1853     1.2109     1.2072     1.1876  1303.7324     0.5610    -999.25    -999.25     0.2384     0.0584     0.0584 17703.3848     2.1937     1.1876     1.4103   232.9797     1.0000     1.0000     1.0000 -1230.2424    80.8450     0.0584     2.1937    -999.25
  1303.8848  5327.3013 5327301.0000    -999.25     9.4711     0.5325   125.3563     0.0000    -999.25    78.0719     1.1865     1.1849     1.1679  1303.8849     0.5325    -999.25    -999.25     0.2255     0.0424     0.0424 17478.0215     2.1910     1.1679     1.3640   232.8732     1.0000     1.0000     1.0000 -1230.3949    82.2180     0.0424     2.1910    -999.25
  1304.0372  5203.6309 5203631.0000    -999.25     9.4720     0.5074   128.0421     0.0000    -999.25    76.8237     1.1666     1.1669     1.1523  1304.0372     0.5074    -999.25    -999.25     0.2197     0.0353     0.0353 17072.2793     2.1860     1.1523     1.3277   232.8003     1.0000     1.0000     1.0000 -1230.5472    82.5340     0.0353     2.1860    -999.25
  1304.1896  5089.4736 5089474.0000    -999.25     9.4257     0.5146   130.4337     0.0000    -999.25    76.1085     1.1590     1.1613     1.1500  1304.1897     0.5146    -999.25    -999.25     0.2213     0.0373     0.0373 16697.7480     2.1779     1.1500     1.3225   232.7135     1.0000     1.0000     1.0000 -1230.6996    82.5120     0.0373     2.1779    -999.25
  1304.3420  4952.1938 4952194.0000    -999.25     9.3388     0.5327   133.4956     0.0000    -999.25    75.8243     1.1540     1.1576     1.1490  1304.3420     0.5327    -999.25    -999.25     0.2282     0.0457     0.0457 16247.3555     2.1689     1.1490     1.3202   232.6004     1.0000     1.0000     1.0000 -1230.8521    81.9340     0.0457     2.1689    -999.25
  1304.4944  4858.0146 4858015.0000    -999.25     9.2768     0.5391   135.8985     0.0000    -999.25    74.4772     1.1439     1.1486     1.1413  1304.4944     0.5391    -999.25    -999.25     0.2316     0.0500     0.0500 15938.3691     2.1660     1.1413     1.3025   232.5476     1.0000     1.0000     1.0000 -1231.0044    81.5640     0.0500     2.1660    -999.25
  1304.6468  4811.9463 4811946.5000    -999.25     9.2707     0.5369   137.7525     0.0000    -999.25    72.3228     1.1427     1.1477     1.1427  1304.6469     0.5369    -999.25    -999.25     0.2306     0.0488     0.0488 15787.2256     2.1747     1.1427     1.3058   232.6115     1.0000     1.0000     1.0000 -1231.1569    81.6700     0.0488     2.1747    -999.25
  1304.7992  4815.0439 4815044.0000    -999.25     9.2905     0.5379   138.7850     0.0000    -999.25    70.7685     1.1601     1.1638     1.1611  1304.7992     0.5379    -999.25    -999.25     0.2286     0.0462     0.0462 15797.3877     2.1924     1.1611     1.3482   232.7253     1.0000     1.0000     1.0000 -1231.3092    81.8920     0.0462     2.1924    -999.25
  1304.9516  4873.2070 4873207.0000    -999.25     9.3007     0.5450   138.1693     0.0000    -999.25    70.2712     1.1774     1.1791     1.1784  1304.9517     0.5450    -999.25    -999.25     0.2270     0.0443     0.0443 15988.2119     2.2091     1.1784     1.3887   232.8030     1.0000     1.0000     1.0000 -1231.4617    82.0590     0.0443     2.2091    -999.25
  1305.1040  4955.4541 4955454.0000    -999.25     9.3054     0.5474   136.3853     0.0000    -999.25    70.8798     1.1746     1.1749     1.1749  1305.1040     0.5474    -999.25    -999.25     0.2246     0.0413     0.0413 16258.0518     2.2174     1.1749     1.3805   232.8401     1.0000     1.0000     1.0000 -1231.6140    82.3100     0.0413     2.2174    -999.25
  1305.2564  5076.6377 5076638.0000    -999.25     9.3137     0.5329   133.3495     0.0000    -999.25    71.9242     1.1623     1.1609     1.1623  1305.2565     0.5329    -999.25    -999.25     0.2204     0.0361     0.0361 16655.6367     2.2210     1.1623     1.3509   232.8692     1.0000     1.0000     1.0000 -1231.7665    82.7590     0.0361     2.2210    -999.25
  1305.4088  5213.8872 5213887.0000    -999.25     9.3298     0.5177   130.1321     0.0000    -999.25    71.8269     1.1573     1.1540     1.1573  1305.4088     0.5177    -999.25    -999.25     0.2196     0.0352     0.0352 17105.9297     2.2260     1.1573     1.3394   232.9079     1.0000     1.0000     1.0000 -1231.9188    82.4100     0.0352     2.2260    -999.25
  1305.5612  5364.8916 5364891.5000    -999.25     9.3642     0.5246   126.8102     0.0000    -999.25    70.8492     1.1496     1.1449     1.1496  1305.5613     0.5246    -999.25    -999.25     0.2192     0.0347     0.0347 17601.3516     2.2320     1.1496     1.3216   232.9825     1.0000     1.0000     1.0000 -1232.0713    82.6770     0.0347     2.2320    -999.25
  1305.7136  5473.7847 5473784.5000    -999.25     9.4223     0.5335   124.5096     0.0000    -999.25    70.6591     1.1238     1.1188     1.1238  1305.7136     0.5335    -999.25    -999.25     0.2188     0.0342     0.0342 17958.6113     2.2360     1.1238     1.2630   233.0926     1.0000     1.0000     1.0000 -1232.2236    82.9270     0.0342     2.2360    -999.25
  1305.8660  5394.5347 5394535.0000    -999.25     9.4635     0.5131   126.5461     0.0000    -999.25    71.1562     1.0875     1.0825     1.0881  1305.8661     0.5131    -999.25    -999.25     0.2210     0.0370     0.0370 17698.6055     2.2397     1.0881     1.1840   233.2019     1.0000     1.0000     1.0000 -1232.3761    81.4840     0.0370     2.2397    -999.25
  1306.0184  5223.2832 5223283.5000    -999.25     9.4562     0.4775   130.9676     0.0000    -999.25    71.2848     1.0602     1.0546     1.0612  1306.0184     0.4775    -999.25    -999.25     0.2256     0.0430     0.0430 17136.7559     2.2444     1.0612     1.1262   233.2958     1.0000     1.0000     1.0000 -1232.5284    78.4860     0.0430     2.2444    -999.25
  1306.1708  5099.6714 5099671.0000    -999.25     9.4137     0.4627   134.4010     0.0000    -999.25    71.2668     1.0503     1.0443     1.0520  1306.1709     0.4627    -999.25    -999.25     0.2278     0.0459     0.0459 16731.2051     2.2487     1.0520     1.1067   233.3687     1.0000     1.0000     1.0000 -1232.6808    77.0460     0.0459     2.2487    -999.25
  1306.3232  5040.0586 5040058.5000    -999.25     9.3567     0.4865   136.1104     0.0000    -999.25    71.3959     1.0517     1.0457     1.0550  1306.3232     0.4865    -999.25    -999.25     0.2247     0.0418     0.0418 16535.6250     2.2507     1.0550     1.1131   233.4034     1.0000     1.0000     1.0000 -1232.8333    79.1060     0.0418     2.2507    -999.25
