~Version ---------------------------------------------------
VERS. 2.0 : CWLS log ASCII Standard -VERSION 2.0
WRAP.  NO : 
~Well ------------------------------------------------------
STRT.m                                                1290.3698 : 
STOP.m                                                1526.7422 : 
STEP.m                                                   0.1524 : 
NULL.                                                   -999.25 : 
COMP.                                                           : COMPANY
WELL.                                                   Well-18 : WELL
FLD .                                                           : FIELD
LOC .                                                           : LOCATION
SRVC.                                                           : SERVICE COMPANY
DATE. 2021-01-20 14:34:10   : Log Export Date {yyyy-MM-dd HH:mm : ss}
PROV.                                                           : PROVINCE
UWI .                                                   Well-18 : UNIQUE WELL ID
API .                                                           : API NUMBER
~Curve Information -----------------------------------------
DEPTH             .m        : DEPTH
ACOUSTICIMPEDANCE1.kPa.s/m  : ACOUSTICIMPEDANCE1
AI                .kPa.s/m  : AI
AVG_PIGN          .m3/m3    : AVG_PIGN
BS                .in       : BS
CALI              .in       : CALI
CALI[DERIVED]1    .in       : CALI[DERIVED]1
DT                .us/ft    : DT
FACIES            ._        : FACIES
FLD1              ._        : FLD1
GR                .gAPI     : GR
DEPTH_1           .m        : DEPTH_1
NPHI              .m3/m3    : NPHI
PEF               .b/e      : PEF
PERF_INT          ._        : PERF_INT
PHIT              .m3/m3    : PHIT
PIGN              .m3/m3    : PIGN
PIGN_MODELLING    .m3/m3    : PIGN_MODELLING
PIMP              .kPa.s/m  : PIMP
RHOB              .g/cm3    : RHOB
LLD               .ohm.m    : LLD
RT_MODELLING      .ohm.m    : RT_MODELLING
RT_POWER          .ohm.m    : RT_POWER
RXO               .ohm.m    : RXO
SP                .mV       : SP
SUWI              ._        : SUWI
SUWI_MODELLING    ._        : SUWI_MODELLING
SXWI              ._        : SXWI
TDVSS             .m        : TDVSS
TEMP              .K        : TEMP
VCL               .%        : VCL
WATER_VOL         ._        : WATER_VOL
ZLT               ._        : ZLT
~Params ----------------------------------------------------
~Other -----------------------------------------------------
~ASCII -----------------------------------------------------
# ...
  1494.8906  2656.9697 2656969.7500    -999.25     8.5000    15.7610    15.7610   149.0864     3.0000    -999.25    40.8175  1494.8906     0.5457    13.9707    -999.25     0.0005     0.0001     0.0100  8717.0928     1.2996    26.3287    26.3287   693.2015     0.1222   -46.8125     1.0000     1.0000     1.0000 -1400.9115   165.0153     0.2390     0.0001    20.0000
  1495.0430  2654.6570 2654657.0000    -999.25     8.5000    18.4366    18.4366   149.4000     3.0000    -999.25    40.1209  1495.0430     0.5184    14.3835    -999.25     0.0001     0.0001     0.0100  8709.5049     1.3012    25.8843    25.8843   669.9986     0.1185   -46.7500     1.0000     1.0000     1.0000 -1401.0625   165.0239     0.0000     0.0001    20.0000
  1495.1954  2592.1169 2592117.0000    -999.25     8.5000    19.1030    19.1030   151.8875     3.0000    -999.25    36.8535  1495.1954     0.4954    13.9137    -999.25     0.0001     0.0001     0.0100  8504.3213     1.2917    26.1981    26.1981   686.3410     0.1117   -46.6875     1.0000     1.0000     1.0000 -1401.2135   165.0326     0.0000     0.0001    20.0000
  1495.3478  2593.1375 2593137.5000    -999.25     8.5000    16.7366    16.7366   152.4742     3.0000    -999.25    33.4789  1495.3478     0.4970    11.6976    -999.25     0.0001     0.0001     0.0100  8507.6689     1.2972    27.5622    27.5622   759.6765     0.1175   -46.5625     1.0000     1.0000     1.0000 -1401.3644   165.0413     0.0000     0.0001    20.0000
  1495.5002  2626.5876 2626587.5000    -999.25     8.5000    15.5607    15.5607   152.5864     3.0000    -999.25    33.8525  1495.5002     0.5120     8.1014    -999.25     0.0001     0.0001     0.0100  8617.4131     1.3149    29.7249    29.7249   883.5703     0.1355   -46.4375     1.0000     1.0000     1.0000 -1401.5154   165.0499     0.0000     0.0001    20.0000
  1495.6526  2644.9146 2644914.5000    -999.25     8.5000    15.3361    15.3361   152.2551     3.0000    -999.25    30.1900  1495.6526     0.5039     5.0237    -999.25     0.0001     0.0001     0.0100  8677.5410     1.3212    32.3509    32.3509  1046.5787     0.1578   -46.3750     1.0000     1.0000     1.0000 -1401.6664   165.0586     0.0000     0.0001    20.0000
  1495.8050  2580.8792 2580879.2500    -999.25     8.5000    12.8936    12.8936   151.8875     3.0000    -999.25    24.5667  1495.8051     0.5065     3.2929    -999.25     0.0001     0.0001     0.0100  8467.4512     1.2861    34.0912    34.0912  1162.2072     0.1620   -46.3750     1.0000     1.0000     1.0000 -1401.8173   165.0673     0.0000     0.0001    21.0000
  1495.9574  2482.4719 2482472.0000    -999.25     8.5000    10.5505    10.5505   151.8799     3.0000    -999.25    22.1355  1495.9574     0.5170     2.4232    -999.25     0.0001     0.0001     0.0100  8144.5933     1.2370    36.6302    36.6302  1341.7715     0.1638   -46.3125     1.0000     1.0000     1.0000 -1401.9683   165.0759     0.0000     0.0001    21.0000
  1496.1098  2375.4282 2375428.2500    -999.25     8.5000    10.2947    10.2947   152.2442     3.0000    -999.25    22.6584  1496.1099     0.5258     2.1549    -999.25     0.0001     0.0001     0.0100  7793.3999     1.1865    36.6162    36.6162  1340.7461     0.1419   -46.0625     1.0000     1.0000     1.0000 -1402.1193   165.0846     0.0000     0.0001    21.0000
  1496.2622  2368.0803 2368080.2500    -999.25     8.5000    10.1264    10.1264   151.9572     3.0000    -999.25    23.5543  1496.2622     0.5653     2.6074    -999.25     0.0001     0.0001     0.0100  7769.2925     1.1806    32.5336    32.5336  1058.4359     0.1432   -46.0625     1.0000     1.0000     1.0000 -1402.2701   165.0933     0.0000     0.0001    21.0000
  1496.4146  2402.0671 2402067.2500    -999.25     8.5000    10.3624    10.3624   151.6471     3.0000    -999.25    22.0598  1496.4147     0.5444     3.1370    -999.25     0.0001     0.0001     0.0100  7880.7979     1.1951    30.0191    30.0191   901.1464     0.1746   -45.8125     1.0000     1.0000     1.0000 -1402.4211   165.1019     0.0000     0.0001    21.0000
  1496.5670  2433.2837 2433283.7500    -999.25     8.5000    10.5801    10.5801   151.7935     3.0000    -999.25    22.2463  1496.5670     0.5371     3.2929    -999.25     0.0001     0.0001     0.0100  7983.2144     1.2118    29.1130    29.1130   847.5668     0.2126   -45.8750     1.0000     1.0000     1.0000 -1402.5721   165.1106     0.0000     0.0001    21.0000
  1496.7194  2445.6899 2445690.0000    -999.25     8.5000     9.8944     9.8944   151.8834     3.0000    -999.25    22.2832  1496.7195     0.5393     2.4096    -999.25     0.0001     0.0001     0.0100  8023.9175     1.2187    29.4063    29.4063   864.7305     0.1903   -45.8750     1.0000     1.0000     1.0000 -1402.7230   165.1193     0.0000     0.0001    21.0000
  1496.8718  2429.1995 2429199.5000    -999.25     8.5000     9.6066     9.6066   151.5719     3.0000    -999.25    21.7323  1496.8718     0.5158     2.0241    -999.25     0.0001     0.0001     0.0100  7969.8145     1.2080    32.5369    32.5369  1058.6473     0.1832   -45.8125     1.0000     1.0000     1.0000 -1402.8740   165.1279     0.0000     0.0001    21.0000
  1497.0242  2447.6882 2447688.2500    -999.25     8.5000     9.2153     9.2153   151.3734     3.0000    -999.25    21.0341  1497.0242     0.5030     2.0084    -999.25     0.0001     0.0001     0.0100  8030.4731     1.2156    33.0730    33.0730  1093.8228     0.2173   -46.0000     1.0000     1.0000     1.0000 -1403.0250   165.1366     0.0000     0.0001    21.0000
  1497.1766  2468.8328 2468833.0000    -999.25     8.5000     9.2743     9.2743   151.5955     3.0000    -999.25    23.2790  1497.1766     0.4558     2.6704    -999.25     0.0001     0.0001     0.0100  8099.8452     1.2279    32.6120    32.6120  1063.5458     0.1962   -46.0000     1.0000     1.0000     1.0000 -1403.1759   165.1453     0.0000     0.0001    21.0000
  1497.3290  2498.3525 2498352.5000    -999.25     8.5000     9.9688     9.9688   152.0735     3.0000    -999.25    24.6830  1497.3290     0.4692     3.2441    -999.25     0.0001     0.0001     0.0100  8196.6943     1.2465    31.4740    31.4740   990.6102     0.1787   -45.9375     1.0000     1.0000     1.0000 -1403.3269   165.1539     0.0000     0.0001    21.0000
  1497.4814  2470.1343 2470134.2500    -999.25     8.5000    10.3899    10.3899   152.2560     3.0000    -999.25    28.1206  1497.4814     0.4593     3.1121    -999.25     0.0001     0.0001     0.0100  8104.1147     1.2339    28.1021    28.1021   789.7297     0.2055   -45.9375     1.0000     1.0000     1.0000 -1403.4779   165.1626     0.0000     0.0001    21.0000
  1497.6338  2442.2085 2442208.5000    -999.25     8.5000    10.8805    10.8805   152.0625     3.0000    -999.25    26.9747  1497.6338     0.4536     2.5391    -999.25     0.0001     0.0001     0.0100  8012.4946     1.2184    27.7911    27.7911   772.3474     0.2299   -46.1875     1.0000     1.0000     1.0000 -1403.6288   165.1713     0.0000     0.0001    21.0000
  1497.7862  2443.5842 2443584.0000    -999.25     8.5000    11.1830    11.1830   152.0268     3.0000    -999.25    25.7566  1497.7863     0.4356     2.1491    -999.25     0.0001     0.0001     0.0100  8017.0083     1.2188    30.6879    30.6879   941.7465     0.1167   -46.4375     1.0000     1.0000     1.0000 -1403.7798   165.1799     0.0000     0.0001    21.0000
  1497.9386  2444.1497 2444149.5000    -999.25     8.5000    11.6815    11.6815   151.6549     3.0000    -999.25    24.3540  1497.9386     0.4568     2.2989    -999.25     0.0001     0.0001     0.0100  8018.8633     1.2161    30.3270    30.3270   919.7239     0.1251   -46.8125     1.0000     1.0000     1.0000 -1403.9308   165.1886     0.0000     0.0001    21.0000
  1498.0910  2422.5566 2422556.5000    -999.25     8.5000    11.6985    11.6985   151.5975     3.0000    -999.25    27.8675  1498.0911     0.4501     2.5205    -999.25     0.0001     0.0001     0.0100  7948.0200     1.2049    30.0939    30.0939   905.6446     0.1228   -46.9375     1.0000     1.0000     1.0000 -1404.0817   165.1973     0.0000     0.0001    21.0000
