~Version ---------------------------------------------------
VERS. 2.0 : CWLS log ASCII Standard -VERSION 2.0
WRAP.  NO : 
~Well ------------------------------------------------------
STRT.m                                                1290.3698 : 
STOP.m                                                1526.7422 : 
STEP.m                                                   0.1524 : 
NULL.                                                   -999.25 : 
COMP.                                                           : COMPANY
WELL.                                                   Well-18 : WELL
FLD .                                                           : FIELD
LOC .                                                           : LOCATION
SRVC.                                                           : SERVICE COMPANY
DATE. 2021-01-20 14:34:10   : Log Export Date {yyyy-MM-dd HH:mm : ss}
PROV.                                                           : PROVINCE
UWI .                                                   Well-18 : UNIQUE WELL ID
API .                                                           : API NUMBER
~Curve Information -----------------------------------------
DEPTH             .m        : DEPTH
ACOUSTICIMPEDANCE1.kPa.s/m  : ACOUSTICIMPEDANCE1
AI                .kPa.s/m  : AI
AVG_PIGN          .m3/m3    : AVG_PIGN
BS                .in       : BS
CALI              .in       : CALI
CALI[DERIVED]1    .in       : CALI[DERIVED]1
DT                .us/ft    : DT
FACIES            ._        : FACIES
FLD1              ._        : FLD1
GR                .gAPI     : GR
DEPTH_1           .m        : DEPTH_1
NPHI              .m3/m3    : NPHI
PEF               .b/e      : PEF
PERF_INT          ._        : PERF_INT
PHIT              .m3/m3    : PHIT
PIGN              .m3/m3    : PIGN
PIGN_MODELLING    .m3/m3    : PIGN_MODELLING
PIMP              .kPa.s/m  : PIMP
RHOB              .g/cm3    : RHOB
LLD               .ohm.m    : LLD
RT_MODELLING      .ohm.m    : RT_MODELLING
RT_POWER          .ohm.m    : RT_POWER
RXO               .ohm.m    : RXO
SP                .mV       : SP
SUWI              ._        : SUWI
SUWI_MODELLING    ._        : SUWI_MODELLING
SXWI              ._        : SXWI
TDVSS             .m        : TDVSS
TEMP              .K        : TEMP
VCL               .%        : VCL
WATER_VOL         ._        : WATER_VOL
ZLT               ._        : ZLT
~Params ----------------------------------------------------
~Other -----------------------------------------------------
~ASCII -----------------------------------------------------
# ...
  1461.3626  5460.1011 5460101.0000    -999.25     8.5000     8.5341     8.5341   130.8014     0.0000    -999.25   137.8350  1461.3627     0.4457     4.5994    -999.25     0.1150     0.0001     0.0100 17913.7168     2.3431     3.1900     3.1900    10.1760     1.7578   -62.2500     1.0000     1.0000     1.0000 -1367.7350   163.1085    57.4970     0.0001    15.0000
  1461.5150  5004.2578 5004257.5000    -999.25     8.5000     8.5518     8.5518   133.9108     0.0000    -999.25   117.2541  1461.5150     0.4263     5.0671    -999.25     0.0702     0.0001     0.0100 16418.1680     2.1986     3.9031     3.9031    15.2340     2.3459   -61.5000     1.0000     1.0000     1.0000 -1367.8856   163.1172    35.0750     0.0001    15.0000
  1461.6674  4451.1538 4451154.0000    -999.25     8.5000     8.5500     8.5500   126.6468     3.0000    -999.25    85.5974  1461.6675     0.4715     3.5447    -999.25     0.0388     0.0001     0.0100 14603.5234     1.8495     5.7211     5.7211    32.7309     2.6129   -60.8750     1.0000     1.0000     1.0000 -1368.0363   163.1258    19.4150     0.0001    15.0000
  1461.8198  3059.0779 3059078.0000    -999.25     8.5000     8.5519     8.5519   143.0790     3.0000    -999.25    56.9244  1461.8198     0.5363     2.6347    -999.25     0.0188     0.0001     0.0100 10036.3447     1.4360     8.2725     8.2725    68.4349     5.5026   -60.8125     1.0000     1.0000     1.0000 -1368.1869   163.1345     9.3860     0.0001    15.0000
  1461.9722  2527.9739 2527974.0000    -999.25     8.5000     8.5556     8.5556   148.8098     3.0000    -999.25    36.6992  1461.9722     0.5852     2.0117    -999.25     0.0058     0.0001     0.0100  8293.8779     1.2342    14.1524    14.1524   200.2904    25.0250   -60.1875     1.0000     1.0000     1.0000 -1368.3378   163.1432     2.8570     0.0001    15.0000
  1462.1246  2359.5159 2359516.0000    -999.25     8.5000     8.5202     8.5202   148.8724     3.0000    -999.25    27.1681  1462.1246     0.5889     1.8316    -999.25     0.0001     0.0001     0.0100  7741.1943     1.1524    23.1604    23.1604   536.4037    23.4457   -60.1250     1.0000     1.0000     1.0000 -1368.4885   163.1518     0.0000     0.0001    15.0000
  1462.2770  2406.1846 2406184.5000    -999.25     8.5000     8.4810     8.4810   148.1245     3.0000    -999.25    24.7257  1462.2770     0.5871     1.7951    -999.25     0.0042     0.0001     0.0100  7894.3062     1.1693    22.5572    22.5572   508.8290    29.2298   -60.8125     1.0000     1.0000     1.0000 -1368.6393   163.1605     2.0520     0.0001    15.0000
  1462.4294  2580.3328 2580332.7500    -999.25     8.5000     8.4680     8.4680   144.1010     3.0000    -999.25    33.0842  1462.4294     0.5803     1.9355    -999.25     0.0210     0.0001     0.0100  8465.6592     1.2199    18.2476    18.2476   332.9760    26.8261   -60.7500     1.0000     1.0000     1.0000 -1368.7900   163.1692    10.4990     0.0001    15.0000
  1462.5818  3003.8757 3003875.7500    -999.25     8.5000     8.3878     8.3878   137.3148     3.0000    -999.25    57.9698  1462.5818     0.5895     2.1430    -999.25     0.0560     0.0001     0.0100  9855.2354     1.3533    11.2080    11.2080   125.6195    12.3306   -60.3750     1.0000     1.0000     1.0000 -1368.9409   163.1778    28.0200     0.0001    15.0000
  1462.7342  3781.6008 3781600.7500    -999.25     8.5000     8.3170     8.3170   128.2278     3.0000    -999.25    95.0717  1462.7343     0.5587     2.4254    -999.25     0.1087     0.0001     0.0100 12406.8262     1.5909     7.0595     7.0595    49.8371     5.5840   -60.8750     1.0000     1.0000     1.0000 -1369.0917   163.1865    54.3630     0.0001    15.0000
  1462.8866  4910.6284 4910628.5000    -999.25     8.5000     8.3114     8.3114   121.1670     0.0000    -999.25   129.9939  1462.8866     0.5536     2.7826    -999.25     0.1626     0.0001     0.0100 16110.9863     1.9521     4.8913     4.8913    23.9249     2.6759   -61.1875     1.0000     1.0000     1.0000 -1369.2424   163.1952    81.3050     0.0001    15.0000
  1463.0390  5849.7769 5849777.0000    -999.25     8.5000     8.3021     8.3021   116.4276     0.0000    -999.25   152.0340  1463.0391     0.5255     3.3528    -999.25     0.1857     0.0107     0.0107 19192.1816     2.2345     3.9088     3.9088    15.2790     1.4758   -61.2500     1.0000     1.0000     1.0000 -1369.3932   163.2038    87.5100     0.0107    15.0000
  1463.1914  6493.1152 6493115.0000    -999.25     8.5000     8.3319     8.3319   113.0552     0.0000    -999.25   152.1911  1463.1914     0.5480     3.2125    -999.25     0.1699     0.0110     0.0110 21302.8711     2.4084     3.4261     3.4261    11.7382     2.0295   -60.5625     1.0000     1.0000     1.0000 -1369.5441   163.2125    79.4820     0.0110    15.0000
  1463.3438  6934.6694 6934669.5000    -999.25     8.5000     8.4046     8.4046   109.9574     0.0000    -999.25   137.5299  1463.3439     0.5117     3.4363    -999.25     0.1558     0.0001     0.0100 22751.5391     2.5017     3.5632     3.5632    12.6963     2.6305   -60.6875     1.0000     1.0000     1.0000 -1369.6948   163.2212    77.8900     0.0001    15.0000
  1463.4962  7505.7432 7505743.0000    -999.25     8.5000     8.3301     8.3301   107.4349     0.0000    -999.25   111.1658  1463.4962     0.4850     5.5547    -999.25     0.1473     0.0001     0.0100 24625.1406     2.6456     4.1679     4.1679    17.3710     2.9599   -60.4375     1.0000     1.0000     1.0000 -1369.8456   163.2299    73.6230     0.0001    15.0000
  1463.6486  7610.7144 7610714.5000    -999.25     8.5000     8.3035     8.3035   108.5162     0.0000    -999.25   102.1917  1463.6487     0.4196     7.4268    -999.25     0.1408     0.0035     0.0100 24969.5352     2.7096     4.6392     4.6392    21.5222     3.4326   -58.9375     1.0000     1.0000     0.9565 -1369.9965   163.2385    68.6470     0.0035    16.0000
  1463.8010  7263.4644 7263464.5000    -999.25     8.5000     8.3692     8.3692   108.8280     0.0000    -999.25   105.8545  1463.8010     0.4173     7.3328    -999.25     0.1518     0.0132     0.0132 23830.2637     2.5934     5.0440     5.0440    25.4414     5.0325   -59.1875     0.9929     0.9929     0.9553 -1370.1472   163.2472    69.2910     0.0131    16.0000
  1463.9534  6742.4951 6742495.0000    -999.25     8.5000     8.3953     8.3953   115.1980     0.0000    -999.25   109.2207  1463.9534     0.4208     7.3961    -999.25     0.1628     0.0218     0.0218 22121.0469     2.5483     5.4081     5.4081    29.2473     2.9180   -59.2500     0.9822     0.9822     0.9693 -1370.2980   163.2559    70.4940     0.0214    16.0000
  1464.1058  6507.2217 6507221.5000    -999.25     8.5000     8.3468     8.3468   118.5106     0.0000    -999.25   111.7641  1464.1058     0.4250     7.1581    -999.25     0.1773     0.0298     0.0298 21349.1523     2.5301     5.0847     5.0847    25.8540     2.8258   -57.8125     0.9598     0.9598     0.8860 -1370.4487   163.2645    73.7680     0.0286    16.0000
  1464.2582  6306.8892 6306889.0000    -999.25     8.5000     8.2975     8.2975   119.5927     0.0000    -999.25   111.1724  1464.2582     0.4760     6.6687    -999.25     0.1984     0.0468     0.0468 20691.8926     2.4746     4.5393     4.5393    20.6056     3.2111   -58.1250     0.9118     0.9118     0.8047 -1370.5996   163.2732    75.8050     0.0426    16.0000
  1464.4106  5972.9414 5972941.0000    -999.25     8.5000     8.4499     8.4499   121.2884     0.0000    -999.25   123.9565  1464.4106     0.4702     5.7057    -999.25     0.2159     0.0608     0.0608 19596.2637     2.3768     4.3349     4.3349    18.7918     3.0069   -58.5000     0.8818     0.8818     0.7898 -1370.7504   163.2819    77.5500     0.0536    16.0000
  1464.5630  5755.0894 5755089.5000    -999.25     8.5000     8.4712     8.4712   124.3490     0.0000    -999.25   124.7868  1464.5630     0.5117     5.4232    -999.25     0.2183     0.0568     0.0568 18881.5273     2.3479     3.9247     3.9247    15.4031     2.5670   -58.6250     0.9144     0.9144     0.7948 -1370.9011   163.2905    80.7240     0.0519    16.0000
