~Version ---------------------------------------------------
VERS. 2.0 : CWLS log ASCII Standard -VERSION 2.0
WRAP.  NO : 
~Well ------------------------------------------------------
STRT.m                                                1236.0668 : 
STOP.m                                                1579.8812 : 
STEP.m                                                   0.1524 : 
NULL.                                                   -999.25 : 
COMP.                                                           : COMPANY
WELL.                                                   Well-17 : WELL
FLD .                                                           : FIELD
LOC .                                                           : LOCATION
SRVC.                                                           : SERVICE COMPANY
DATE. 2021-01-20 14:34:08   : Log Export Date {yyyy-MM-dd HH:mm : ss}
PROV.                                                           : PROVINCE
UWI .                                                   Well-17 : UNIQUE WELL ID
API .                                                           : API NUMBER
~Curve Information -----------------------------------------
DEPTH             .m        : DEPTH
ACOUSTICIMPEDANCE1.kPa.s/m  : ACOUSTICIMPEDANCE1
AI                .kPa.s/m  : AI
AVG_PIGN          .m3/m3    : AVG_PIGN
CALI              .in       : CALI
NPHI              .m3/m3    : NPHI
DT                .us/ft    : DT
FACIES            ._        : FACIES
FLD1              ._        : FLD1
GR                .gAPI     : GR
M2R2              .ohm.m    : M2R2
LLS               .ohm.m    : LLS
LLD               .ohm.m    : LLD
DEPTH_1           .m        : DEPTH_1
NPHI_1            .m3/m3    : NPHI_1
PERF_INT          ._        : PERF_INT
PERMEABILITY      .mD       : PERMEABILITY
PHIT              .m3/m3    : PHIT
PIGN              .m3/m3    : PIGN
PIGN_MODELLING    .m3/m3    : PIGN_MODELLING
PIMP              .kPa.s/m  : PIMP
RHOB              .g/cm3    : RHOB
RT_MODELLING      .ohm.m    : RT_MODELLING
RT_POWER          .ohm.m    : RT_POWER
SP                .mV       : SP
SUWI              ._        : SUWI
SUWI_MODELLING    ._        : SUWI_MODELLING
SXWI              ._        : SXWI
TDVSS             .m        : TDVSS
VCL               .%        : VCL
WATER_VOL         ._        : WATER_VOL
RHOB_1            .g/cm3    : RHOB_1
ZLT               ._        : ZLT
~Params ----------------------------------------------------
~Other -----------------------------------------------------
~ASCII -----------------------------------------------------
# ...
  1417.1180  7172.4082 7172408.0000    -999.25     9.4086     0.3981    98.6621     0.0000    -999.25    64.9546     3.7737     3.7230     3.8164  1417.1180     0.3981    -999.25     1.5848     0.2190     0.0839     0.0839 23531.5215     2.3217     3.8164    14.5646   221.3696     1.0000     1.0000     1.0000 -1343.6281    58.0680     0.0839     2.3217     2.0000
  1417.2704  6528.9883 6528988.5000    -999.25     9.9882     0.4010   106.6676     0.0000    -999.25    64.6622     2.6356     2.6452     2.7027  1417.2704     0.4010    -999.25     1.7709     0.2478     0.0863     0.0863 21420.5664     2.2849     2.7027     7.3045   223.9601     1.0000     1.0000     1.0000 -1343.7804    56.8670     0.0863     2.2849     2.0000
  1417.4228  6014.4199 6014419.5000    -999.25    10.4278     0.4105   116.2457     0.0000    -999.25    72.9662     1.8852     1.9129     1.9495  1417.4229     0.4105    -999.25     1.1878     0.2652     0.0754     0.0754 19732.3477     2.2938     1.9495     3.8004   226.3325     1.0000     1.0000     1.0000 -1343.9329    62.2970     0.0754     2.2938     2.0000
  1417.5752  5768.5854 5768585.5000    -999.25    10.5215     0.4326   122.4846     0.0000    -999.25    84.3047     1.6143     1.6460     1.6716  1417.5752     0.4326    -999.25     0.5304     0.2649     0.0593     0.0593 18925.8047     2.3181     1.6716     2.7942   228.0012     1.0000     1.0000     1.0000 -1344.0852    70.3310     0.0593     2.3181     2.0000
  1417.7276  5822.2515 5822251.5000    -999.25    10.3981     0.4698   122.0849     0.0000    -999.25    92.0298     1.6123     1.6416     1.6606  1417.7277     0.4698    -999.25     0.2002     0.2493     0.0461     0.0461 19101.8750     2.3321     1.6606     2.7576   228.9017     1.0000     1.0000     1.0000 -1344.2377    76.9310     0.0461     2.3321     2.0000
  1417.8800  6070.5361 6070536.0000    -999.25    10.2503     0.5082   117.3748     0.0000    -999.25    93.9805     1.7002     1.7241     1.7371  1417.8800     0.5082    -999.25     0.0698     0.2305     0.0356     0.0356 19916.4570     2.3377     1.7371     3.0176   229.2578     1.0000     1.0000     1.0000 -1344.3900    82.2120     0.0356     2.3377     2.0000
  1418.0324  6207.1084 6207108.5000    -999.25    10.1593     0.5120   114.6587     0.0000    -999.25    92.0944     1.7679     1.7846     1.7909  1418.0325     0.5120    -999.25     0.0600     0.2273     0.0342     0.0342 20364.5293     2.3350     1.7909     3.2072   229.2709     1.0000     1.0000     1.0000 -1344.5425    82.8750     0.0342     2.3350     2.0000
  1418.1848  6103.0493 6103049.5000    -999.25    10.1471     0.4836   115.8440     0.0000    -999.25    89.4693     1.8031     1.8131     1.8131  1418.1848     0.4836    -999.25     0.1340     0.2393     0.0420     0.0420 20023.1289     2.3196     1.8131     3.2873   229.0445     1.0000     1.0000     1.0000 -1344.6948    78.9860     0.0420     2.3196     2.0000
  1418.3372  6020.3350 6020335.0000    -999.25    10.1399     0.4696   116.3891     0.0000    -999.25    87.3242     1.8550     1.8616     1.8549  1418.3373     0.4696    -999.25     0.2295     0.2459     0.0491     0.0491 19751.7559     2.2989     1.8549     3.4408   228.6534     1.0000     1.0000     1.0000 -1344.8473    75.4380     0.0491     2.2989     2.0000
  1418.4896  6147.2676 6147268.0000    -999.25    10.0023     0.4718   114.0771     0.0000    -999.25    84.8405     2.0003     2.0036     1.9899  1418.4896     0.4718    -999.25     0.2279     0.2393     0.0494     0.0494 20168.2012     2.3007     1.9899     3.9597   228.1835     1.0000     1.0000     1.0000 -1344.9996    75.2950     0.0494     2.3007     2.0000
  1418.6420  6441.7686 6441768.5000    -999.25     9.7633     0.4489   111.0667     0.0000    -999.25    81.8953     2.3049     2.3008     2.2774  1418.6421     0.4489    -999.25     0.3147     0.2296     0.0518     0.0518 21134.4121     2.3473     2.2774     5.1867   227.5530     1.0000     1.0000     1.0000 -1345.1521    74.0890     0.0518     2.3473     2.0000
  1418.7944  6968.1401 6968140.0000    -999.25     9.5718     0.4104   106.6372     0.0000    -999.25    80.3699     2.6793     2.6548     2.6184  1418.7944     0.4104    -999.25     0.5730     0.2178     0.0574     0.0574 22861.3516     2.4379     2.6184     6.8562   226.5685     1.0000     1.0000     1.0000 -1345.3044    71.2780     0.0574     2.4379     2.0000
  1418.9468  7755.1396 7755139.5000    -999.25     9.4387     0.4004   100.1935     0.0000    -999.25    81.0852     2.9243     2.8677     2.8220  1418.9469     0.4004    -999.25     0.7278     0.1970     0.0594     0.0594 25443.3711     2.5493     2.8220     7.9639   225.2325     1.0000     1.0000     1.0000 -1345.4568    70.2900     0.0594     2.5493     2.0000
  1419.0992  8304.8281 8304828.0000    -999.25     9.2767     0.4135    95.8097     0.0000    -999.25    81.9423     3.0509     2.9573     2.9086  1419.0992     0.4135    -999.25     0.6324     0.1815     0.0571     0.0571 27246.8125     2.6105     2.9086     8.4602   223.8201     1.0000     1.0000     1.0000 -1345.6093    71.4620     0.0571     2.6105     2.0000
  1419.2516  8454.0469 8454047.0000    -999.25     9.1182     0.4086    93.5396     0.0000    -999.25    82.1646     3.0800     2.9558     2.9109  1419.2516     0.4086    -999.25     0.6628     0.1850     0.0578     0.0578 27736.3730     2.5944     2.9109     8.4731   222.5501     1.0000     1.0000     1.0000 -1345.7616    71.1150     0.0578     2.5944     2.0000
  1419.4040  8430.3164 8430316.0000    -999.25     9.0317     0.3837    92.0049     0.0000    -999.25    83.3846     2.9335     2.8039     2.7690  1419.4041     0.3837    -999.25     0.9677     0.2047     0.0636     0.0636 27658.5176     2.5447     2.7690     7.6673   221.3431     1.0000     1.0000     1.0000 -1345.9141    68.2250     0.0636     2.5447     2.0000
  1419.5564  8166.6138 8166614.0000    -999.25     9.0325     0.3804    93.0858     0.0000    -999.25    84.7386     2.7454     2.6228     2.5985  1419.5564     0.3804    -999.25     0.9860     0.2185     0.0643     0.0643 26793.3535     2.4941     2.5985     6.7523   219.9077     1.0000     1.0000     1.0000 -1346.0664    67.8650     0.0643     2.4941     2.0000
  1419.7088  7813.9751 7813975.0000    -999.25     9.1334     0.4100    96.6594     0.0000    -999.25    82.7078     2.6994     2.5801     2.5618  1419.7089     0.4100    -999.25     0.5842     0.2121     0.0570     0.0570 25636.4004     2.4780     2.5618     6.5627   218.3795     1.0000     1.0000     1.0000 -1346.2189    71.4890     0.0570     2.4780     2.0000
  1419.8612  7414.1582 7414158.0000    -999.25     9.3628     0.4357   102.4520     0.0000    -999.25    77.4166     2.6654     2.5531     2.5394  1419.8612     0.4357    -999.25     0.3816     0.2024     0.0516     0.0516 24324.6660     2.4921     2.5394     6.4488   217.6862     1.0000     1.0000     1.0000 -1346.3712    74.1920     0.0516     2.4921     2.0000
  1420.0136  6873.1831 6873183.0000    -999.25     9.6942     0.4426   109.9273     0.0000    -999.25    74.0113     2.3887     2.3032     2.2946  1420.0137     0.4426    -999.25     0.3715     0.2108     0.0518     0.0518 22549.8145     2.4788     2.2946     5.2650   218.6606     1.0000     1.0000     1.0000 -1346.5237    74.1190     0.0518     2.4788     2.0000
  1420.1660  6302.5122 6302512.5000    -999.25     9.9403     0.4608   117.2282     0.0000    -999.25    76.0516     2.0111     1.9532     1.9469  1420.1660     0.4608    -999.25     0.2724     0.2266     0.0489     0.0489 20677.5332     2.4240     1.9469     3.7903   221.0332     1.0000     1.0000     1.0000 -1346.6760    75.5530     0.0489     2.4240     2.0000
  1420.3184  6038.4087 6038408.5000    -999.25     9.9372     0.5000   119.8891     0.0000    -999.25    81.0345     1.8457     1.7957     1.7883  1420.3185     0.5000    -999.25     0.1031     0.2268     0.0391     0.0391 19811.0527     2.3751     1.7883     3.1981   223.6744     1.0000     1.0000     1.0000 -1346.8285    80.4230     0.0391     2.3751     2.0000
