~Version ---------------------------------------------------
VERS. 2.0 : CWLS log ASCII Standard -VERSION 2.0
WRAP.  NO : 
~Well ------------------------------------------------------
STRT.m                                                1171.1084 : 
STOP.m                                                  1705.88 : 
STEP.m                                                   0.1524 : 
NULL.                                                   -999.25 : 
COMP.                                                           : COMPANY
WELL.                                                   Well-12 : WELL
FLD .                                                           : FIELD
LOC .                                                           : LOCATION
SRVC.                                                           : SERVICE COMPANY
DATE. 2021-01-20 14:34:05   : Log Export Date {yyyy-MM-dd HH:mm : ss}
PROV.                                                           : PROVINCE
UWI .                                                   Well-12 : UNIQUE WELL ID
API .                                                           : API NUMBER
~Curve Information -----------------------------------------
DEPTH             .m        : DEPTH
ACOUSTICIMPEDANCE1.kPa.s/m  : ACOUSTICIMPEDANCE1
AI                .kPa.s/m  : AI
AVG_PIGN          .m3/m3    : AVG_PIGN
DT                .us/ft    : DT
FACIES            ._        : FACIES
FLD1              ._        : FLD1
GR                .gAPI     : GR
HDRS              .ohm.m    : HDRS
HMRS              .ohm.m    : HMRS
DEPTH_1           .m        : DEPTH_1
NPHI              .m3/m3    : NPHI
ONE-WAYTIME1      .ms       : ONE-WAYTIME1
PERF_INT          ._        : PERF_INT
PERMEABILITY      .mD       : PERMEABILITY
PIGN              .m3/m3    : PIGN
PIGN_MODELLING    .m3/m3    : PIGN_MODELLING
PIMP              .kPa.s/m  : PIMP
RHOB              .g/cm3    : RHOB
RT_MODELLING      .ohm.m    : RT_MODELLING
RT_POWER          .ohm.m    : RT_POWER
SP                .mV       : SP
SUWI              ._        : SUWI
SUWI_MODELLING    ._        : SUWI_MODELLING
SXWI              ._        : SXWI
TDVSS             .m        : TDVSS
TEMP              .K        : TEMP
VCL               .%        : VCL
WATER_VOL         ._        : WATER_VOL
ZLT               ._        : ZLT
~Params ----------------------------------------------------
~Other -----------------------------------------------------
~ASCII -----------------------------------------------------
# ...
  1555.9184  6205.6533 6205653.5000    -999.25   134.5252     0.0000    -999.25   200.6676     2.8739     2.8227  1555.9183     0.5586  -718.6130    -999.25     0.0036     0.0001     0.0100 20359.7559     2.7389     2.8739     8.2593    90.7140     1.0000     1.0000     1.0000 -1473.4384   166.6332    85.0540     0.0001    16.0000
  1556.0708  6082.2876 6082288.0000    -999.25   138.3963     0.0000    -999.25   207.1447     2.5968     2.6307  1556.0708     0.5696  -718.6873    -999.25     0.0043     0.0001     0.0100 19955.0117     2.7617     2.5968     6.7434    91.1788     1.0000     1.0000     1.0000 -1473.5908   166.6417    89.4650     0.0001    16.0000
  1556.2232  5934.9517 5934951.5000    -999.25   140.6046     0.0000    -999.25   212.7716     2.4118     2.5078  1556.2231     0.5854  -718.7616    -999.25     0.0084     0.0001     0.0100 19471.6250     2.7378     2.4118     5.8168    91.4026     1.0000     1.0000     1.0000 -1473.7432   166.6501    91.1360     0.0001    16.0000
  1556.3756  6020.5679 6020568.0000    -999.25   137.1015     0.0000    -999.25   215.4069     2.3110     2.4089  1556.3756     0.5904  -718.8359    -999.25     0.0194     0.0001     0.0100 19752.5195     2.7081     2.3110     5.3407    91.5762     1.0000     1.0000     1.0000 -1473.8956   166.6586    88.8130     0.0001    16.0000
  1556.5280  6317.7173 6317717.0000    -999.25   128.4627     0.0000    -999.25   214.8144     2.1860     2.2990  1556.5280     0.6089  -718.9103    -999.25     0.0339     0.0001     0.0100 20727.4180     2.6627     2.1860     4.7786    91.6692     1.0000     1.0000     1.0000 -1474.0480   166.6671    86.4780     0.0001    16.0000
  1556.6804  6388.6445 6388644.5000    -999.25   121.7264     0.0000    -999.25   211.4318     2.1167     2.1826  1556.6804     0.6587  -718.9846    -999.25     0.0327     0.0001     0.0100 20960.1191     2.5514     2.1167     4.4804    91.7297     1.0000     1.0000     1.0000 -1474.2003   166.6756    83.7450     0.0001    16.0000
  1556.8328  5832.4688 5832228.0000    -999.25   122.7307     0.0000    -999.25   204.3256     2.2599     2.1636  1556.8328     0.7407  -719.0590    -999.25     0.0724     0.0001     0.0100 19134.6074     2.3485     2.2599     5.1071    91.7390     1.0000     1.0000     1.0000 -1474.3528   166.6841    73.9270     0.0001    16.0000
  1556.9852  4750.8506 4750850.5000    -999.25   128.9041     0.0000    -999.25   191.3730     2.8087     2.4890  1556.9852     0.8441  -719.1332    -999.25     0.1511     0.0001     0.0100 15586.7803     2.0092     2.8087     7.8888    91.6485     1.0000     1.0000     1.0000 -1474.5051   166.6926    55.5300     0.0001    16.0000
  1557.1376  3797.1382 3797354.0000    -999.25   135.0158     3.0000    -999.25   172.4898     4.3099     3.8240  1557.1376     0.9755  -719.2076    -999.25     0.2683     0.0001     0.0100 12458.5107     1.6820     4.3099    18.5752    91.5450     1.0000     1.0000     1.0000 -1474.6576   166.7011    36.4210     0.0001    16.0000
  1557.2900  3218.3516 3218351.5000    -999.25   139.0581     3.0000    -999.25   152.2032     6.5665     6.8422  1557.2899     1.1107  -719.2819    -999.25     0.3941     0.0001     0.0100 10558.8965     1.4683     6.5665    43.1189    91.3614     1.0000     1.0000     1.0000 -1474.8099   166.7096    23.9210     0.0001    16.0000
  1557.4424  2862.7898 2862789.7500    -999.25   142.4137     3.0000    -999.25   137.2514     6.1838     6.7097  1557.4424     1.1382  -719.3563    -999.25     0.4345     0.0001     0.0100  9392.3555     1.3376     6.1838    38.2394    91.2637     1.0000     1.0000     1.0000 -1474.9624   166.7180    19.9040     0.0001    16.0000
  1557.5948  2784.4907 2784490.7500    -999.25   144.8311     3.0000    -999.25   133.4578     6.7476     7.3679  1557.5947     1.0875  -719.4305    -999.25     0.3928     0.0001     0.0100  9135.4688     1.3231     6.7476    45.5301    91.2121     1.0000     1.0000     1.0000 -1475.1147   166.7265    25.1110     0.0001    16.0000
  1557.7472  3151.9395 3151939.2500    -999.25   141.9204     3.0000    -999.25   144.0566     6.8992     7.0319  1557.7472     1.0264  -719.5049    -999.25     0.3236     0.0001     0.0100 10341.0088     1.4676     6.8992    47.5990    91.3465     1.0000     1.0000     1.0000 -1475.2672   166.7350    36.9560     0.0001    16.0000
  1557.8996  3796.4751 3796475.2500    -999.25   133.8110     3.0000    -999.25   167.0354     4.8408     4.5476  1557.8995     0.9813  -719.5792    -999.25     0.2637     0.0001     0.0100 12455.6270     1.6667     4.8408    23.4333    91.2645     1.0000     1.0000     1.0000 -1475.4196   166.7435    53.7040     0.0001    16.0000
  1558.0520  4808.1030 4808103.0000    -999.25   124.1932     3.0000    -999.25   194.7024     3.3234     3.1904  1558.0520     0.8439  -719.6536    -999.25     0.1609     0.0001     0.0100 15774.6162     1.9591     3.3234    11.0450    91.0027     1.0000     1.0000     1.0000 -1475.5720   166.7520    72.6560     0.0001    16.0000
  1558.2044  6160.7104 6160710.0000    -999.25   115.8255     0.0000    -999.25   215.7444     2.6729     2.6789  1558.2043     0.7286  -719.7279    -999.25     0.0768     0.0001     0.0100 20212.3047     2.3411     2.6729     7.1444    90.4420     1.0000     1.0000     1.0000 -1475.7244   166.7605    81.8250     0.0001    16.0000
  1558.3568  7179.2324 7179232.5000    -999.25   108.8057     0.0000    -999.25   223.0569     2.6356     2.7236  1558.3568     0.6550  -719.8022    -999.25     0.0357     0.0001     0.0100 23553.9121     2.5628     2.6356     6.9464    89.8889     1.0000     1.0000     1.0000 -1475.8768   166.7690    77.1970     0.0001    16.0000
  1558.5092  7739.0469 7739046.5000    -999.25   104.4876     0.0000    -999.25   219.9833     2.9466     2.9828  1558.5092     0.6096  -719.8765    -999.25     0.0171     0.0042     0.0100 25390.5723     2.6530     2.9466     8.6825    89.5428     1.0000     1.0000     1.0000 -1476.0292   166.7775    73.1690     0.0042    16.0000
  1558.6616  7833.8438 7833843.5000    -999.25   103.5656     0.0000    -999.25   214.9090     3.2115     3.2432  1558.6616     0.5897  -719.9509    -999.25     0.0040     0.0122     0.0122 25701.5859     2.6618     3.2115    10.3137    89.7854     1.0000     1.0000     1.0000 -1476.1815   166.7859    75.1420     0.0122    16.0000
  1558.8140  7592.9297 7592889.0000    -999.25   105.1536     0.0000    -999.25   213.3145     3.1423     3.2788  1558.8140     0.5978  -720.0252    -999.25     0.0059     0.0216     0.0216 24911.0527     2.6195     3.1423     9.8740    90.3683     1.0000     1.0000     1.0000 -1476.3340   166.7944    75.0190     0.0216    16.0000
  1558.9664  7194.1387 7194138.5000    -999.25   108.3091     0.0000    -999.25   214.9443     2.7793     2.9711  1558.9664     0.6051  -720.0995    -999.25     0.0511     0.0346     0.0346 23602.8164     2.5564     2.7793     7.7245    90.9214     1.0000     1.0000     1.0000 -1476.4863   166.8029    75.5380     0.0346    16.0000
  1559.1188  6906.6265 6906690.0000    -999.25   111.3041     0.0000    -999.25   216.8391     2.4345     2.5757  1559.1188     0.6145  -720.1738    -999.25     0.1094     0.0437     0.0437 22659.7461     2.5221     2.4345     5.9268    91.3126     1.0000     1.0000     1.0000 -1476.6388   166.8114    76.5580     0.0437    16.0000
  1559.2712  6795.1084 6795108.5000    -999.25   112.9155     0.0000    -999.25   217.6980     2.2866     2.3536  1559.2711     0.6137  -720.2482    -999.25     0.1151     0.0452     0.0452 22293.6621     2.5173     2.2866     5.2285    91.3148     1.0000     1.0000     1.0000 -1476.7911   166.8199    77.0250     0.0452    16.0000
  1559.4236  6795.1714 6795171.5000    -999.25   112.8965     0.0000    -999.25   218.0217     2.3411     2.4455  1559.4236     0.6142  -720.3225    -999.25     0.1255     0.0418     0.0418 22293.8691     2.5169     2.3411     5.4807    91.1111     1.0000     1.0000     1.0000 -1476.9436   166.8284    76.4300     0.0418    16.0000
  1559.5760  6882.2031 6882203.5000    -999.25   111.4334     0.0000    -999.25   218.0243     2.5374     2.6778  1559.5759     0.6097  -720.3969    -999.25     0.1645     0.0380     0.0380 22579.4062     2.5161     2.5374     6.4384    90.6809     1.0000     1.0000     1.0000 -1477.0959   166.8369    75.3640     0.0380    16.0000
