~Version ---------------------------------------------------
VERS. 2.0 : CWLS log ASCII Standard -VERSION 2.0
WRAP.  NO : 
~Well ------------------------------------------------------
STRT.m                                                1236.0668 : 
STOP.m                                                1579.8812 : 
STEP.m                                                   0.1524 : 
NULL.                                                   -999.25 : 
COMP.                                                           : COMPANY
WELL.                                                   Well-17 : WELL
FLD .                                                           : FIELD
LOC .                                                           : LOCATION
SRVC.                                                           : SERVICE COMPANY
DATE. 2021-01-20 14:34:08   : Log Export Date {yyyy-MM-dd HH:mm : ss}
PROV.                                                           : PROVINCE
UWI .                                                   Well-17 : UNIQUE WELL ID
API .                                                           : API NUMBER
~Curve Information -----------------------------------------
DEPTH             .m        : DEPTH
ACOUSTICIMPEDANCE1.kPa.s/m  : ACOUSTICIMPEDANCE1
AI                .kPa.s/m  : AI
AVG_PIGN          .m3/m3    : AVG_PIGN
CALI              .in       : CALI
NPHI              .m3/m3    : NPHI
DT                .us/ft    : DT
FACIES            ._        : FACIES
FLD1              ._        : FLD1
GR                .gAPI     : GR
M2R2              .ohm.m    : M2R2
LLS               .ohm.m    : LLS
LLD               .ohm.m    : LLD
DEPTH_1           .m        : DEPTH_1
NPHI_1            .m3/m3    : NPHI_1
PERF_INT          ._        : PERF_INT
PERMEABILITY      .mD       : PERMEABILITY
PHIT              .m3/m3    : PHIT
PIGN              .m3/m3    : PIGN
PIGN_MODELLING    .m3/m3    : PIGN_MODELLING
PIMP              .kPa.s/m  : PIMP
RHOB              .g/cm3    : RHOB
RT_MODELLING      .ohm.m    : RT_MODELLING
RT_POWER          .ohm.m    : RT_POWER
SP                .mV       : SP
SUWI              ._        : SUWI
SUWI_MODELLING    ._        : SUWI_MODELLING
SXWI              ._        : SXWI
TDVSS             .m        : TDVSS
VCL               .%        : VCL
WATER_VOL         ._        : WATER_VOL
RHOB_1            .g/cm3    : RHOB_1
ZLT               ._        : ZLT
~Params ----------------------------------------------------
~Other -----------------------------------------------------
~ASCII -----------------------------------------------------
# ...
  1531.1132  2356.8835 2356883.5000    -999.25     8.7746     0.5732   148.5925     3.0000    -999.25    16.6098    26.9130    27.6210    30.6941  1531.1133     0.5732    -999.25     0.0012     0.0007     0.0100     0.0100  7732.5576     1.1490    30.6941   942.1302   203.4371     1.0000     1.0000     1.0000 -1457.6233     0.6420     0.0100     1.1490    21.0000
  1531.2656  2353.7261 2353726.0000    -999.25     8.7663     0.5333   148.6183     3.0000    -999.25    16.2495    25.4910    26.3168    29.2674  1531.2656     0.5333    -999.25     0.0011     0.0001     0.0100     0.0100  7722.1982     1.1477    29.2674   856.5818   203.0804     1.0000     1.0000     1.0000 -1457.7756     0.0000     0.0100     1.1477    21.0000
  1531.4180  2350.5942 2350594.2500    -999.25     8.7586     0.5325   148.7307     3.0000    -999.25    15.8569    24.3662    25.2555    28.0693  1531.4181     0.5325    -999.25     0.0011     0.0001     0.0100     0.0100  7711.9233     1.1470    28.0693   787.8861   202.8903     1.0000     1.0000     1.0000 -1457.9280     0.0000     0.0100     1.1470    21.0000
  1531.5704  2350.8433 2350843.2500    -999.25     8.7500     0.5679   148.8018     3.0000    -999.25    15.6127    24.6876    25.6558    28.5853  1531.5704     0.5679    -999.25     0.0010     0.0001     0.0100     0.0100  7712.7402     1.1477    28.5853   817.1171   202.8890     1.0000     1.0000     1.0000 -1458.0804     0.0000     0.0100     1.1477    21.0000
  1531.7228  2355.4648 2355464.7500    -999.25     8.7430     0.6097   148.7260     3.0000    -999.25    15.6088    26.5071    27.5823    30.9313  1531.7229     0.6097    -999.25     0.0010     0.0012     0.0100     0.0100  7727.9028     1.1493    30.9313   956.7460   203.0239     1.0000     1.0000     1.0000 -1458.2328     1.2150     0.0100     1.1493    21.0000
  1531.8752  2355.0391 2355039.0000    -999.25     8.7444     0.6292   148.6649     3.0000    -999.25    15.9249    28.4445    29.5568    33.3167  1531.8752     0.6292    -999.25     0.0009     0.0016     0.0100     0.0100  7726.5063     1.1487    33.3167  1110.0012   203.2379     1.0000     1.0000     1.0000 -1458.3853     1.6270     0.0100     1.1487    21.0000
  1532.0276  2347.2021 2347202.2500    -999.25     8.7568     0.6491   148.8132     3.0000    -999.25    16.3472    29.0720    30.0859    33.8967  1532.0276     0.6491    -999.25     0.0009     0.0011     0.0100     0.0100  7700.7944     1.1460    33.8967  1148.9890   203.5246     1.0000     1.0000     1.0000 -1458.5376     1.1570     0.0100     1.1460    21.0000
  1532.1800  2336.4343 2336434.2500    -999.25     8.7721     0.6884   149.1077     3.0000    -999.25    16.4870    28.7386    29.6005    33.2213  1532.1801     0.6884    -999.25     0.0008     0.0004     0.0100     0.0100  7665.4668     1.1430    33.2213  1103.6521   203.8494     1.0000     1.0000     1.0000 -1458.6901     0.3290     0.0100     1.1430    21.0000
  1532.3324  2330.6631 2330663.0000    -999.25     8.7817     0.7123   149.4364     3.0000    -999.25    16.2112    29.0783    29.8644    33.4964  1532.3324     0.7123    -999.25     0.0008     0.0001     0.0100     0.0100  7646.5322     1.1427    33.4964  1122.0107   204.1327     1.0000     1.0000     1.0000 -1458.8424     0.0060     0.0100     1.1427    21.0000
  1532.4848  2329.6628 2329662.7500    -999.25     8.7927     0.7110   149.7190     3.0000    -999.25    15.8328    30.2850    31.0691    34.9416  1532.4849     0.7110    -999.25     0.0007     0.0001     0.0100     0.0100  7643.2505     1.1443    34.9416  1220.9160   204.3510     1.0000     1.0000     1.0000 -1458.9949     0.0600     0.0100     1.1443    21.0000
  1532.6372  2329.7937 2329793.7500    -999.25     8.8172     0.7020   149.8846     3.0000    -999.25    15.8000    30.0479    30.8087    34.5762  1532.6372     0.7020    -999.25     0.0007     0.0002     0.0100     0.0100  7643.6802     1.1457    34.5762  1195.5109   204.5725     1.0000     1.0000     1.0000 -1459.1472     0.2440     0.0100     1.1457    21.0000
  1532.7896  2323.8110 2323811.0000    -999.25     8.8478     0.6630   149.9610     3.0000    -999.25    16.0906    27.3385    27.9928    31.0867  1532.7897     0.6630    -999.25     0.0006     0.0007     0.0100     0.0100  7624.0518     1.1433    31.0867   966.3823   204.8626     1.0000     1.0000     1.0000 -1459.2997     0.7250     0.0100     1.1433    21.0000
  1532.9420  2313.4871 2313487.0000    -999.25     8.8560     0.6026   149.9266     3.0000    -999.25    16.4021    24.8770    25.4329    27.9288  1532.9420     0.6026    -999.25     0.0006     0.0004     0.0100     0.0100  7590.1802     1.1380    27.9288   780.0167   205.2330     1.0000     1.0000     1.0000 -1459.4520     0.3000     0.0100     1.1380    21.0000
  1533.0944  2308.3245 2308324.5000    -999.25     8.8315     0.5699   149.7351     3.0000    -999.25    16.7610    24.9209    25.4603    27.8766  1533.0945     0.5699    -999.25     0.0005     0.0001     0.0100     0.0100  7573.2432     1.1340    27.8766   777.1026   205.6559     1.0000     1.0000     1.0000 -1459.6045     0.0000     0.0100     1.1340    21.0000
  1533.2468  2312.3005 2312300.7500    -999.25     8.7978     0.5692   149.5250     3.0000    -999.25    17.2108    27.0955    27.6395    30.3384  1533.2468     0.5692    -999.25     0.0005     0.0001     0.0100     0.0100  7586.2881     1.1343    30.3384   920.4174   206.1006     1.0000     1.0000     1.0000 -1459.7568     0.0000     0.0100     1.1343    21.0000
  1533.3992  2321.6938 2321693.7500    -999.25     8.7796     0.5778   149.3599     3.0000    -999.25    17.6042    28.8133    29.2350    32.0278  1533.3993     0.5778    -999.25     0.0004     0.0001     0.0100     0.0100  7617.1055     1.1377    32.0278  1025.7805   206.5913     1.0000     1.0000     1.0000 -1459.9092     0.0000     0.0100     1.1377    21.0000
  1533.5516  2326.3999 2326399.7500    -999.25     8.7814     0.6000   149.2294     3.0000    -999.25    17.7516    28.8838    29.0993    31.6482  1533.5516     0.6000    -999.25     0.0004     0.0001     0.0100     0.0100  7632.5454     1.1390    31.6482  1001.6104   207.2064     1.0000     1.0000     1.0000 -1460.0616     0.0000     0.0100     1.1390    21.0000
  1533.7040  2319.8047 2319804.7500    -999.25     8.7961     0.6299   149.3002     3.0000    -999.25    17.6730    28.2977    28.3463    30.5526  1533.7040     0.6299    -999.25     0.0003     0.0005     0.0100     0.0100  7610.9082     1.1363    30.5526   933.4595   207.9846     1.0000     1.0000     1.0000 -1460.2140     0.4330     0.0100     1.1363    21.0000
  1533.8564  2308.5732 2308573.2500    -999.25     8.8154     0.6435   149.4984     3.0000    -999.25    17.7264    27.9839    27.9778    29.9186  1533.8564     0.6435    -999.25     0.0003     0.0004     0.0100     0.0100  7574.0591     1.1323    29.9186   895.1232   208.8949     1.0000     1.0000     1.0000 -1460.3665     0.4020     0.0100     1.1323    21.0000
  1534.0088  2302.4978 2302497.7500    -999.25     8.8294     0.6351   149.6308     3.0000    -999.25    17.9631    28.5696    28.7571    30.6735  1534.0088     0.6351    -999.25     0.0002     0.0004     0.0100     0.0100  7554.1265     1.1303    30.6735   940.8618   209.8772     1.0000     1.0000     1.0000 -1460.5188     0.4170     0.0100     1.1303    21.0000
  1534.1612  2304.7393 2304739.2500    -999.25     8.8290     0.6237   149.7974     3.0000    -999.25    17.8837    29.4272    29.8100    31.9317  1534.1613     0.6237    -999.25     0.0002     0.0002     0.0100     0.0100  7561.4805     1.1327    31.9317  1019.6322   210.9265     1.0000     1.0000     1.0000 -1460.6713     0.1600     0.0100     1.1327    21.0000
  1534.3136  2342.3047 2342304.7500    -999.25     8.8116     0.6218   150.0132     3.0000    -999.25    18.1037    26.5115    27.0413    29.0766  1534.3136     0.6218    -999.25     0.0001     0.0019     0.0100     0.0100  7684.7266     1.1528    29.0766   845.4498   212.1282     1.0000     1.0000     1.0000 -1460.8236     1.9440     0.0100     1.1528    21.0000
