~Version ---------------------------------------------------
VERS. 2.0 : CWLS log ASCII Standard -VERSION 2.0
WRAP.  NO : 
~Well ------------------------------------------------------
STRT.m                                                1295.9144 : 
STOP.m                                                1639.8812 : 
STEP.m                                                   0.1524 : 
NULL.                                                   -999.25 : 
COMP.                                                           : COMPANY
WELL.                                                    Well-1 : WELL
FLD .                                                           : FIELD
LOC .                                                           : LOCATION
SRVC.                                                           : SERVICE COMPANY
DATE. 2021-01-20 14:33:59   : Log Export Date {yyyy-MM-dd HH:mm : ss}
PROV.                                                           : PROVINCE
UWI .                                                    Well-1 : UNIQUE WELL ID
API .                                                           : API NUMBER
~Curve Information -----------------------------------------
DEPTH             .m        : DEPTH
ACOUSTICIMPEDANCE1.kPa.s/m  : ACOUSTICIMPEDANCE1
AI                .kPa.s/m  : AI
AVG_PIGN          .m3/m3    : AVG_PIGN
CALI              .in       : CALI
CALI[DERIVED]1    .in       : CALI[DERIVED]1
DFL               .ohm.m    : DFL
DT                .us/ft    : DT
FACIES            ._        : FACIES
FLD1              ._        : FLD1
GR                .gAPI     : GR
HDRS              .ohm.m    : HDRS
HMRS              .ohm.m    : HMRS
DEPTH_1           .m        : DEPTH_1
NPHI              .m3/m3    : NPHI
ONE-WAYTIME1      .ms       : ONE-WAYTIME1
PERF_INT          ._        : PERF_INT
PERMEABILITY      .mD       : PERMEABILITY
PIGN              .m3/m3    : PIGN
PIGN_MODELLING    .m3/m3    : PIGN_MODELLING
PIMP              .kPa.s/m  : PIMP
RHOB              .g/cm3    : RHOB
RT_MODELLING      .ohm.m    : RT_MODELLING
RT_POWER          .ohm.m    : RT_POWER
SP                .mV       : SP
SUWI              ._        : SUWI
SUWI_MODELLING    ._        : SUWI_MODELLING
TDVSS             .m        : TDVSS
VCL               .%        : VCL
WATER_VOL         ._        : WATER_VOL
ZLT               ._        : ZLT
~Params ----------------------------------------------------
~Other -----------------------------------------------------
~ASCII -----------------------------------------------------
# ...
  1544.6312  5031.5483 5031548.0000    -999.25     8.9417     8.9417     4.1301   146.5710     0.0000    -999.25    80.3705     3.0878     3.1653  1544.6312     0.5426  -707.3913    -999.25     0.1139     0.0303     0.0303 16507.7051     2.4195     4.1301    17.0581   276.4908     1.0000     1.0000 -1466.1412    66.6760     0.0303    18.0000
  1544.7836  4899.9111 4899911.0000    -999.25     8.9232     8.9232     4.3820   149.7385     0.0000    -999.25    78.0527     3.1014     3.1863  1544.7836     0.5339  -707.4648    -999.25     0.1056     0.0309     0.0309 16075.8232     2.4072     4.3820    19.2017   276.4179     1.0000     1.0000 -1466.2936    66.0420     0.0309    18.0000
  1544.9360  4838.2905 4838290.5000    -999.25     8.9060     8.9060     4.2934   151.5391     0.0000    -999.25    74.7604     3.0481     3.1657  1544.9360     0.5295  -707.5383    -999.25     0.0844     0.0298     0.0298 15873.6562     2.4055     4.2934    18.4337   276.6357     1.0000     1.0000 -1466.4460    67.2660     0.0298    18.0000
  1545.0884  4848.8306 4848830.5000    -999.25     8.8899     8.8899     3.9645   152.8397     0.0000    -999.25    71.3656     3.0968     3.2287  1545.0884     0.5335  -707.6119    -999.25     0.0675     0.0273     0.0273 15908.2373     2.4314     3.9645    15.7176   276.6266     1.0000     1.0000 -1466.5984    69.9790     0.0273    18.0000
  1545.2408  4884.2964 4884296.5000    -999.25     8.9024     8.9024     3.7691   154.2623     0.0000    -999.25    69.2199     3.1715     3.2886  1545.2408     0.5470  -707.6854    -999.25     0.0624     0.0252     0.0252 16024.5947     2.4720     3.7691    14.2062   276.4268     1.0000     1.0000 -1466.7507    72.2890     0.0252    18.0000
  1545.3932  4907.5073 4907507.5000    -999.25     8.9831     8.9831     3.7743   155.0177     0.0000    -999.25    68.7406     3.1221     3.2341  1545.3932     0.5609  -707.7589    -999.25     0.0664     0.0247     0.0247 16100.7461     2.4959     3.7743    14.2451   276.3533     1.0000     1.0000 -1466.9032    72.8430     0.0247    18.0000
  1545.5456  4947.1055 4947105.5000    -999.25     9.0700     9.0700     3.7738   153.6820     0.0000    -999.25    70.0993     3.0665     3.1784  1545.5455     0.5631  -707.8325    -999.25     0.0778     0.0258     0.0258 16230.6602     2.4944     3.7738    14.2417   275.9577     1.0000     1.0000 -1467.0555    71.6250     0.0258    18.0000
  1545.6980  5150.8047 5150804.5000    -999.25     9.0602     9.0602     3.7584   147.4723     0.0000    -999.25    72.7833     3.0884     3.1799  1545.6980     0.5519  -707.9060    -999.25     0.0916     0.0274     0.0274 16898.9648     2.4921     3.7584    14.1253   275.7210     1.0000     1.0000 -1467.2080    69.8800     0.0274    18.0000
  1545.8504  5638.4717 5638471.5000    -999.25     8.9837     8.9837     3.8528   134.5062     0.0000    -999.25    75.3394     3.1516     3.2137  1545.8503     0.5394  -707.9795    -999.25     0.0935     0.0278     0.0278 18498.9219     2.4882     3.8528    14.8441   275.6101     1.0000     1.0000 -1467.3604    69.4530     0.0278    18.0000
  1546.0028  6299.1426 6299142.5000    -999.25     8.9229     8.9229     3.8863   120.0258     0.0000    -999.25    77.1713     3.1685     3.2350  1546.0028     0.5389  -708.0530    -999.25     0.0768     0.0258     0.0258 20666.4785     2.4805     3.8863    15.1031   275.2788     1.0000     1.0000 -1467.5128    71.5610     0.0258    18.0000
  1546.1552  6744.4795 6744479.5000    -999.25     8.9049     8.9049     3.8874   112.2953     0.0000    -999.25    78.5165     3.1178     3.2159  1546.1552     0.5556  -708.1266    -999.25     0.0562     0.0223     0.0223 22127.5586     2.4848     3.8874    15.1115   275.1243     1.0000     1.0000 -1467.6652    75.4250     0.0223    18.0000
  1546.3076  6807.7271 6807727.0000    -999.25     8.8936     8.8936     3.8316   111.2685     0.0000    -999.25    79.1479     3.1038     3.2115  1546.3076     0.5849  -708.2001    -999.25     0.0389     0.0187     0.0187 22335.0625     2.4852     3.8316    14.6813   274.8586     1.0000     1.0000 -1467.8176    79.3930     0.0187    18.0000
  1546.4600  6746.9990 6746999.0000    -999.25     8.8935     8.8935     3.8270   111.9109     0.0000    -999.25    79.6510     3.1313     3.2476  1546.4600     0.6145  -708.2736    -999.25     0.0311     0.0166     0.0166 22135.8242     2.4772     3.8270    14.6455   274.4817     1.0000     1.0000 -1467.9700    81.7270     0.0166    18.0000
  1546.6124  6813.7134 6813713.5000    -999.25     8.9082     8.9082     3.8615   111.4079     0.0000    -999.25    80.1211     3.1310     3.2627  1546.6124     0.6310  -708.3472    -999.25     0.0333     0.0164     0.0164 22354.7031     2.4905     3.8615    14.9113   274.3296     1.0000     1.0000 -1468.1224    81.9790     0.0164    18.0000
  1546.7648  6952.5830 6952583.0000    -999.25     8.9332     8.9332     3.8652   110.2466     0.0000    -999.25    79.0750     3.1047     3.2387  1546.7648     0.6351  -708.4207    -999.25     0.0349     0.0164     0.0164 22810.3125     2.5148     3.8652    14.9398   273.9242     1.0000     1.0000 -1468.2748    81.9670     0.0164    18.0000
  1546.9172  7006.1191 7006119.0000    -999.25     8.9552     8.9552     3.8634   109.4464     0.0000    -999.25    76.4716     3.1175     3.2464  1546.9172     0.6328  -708.4942    -999.25     0.8867     0.0489     0.0489 22985.9551     2.5157     3.8634    14.9258   273.5934     0.9421     0.9421 -1468.4272    76.4160     0.0461    18.0000
  1547.0696  6947.5273 6947527.5000     0.1149     8.9566     8.9566     3.8967   109.4240     4.0000    -999.25    74.1097     3.2281     3.3407  1547.0696     0.6278  -708.5677    -999.25    10.6352     0.1149     0.1149 22793.7246     2.4942     3.8967    15.1843   273.5242     0.8205     0.8205 -1468.5796    64.8130     0.0943    18.0000
  1547.2220  6829.3496 6829349.5000     0.1397     8.9539     8.9539     4.0885   110.1214     4.0000    -999.25    73.1226     3.4084     3.4886  1547.2220     0.6184  -708.6413    -999.25    17.5162     0.1397     0.1397 22406.0020     2.4674     4.0885    16.7159   273.3260     0.7781     0.7781 -1468.7319    59.2620     0.1087    18.0000
  1547.3744  6690.3477 6690347.5000     0.1521     8.9494     8.9494     4.2676   111.3793     4.0000    -999.25    74.0890     3.5071     3.5690  1547.3744     0.6031  -708.7148    -999.25    20.6300     0.1521     0.1521 21949.9590     2.4448     4.2676    18.2128   273.4777     0.7853     0.7853 -1468.8844    55.1810     0.1194    18.0000
  1547.5268  6554.4077 6554408.0000     0.1642     8.9434     8.9434     4.3000   113.0373     4.0000    -999.25    76.9727     3.4181     3.4983  1547.5267     0.5839  -708.7883    -999.25    23.8834     0.1642     0.1642 21503.9629     2.4307     4.3000    18.4897   273.8446     0.7969     0.7969 -1469.0367    51.7860     0.1308    18.0000
  1547.6792  6403.8340 6403834.0000     0.1697     8.9408     8.9408     4.1840   114.8903     4.0000    -999.25    80.0278     3.2843     3.3961  1547.6792     0.5703  -708.8619    -999.25    24.6092     0.1697     0.1697 21009.9551     2.4138     4.1840    17.5056   273.9526     0.7981     0.7981 -1469.1892    51.2740     0.1354    18.0000
  1547.8316  6241.2080 6241208.0000     0.1647     8.9379     8.9379     4.0023   116.8501     4.0000    -999.25    82.4690     3.2054     3.3408  1547.8315     0.5688  -708.9354    -999.25    21.9826     0.1647     0.1647 20476.4043     2.3927     4.0023    16.0182   274.2265     0.7985     0.7985 -1469.3416    53.8960     0.1315    18.0000
  1547.9840  6144.9507 6144950.5000     0.1650     8.9404     8.9404     3.9538   118.4270     4.0000    -999.25    84.1708     3.1481     3.2861  1547.9840     0.5808  -709.0090    -999.25    23.8380     0.1650     0.1650 20160.5996     2.3876     3.9538    15.6326   274.3679     0.7825     0.7825 -1469.4940    56.1680     0.1291    18.0000
  1548.1364  6116.3823 6116382.0000     0.1606     8.9485     8.9485     3.8738   119.2294     4.0000    -999.25    84.0313     3.1238     3.2451  1548.1364     0.6039  -709.0825    -999.25    24.7219     0.1606     0.1606 20066.8711     2.3926     3.8738    15.0063   274.4073     0.7663     0.7663 -1469.6464    59.8640     0.1231    18.0000
