~Version ---------------------------------------------------
VERS. 2.0 : CWLS log ASCII Standard -VERSION 2.0
WRAP.  NO : 
~Well ------------------------------------------------------
STRT.m                                                1171.1084 : 
STOP.m                                                  1705.88 : 
STEP.m                                                   0.1524 : 
NULL.                                                   -999.25 : 
COMP.                                                           : COMPANY
WELL.                                                   Well-12 : WELL
FLD .                                                           : FIELD
LOC .                                                           : LOCATION
SRVC.                                                           : SERVICE COMPANY
DATE. 2021-01-20 14:34:05   : Log Export Date {yyyy-MM-dd HH:mm : ss}
PROV.                                                           : PROVINCE
UWI .                                                   Well-12 : UNIQUE WELL ID
API .                                                           : API NUMBER
~Curve Information -----------------------------------------
DEPTH             .m        : DEPTH
ACOUSTICIMPEDANCE1.kPa.s/m  : ACOUSTICIMPEDANCE1
AI                .kPa.s/m  : AI
AVG_PIGN          .m3/m3    : AVG_PIGN
DT                .us/ft    : DT
FACIES            ._        : FACIES
FLD1              ._        : FLD1
GR                .gAPI     : GR
HDRS              .ohm.m    : HDRS
HMRS              .ohm.m    : HMRS
DEPTH_1           .m        : DEPTH_1
NPHI              .m3/m3    : NPHI
ONE-WAYTIME1      .ms       : ONE-WAYTIME1
PERF_INT          ._        : PERF_INT
PERMEABILITY      .mD       : PERMEABILITY
PIGN              .m3/m3    : PIGN
PIGN_MODELLING    .m3/m3    : PIGN_MODELLING
PIMP              .kPa.s/m  : PIMP
RHOB              .g/cm3    : RHOB
RT_MODELLING      .ohm.m    : RT_MODELLING
RT_POWER          .ohm.m    : RT_POWER
SP                .mV       : SP
SUWI              ._        : SUWI
SUWI_MODELLING    ._        : SUWI_MODELLING
SXWI              ._        : SXWI
TDVSS             .m        : TDVSS
TEMP              .K        : TEMP
VCL               .%        : VCL
WATER_VOL         ._        : WATER_VOL
ZLT               ._        : ZLT
~Params ----------------------------------------------------
~Other -----------------------------------------------------
~ASCII -----------------------------------------------------
# ...
  1346.3684  5983.2153 5983215.0000    -999.25   120.7796     0.0000    -999.25   162.7702     1.5453     1.6781  1346.3684     0.5569  -616.4130    -999.25    -999.25     0.0856     0.0856 19629.9707     2.3709     1.5453     2.3880    70.5640     1.0000     1.0000     1.0000 -1263.8884   154.9655    57.2180     0.0856     0.0000
  1346.5208  6007.3809 6007380.5000    -999.25   119.9538     0.0000    -999.25   158.6128     1.5792     1.7065  1346.5208     0.5509  -616.4873    -999.25    -999.25     0.0905     0.0905 19709.2539     2.3642     1.5792     2.4939    70.1070     1.0000     1.0000     1.0000 -1264.0408   154.9740    54.7580     0.0905     0.0000
  1346.6732  6021.3325 6021332.5000    -999.25   119.3772     0.0000    -999.25   154.6614     1.6094     1.7336  1346.6732     0.5439  -616.5616    -999.25    -999.25     0.0945     0.0945 19755.0273     2.3583     1.6094     2.5902    69.9919     1.0000     1.0000     1.0000 -1264.1931   154.9825    52.7720     0.0945     0.0000
  1346.8256  6019.6118 6019619.5000    -999.25   119.1885     0.0000    -999.25   151.6172     1.6204     1.7519  1346.8256     0.5417  -616.6360    -999.25    -999.25     0.0962     0.0962 19749.4082     2.3539     1.6204     2.6257    70.0280     1.0000     1.0000     1.0000 -1264.3456   154.9910    51.8900     0.0962     0.0000
  1346.9780  6016.4082 6016408.0000    -999.25   119.2520     0.0000    -999.25   149.8983     1.6145     1.7569  1346.9780     0.5419  -616.7103    -999.25    -999.25     0.0966     0.0966 19738.8730     2.3539     1.6145     2.6066    70.2749     1.0000     1.0000     1.0000 -1264.4979   154.9994    51.7170     0.0966     0.0000
  1347.1304  6011.6416 6011642.0000    -999.25   119.2350     0.0000    -999.25   149.2910     1.6119     1.7575  1347.1304     0.5422  -616.7847    -999.25    -999.25     0.0960     0.0960 19723.2363     2.3517     1.6119     2.5982    70.6521     1.0000     1.0000     1.0000 -1264.6504   155.0079    51.9910     0.0960     0.0000
  1347.2828  6023.3491 6023349.0000    -999.25   118.8970     0.0000    -999.25   149.2261     1.6428     1.7750  1347.2827     0.5570  -616.8589    -999.25    -999.25     0.0954     0.0954 19761.6445     2.3496     1.6428     2.6988    71.2820     1.0000     1.0000     1.0000 -1264.8027   155.0164    52.2930     0.0954     0.0000
  1347.4352  6052.2856 6052285.5000    -999.25   118.4494     0.0000    -999.25   149.2006     1.7114     1.8284  1347.4352     0.5657  -616.9333    -999.25    -999.25     0.0965     0.0965 19856.5801     2.3520     1.7114     2.9289    72.3794     1.0000     1.0000     1.0000 -1264.9552   155.0249    51.7730     0.0965     0.0000
  1347.5876  6167.3564 6167356.5000    -999.25   117.1339     0.0000    -999.25   149.0914     1.7978     1.9257  1347.5875     0.5591  -617.0076    -999.25    -999.25     0.0968     0.0968 20234.1094     2.3701     1.7978     3.2321    74.0711     1.0000     1.0000     1.0000 -1265.1075   155.0334    51.5820     0.0968     0.0000
  1347.7400  6527.2622 6527262.5000    -999.25   112.9914     0.0000    -999.25   149.4297     1.8351     2.0469  1347.7400     0.5561  -617.0820    -999.25    -999.25     0.0950     0.0950 21414.9023     2.4197     1.8351     3.3676    76.4771     1.0000     1.0000     1.0000 -1265.2600   155.0419    52.4940     0.0950     0.0000
  1347.8924  7039.5239 7039523.5000    -999.25   107.1202     0.0000    -999.25   151.2600     1.7934     2.0310  1347.8923     0.5568  -617.1562    -999.25    -999.25     0.0887     0.0887 23095.5508     2.4740     1.7934     3.2163    79.2659     1.0000     1.0000     1.0000 -1265.4124   155.0504    53.9030     0.0887     0.0000
  1348.0448  7280.1411 7280141.5000    -999.25   104.7311     0.0000    -999.25   155.0210     1.6578     1.8289  1348.0448     0.5620  -617.2306    -999.25    -999.25     0.0805     0.0805 23884.9785     2.5015     1.6578     2.7483    82.0998     1.0000     1.0000     1.0000 -1265.5648   155.0588    55.6790     0.0805     0.0000
  1348.1972  7028.4023 7028402.5000    -999.25   108.2828     0.0000    -999.25   159.5766     1.5185     1.6146  1348.1971     0.5667  -617.3049    -999.25    -999.25     0.0788     0.0788 23059.0625     2.4969     1.5185     2.3058    84.5241     1.0000     1.0000     1.0000 -1265.7172   155.0673    56.9660     0.0788     0.0000
  1348.3496  6449.6104 6449610.5000    -999.25   115.7412     0.0000    -999.25   163.2893     1.4054     1.4904  1348.3496     0.5519  -617.3793    -999.25    -999.25     0.0786     0.0786 21160.1387     2.4491     1.4054     1.9751    86.2498     1.0000     1.0000     1.0000 -1265.8696   155.0758    58.1900     0.0786     0.0000
  1348.5020  6072.4043 6072404.5000    -999.25   121.5555     0.0000    -999.25   165.4678     1.3419     1.4381  1348.5020     0.5174  -617.4536    -999.25    -999.25     0.0765     0.0765 19922.5859     2.4217     1.3419     1.8007    87.3160     1.0000     1.0000     1.0000 -1266.0220   155.0843    60.5460     0.0765     0.0000
  1348.6544  5975.9102 5975910.5000    -999.25   123.7784     0.0000    -999.25   166.5922     1.3388     1.4430  1348.6544     0.4900  -617.5279    -999.25    -999.25     0.0741     0.0741 19606.0059     2.4268     1.3388     1.7924    87.7943     1.0000     1.0000     1.0000 -1266.1743   155.0928    62.9280     0.0741     0.0000
  1348.8068  5964.4233 5964430.0000    -999.25   123.9606     0.0000    -999.25   167.6660     1.3620     1.4828  1348.8068     0.5030  -617.6022    -999.25    -999.25     0.0702     0.0702 19568.3398     2.4257     1.3620     1.8550    87.8334     1.0000     1.0000     1.0000 -1266.3268   155.1013    64.9110     0.0702     0.0000
  1348.9592  6003.8799 6003879.5000    -999.25   123.2627     0.0000    -999.25   169.1279     1.4050     1.5467  1348.9592     0.5494  -617.6766    -999.25    -999.25     0.0636     0.0636 19697.7676     2.4280     1.4050     1.9740    87.6238     1.0000     1.0000     1.0000 -1266.4791   155.1097    68.1900     0.0636     0.0000
  1349.1116  6049.8530 6049844.0000    -999.25   122.5023     0.0000    -999.25   170.4611     1.4546     1.6075  1349.1116     0.6035  -617.7509    -999.25    -999.25     0.0552     0.0552 19848.5684     2.4315     1.4546     2.1159    87.2495     1.0000     1.0000     1.0000 -1266.6316   155.1182    72.4090     0.0552     0.0000
  1349.2640  6080.0894 6080089.5000    -999.25   121.8029     0.0000    -999.25   170.8703     1.4922     1.6481  1349.2639     0.6564  -617.8252    -999.25    -999.25     0.0505     0.0505 19947.7988     2.4297     1.4922     2.2267    86.8136     1.0000     1.0000     1.0000 -1266.7839   155.1267    74.7730     0.0505     0.0000
  1349.4164  6106.9629 6106962.5000    -999.25   121.0523     0.0000    -999.25   170.2362     1.5275     1.6917  1349.4164     0.6726  -617.8995    -999.25    -999.25     0.0540     0.0540 20035.9668     2.4254     1.5275     2.3333    86.2820     1.0000     1.0000     1.0000 -1266.9364   155.1352    72.9870     0.0540     0.0000
  1349.5688  6132.2856 6132286.0000    -999.25   120.2890     0.0000    -999.25   168.9694     1.5699     1.7357  1349.5687     0.6490  -617.9739    -999.25    -999.25     0.0622     0.0622 20119.0488     2.4201     1.5699     2.4646    85.7164     1.0000     1.0000     1.0000 -1267.0887   155.1437    68.8940     0.0622     0.0000
  1349.7212  6146.0806 6146080.5000    -999.25   119.6173     0.0000    -999.25   167.1051     1.5861     1.7488  1349.7212     0.6281  -618.0482    -999.25    -999.25     0.0686     0.0686 20164.3066     2.4120     1.5861     2.5157    85.1742     1.0000     1.0000     1.0000 -1267.2412   155.1522    65.7200     0.0686     0.0000
  1349.8736  6146.0312 6146031.0000    -999.25   119.2860     0.0000    -999.25   164.1396     1.5313     1.7014  1349.8735     0.6174  -618.1226    -999.25    -999.25     0.0733     0.0733 20164.1445     2.4053     1.5313     2.3449    84.9447     1.0000     1.0000     1.0000 -1267.3936   155.1606    63.3330     0.0733     0.0000
  1350.0260  6119.7163 6119716.5000    -999.25   119.1863     0.0000    -999.25   160.0911     1.4216     1.5801  1350.0260     0.5948  -618.1968    -999.25    -999.25     0.0770     0.0770 20077.8105     2.3930     1.4216     2.0209    85.2488     1.0000     1.0000     1.0000 -1267.5460   155.1691    61.4840     0.0770     0.0000
