~Version ---------------------------------------------------
VERS. 2.0 : CWLS log ASCII Standard -VERSION 2.0
WRAP.  NO : 
~Well ------------------------------------------------------
STRT.m                                                1295.9144 : 
STOP.m                                                1639.8812 : 
STEP.m                                                   0.1524 : 
NULL.                                                   -999.25 : 
COMP.                                                           : COMPANY
WELL.                                                    Well-1 : WELL
FLD .                                                           : FIELD
LOC .                                                           : LOCATION
SRVC.                                                           : SERVICE COMPANY
DATE. 2021-01-20 14:33:59   : Log Export Date {yyyy-MM-dd HH:mm : ss}
PROV.                                                           : PROVINCE
UWI .                                                    Well-1 : UNIQUE WELL ID
API .                                                           : API NUMBER
~Curve Information -----------------------------------------
DEPTH             .m        : DEPTH
ACOUSTICIMPEDANCE1.kPa.s/m  : ACOUSTICIMPEDANCE1
AI                .kPa.s/m  : AI
AVG_PIGN          .m3/m3    : AVG_PIGN
CALI              .in       : CALI
CALI[DERIVED]1    .in       : CALI[DERIVED]1
DFL               .ohm.m    : DFL
DT                .us/ft    : DT
FACIES            ._        : FACIES
FLD1              ._        : FLD1
GR                .gAPI     : GR
HDRS              .ohm.m    : HDRS
HMRS              .ohm.m    : HMRS
DEPTH_1           .m        : DEPTH_1
NPHI              .m3/m3    : NPHI
ONE-WAYTIME1      .ms       : ONE-WAYTIME1
PERF_INT          ._        : PERF_INT
PERMEABILITY      .mD       : PERMEABILITY
PIGN              .m3/m3    : PIGN
PIGN_MODELLING    .m3/m3    : PIGN_MODELLING
PIMP              .kPa.s/m  : PIMP
RHOB              .g/cm3    : RHOB
RT_MODELLING      .ohm.m    : RT_MODELLING
RT_POWER          .ohm.m    : RT_POWER
SP                .mV       : SP
SUWI              ._        : SUWI
SUWI_MODELLING    ._        : SUWI_MODELLING
TDVSS             .m        : TDVSS
VCL               .%        : VCL
WATER_VOL         ._        : WATER_VOL
ZLT               ._        : ZLT
~Params ----------------------------------------------------
~Other -----------------------------------------------------
~ASCII -----------------------------------------------------
# ...
  1500.7400  5473.0630 5473063.0000    -999.25     9.3907     9.3907     1.4378   132.4698     0.0000    -999.25   105.7030     1.2182     1.2487  1500.7400     0.6146  -686.2144    -999.25     0.0476     0.0196     0.0196 17956.2422     2.3787     1.4378     2.0674   285.9354     1.0000     1.0000 -1422.2500    78.4190     0.0196    14.0000
  1500.8924  5504.6396 5504639.5000    -999.25     9.3249     9.3249     1.4588   132.1556     0.0000    -999.25   105.3357     1.2142     1.2358  1500.8923     0.6339  -686.2880    -999.25     0.0376     0.0176     0.0176 18059.8418     2.3867     1.4588     2.1280   285.8029     1.0000     1.0000 -1422.4023    80.6950     0.0176    14.0000
  1501.0448  5589.0146 5589015.0000    -999.25     9.2844     9.2844     1.4655   130.9551     0.0000    -999.25   104.9805     1.2053     1.2225  1501.0448     0.6472  -686.3615    -999.25     0.0339     0.0165     0.0165 18336.6621     2.4013     1.4655     2.1476   285.5760     1.0000     1.0000 -1422.5548    81.8380     0.0165    14.0000
  1501.1972  5700.0630 5700063.0000    -999.25     9.1927     9.1927     1.4427   129.4220     0.0000    -999.25   104.3258     1.1779     1.1846  1501.1971     0.6506  -686.4350    -999.25     0.0364     0.0167     0.0167 18700.9941     2.4203     1.4427     2.0815   285.2820     1.0000     1.0000 -1422.7072    81.6170     0.0167    14.0000
  1501.3496  5800.8096 5800809.5000    -999.25     9.0976     9.0976     1.3839   127.9829     0.0000    -999.25   101.7264     1.1700     1.1662  1501.3496     0.6439  -686.5085    -999.25     0.0400     0.0175     0.0175 19031.5273     2.4357     1.3839     1.9152   285.0320     1.0000     1.0000 -1422.8596    80.7620     0.0175    14.0000
  1501.5020  5814.3086 5814308.5000    -999.25     9.0638     9.0638     1.4177   127.3744     0.0000    -999.25    97.3104     1.2282     1.2339  1501.5020     0.6375  -686.5821    -999.25     0.0409     0.0182     0.0182 19075.8145     2.4298     1.4177     2.0098   284.8403     1.0000     1.0000 -1423.0120    79.9490     0.0182    14.0000
  1501.6544  5733.8701 5733870.0000    -999.25     9.0532     9.0532     1.5362   127.8738     0.0000    -999.25    92.2020     1.3333     1.3531  1501.6544     0.6352  -686.6556    -999.25     0.0371     0.0184     0.0184 18811.9102     2.4056     1.5362     2.3600   284.7316     1.0000     1.0000 -1423.1644    79.7430     0.0184    14.0000
  1501.8068  5655.8408 5655841.0000    -999.25     9.0542     9.0542     1.7186   128.7159     0.0000    -999.25    87.6525     1.4308     1.4529  1501.8068     0.6368  -686.7291    -999.25     0.0330     0.0183     0.0183 18555.9082     2.3884     1.7186     2.9537   284.7295     1.0000     1.0000 -1423.3168    79.8780     0.0183    14.0000
  1501.9592  5631.1816 5631181.5000    -999.25     9.0579     9.0579     1.8598   129.2319     0.0000    -999.25    85.3520     1.4720     1.4987  1501.9592     0.6376  -686.8027    -999.25     0.0314     0.0182     0.0182 18475.0059     2.3876     1.8598     3.4587   284.7333     1.0000     1.0000 -1423.4692    79.9920     0.0182    14.0000
  1502.1116  5656.0088 5656009.0000    -999.25     9.0647     9.0647     1.8677   129.3420     0.0000    -999.25    85.8273     1.4774     1.5060  1502.1116     0.6360  -686.8762    -999.25     0.0351     0.0187     0.0187 18556.4590     2.4001     1.8677     3.4884   284.6301     1.0000     1.0000 -1423.6216    79.4460     0.0187    14.0000
  1502.2640  5695.0205 5695020.5000    -999.25     9.1128     9.1128     1.8619   129.1058     0.0000    -999.25    88.4937     1.4901     1.5071  1502.2640     0.6295  -686.9497    -999.25     0.0417     0.0195     0.0195 18684.4492     2.4123     1.8619     3.4666   284.3948     1.0000     1.0000 -1423.7739    78.5430     0.0195    14.0000
  1502.4164  5712.0747 5712075.0000    -999.25     9.2118     9.2118     1.8986   128.7422     0.0000    -999.25    91.7510     1.4888     1.5157  1502.4164     0.6232  -687.0233    -999.25     0.0433     0.0196     0.0196 18740.4023     2.4127     1.8986     3.6047   284.1166     1.0000     1.0000 -1423.9264    78.4840     0.0196    14.0000
  1502.5688  5691.7837 5691784.0000    -999.25     9.2483     9.2483     1.9422   128.6474     0.0000    -999.25    92.7016     1.4622     1.4979  1502.5687     0.6257  -687.0968    -999.25     0.0362     0.0184     0.0184 18673.8320     2.4023     1.9422     3.7722   283.9738     1.0000     1.0000 -1424.0787    79.7630     0.0184    14.0000
  1502.7212  5637.9155 5637915.5000    -999.25     9.1461     9.1461     1.9193   128.8862     0.0000    -999.25    90.8672     1.4176     1.4228  1502.7212     0.6399  -687.1703    -999.25     0.0289     0.0172     0.0172 18497.0977     2.3840     1.9193     3.6836   284.0401     1.0000     1.0000 -1424.2312    81.1210     0.0172    14.0000
  1502.8736  5581.9204 5581920.5000    -999.25     9.0335     9.0335     1.8150   129.1268     0.0000    -999.25    87.7798     1.3777     1.3721  1502.8735     0.6532  -687.2438    -999.25     0.0250     0.0166     0.0166 18313.3867     2.3647     1.8150     3.2943   284.2535     1.0000     1.0000 -1424.3835    81.7460     0.0166    14.0000
  1503.0260  5587.2695 5587269.5000    -999.25     9.0157     9.0157     1.6994   128.9803     0.0000    -999.25    83.4775     1.3744     1.3901  1503.0260     0.6561  -687.3174    -999.25     0.0240     0.0167     0.0167 18330.9375     2.3643     1.6994     2.8881   284.5122     1.0000     1.0000 -1424.5360    81.6140     0.0167    14.0000
  1503.1784  5754.0288 5754029.0000    -999.25     9.0341     9.0341     1.6745   127.2849     0.0000    -999.25    79.0723     1.3769     1.4122  1503.1783     0.6458  -687.3909    -999.25     0.0238     0.0169     0.0169 18878.0488     2.4029     1.6745     2.8039   284.7370     1.0000     1.0000 -1424.6884    81.4110     0.0169    14.0000
  1503.3308  6138.7217 6138721.5000    -999.25     9.0161     9.0161     1.6195   122.9290     0.0000    -999.25    76.2273     1.3622     1.4013  1503.3308     0.6261  -687.4644    -999.25     0.0203     0.0160     0.0160 20140.1621     2.4758     1.6195     2.6227   284.7981     1.0000     1.0000 -1424.8408    82.4290     0.0160    14.0000
  1503.4832  6622.0439 6622044.0000    -999.25     8.9733     8.9733     1.5663   117.4209     0.0000    -999.25    74.1153     1.3663     1.3795  1503.4832     0.6114  -687.5380    -999.25     0.0172     0.0148     0.0148 21725.8652     2.5511     1.5663     2.4532   284.6386     1.0000     1.0000 -1424.9932    83.6990     0.0148    14.0000
  1503.6356  6944.9082 6944908.0000    -999.25     8.9681     8.9681     1.5648   113.2379     0.0000    -999.25    72.1949     1.4618     1.4301  1503.6356     0.6115  -687.6115    -999.25     0.0193     0.0152     0.0152 22785.1309     2.5801     1.5648     2.4487   284.3825     1.0000     1.0000 -1425.1456    83.2620     0.0152    14.0000
  1503.7880  6880.2354 6880235.5000    -999.25     9.0075     9.0075     1.8408   112.3694     0.0000    -999.25    71.8718     1.7104     1.7122  1503.7880     0.6229  -687.6851    -999.25     0.0286     0.0173     0.0173 22572.9512     2.5365     1.8408     3.3885   284.1849     1.0000     1.0000 -1425.2980    80.9330     0.0173    14.0000
  1503.9404  6433.1133 6433113.0000    -999.25     9.0465     9.0465     2.4956   115.3723     0.0000    -999.25    72.9823     1.9886     2.0922  1503.9404     0.6301  -687.7585    -999.25     0.0396     0.0201     0.0201 21106.0137     2.4351     2.4956     6.2281   284.0979     1.0000     1.0000 -1425.4504    77.9410     0.0201    14.0000
  1504.0928  6026.3262 6026326.5000    -999.25     9.0671     9.0671     2.9422   120.0992     0.0000    -999.25    74.5852     1.9860     2.0344  1504.0928     0.6209  -687.8321    -999.25     0.0503     0.0231     0.0231 19771.4121     2.3745     2.9422     8.6567   284.0150     1.0000     1.0000 -1425.6028    74.6240     0.0231    14.0000
  1504.2452  5852.7134 5852713.5000    -999.25     9.0722     9.0722     2.5191   123.4185     0.0000    -999.25    77.3322     1.7033     1.6573  1504.2452     0.5986  -687.9056    -999.25     0.0590     0.0257     0.0257 19201.8145     2.3699     2.5191     6.3459   283.9992     1.0000     1.0000 -1425.7551    71.6970     0.0257    14.0000
