~Version ---------------------------------------------------
VERS. 2.0 : CWLS log ASCII Standard -VERSION 2.0
WRAP.  NO : 
~Well ------------------------------------------------------
STRT.m                                                1295.9144 : 
STOP.m                                                1639.8812 : 
STEP.m                                                   0.1524 : 
NULL.                                                   -999.25 : 
COMP.                                                           : COMPANY
WELL.                                                    Well-1 : WELL
FLD .                                                           : FIELD
LOC .                                                           : LOCATION
SRVC.                                                           : SERVICE COMPANY
DATE. 2021-01-20 14:33:59   : Log Export Date {yyyy-MM-dd HH:mm : ss}
PROV.                                                           : PROVINCE
UWI .                                                    Well-1 : UNIQUE WELL ID
API .                                                           : API NUMBER
~Curve Information -----------------------------------------
DEPTH             .m        : DEPTH
ACOUSTICIMPEDANCE1.kPa.s/m  : ACOUSTICIMPEDANCE1
AI                .kPa.s/m  : AI
AVG_PIGN          .m3/m3    : AVG_PIGN
CALI              .in       : CALI
CALI[DERIVED]1    .in       : CALI[DERIVED]1
DFL               .ohm.m    : DFL
DT                .us/ft    : DT
FACIES            ._        : FACIES
FLD1              ._        : FLD1
GR                .gAPI     : GR
HDRS              .ohm.m    : HDRS
HMRS              .ohm.m    : HMRS
DEPTH_1           .m        : DEPTH_1
NPHI              .m3/m3    : NPHI
ONE-WAYTIME1      .ms       : ONE-WAYTIME1
PERF_INT          ._        : PERF_INT
PERMEABILITY      .mD       : PERMEABILITY
PIGN              .m3/m3    : PIGN
PIGN_MODELLING    .m3/m3    : PIGN_MODELLING
PIMP              .kPa.s/m  : PIMP
RHOB              .g/cm3    : RHOB
RT_MODELLING      .ohm.m    : RT_MODELLING
RT_POWER          .ohm.m    : RT_POWER
SP                .mV       : SP
SUWI              ._        : SUWI
SUWI_MODELLING    ._        : SUWI_MODELLING
TDVSS             .m        : TDVSS
VCL               .%        : VCL
WATER_VOL         ._        : WATER_VOL
ZLT               ._        : ZLT
~Params ----------------------------------------------------
~Other -----------------------------------------------------
~ASCII -----------------------------------------------------
# ...
  1365.4088  6039.9834 6039983.5000    -999.25     9.3811     9.3811     2.2963   115.3727     0.0000    -999.25    74.5024     1.7814     1.8179  1365.4088     0.5228  -620.9191    -999.25     0.0446     0.0326     0.0326 19816.2188     2.2863     2.2963     5.2728   257.3661     1.0000     1.0000 -1286.9188    64.1170     0.0326     1.0000
  1365.5612  5730.0298 5730030.0000    -999.25     9.5057     9.5057     2.7321   120.2773     0.0000    -999.25    70.5054     1.9473     1.9988  1365.5612     0.5416  -620.9927    -999.25     0.0320     0.0314     0.0314 18799.3105     2.2611     2.7321     7.4646   258.9187     1.0000     1.0000 -1287.0712    65.4070     0.0314     1.0000
  1365.7136  5504.8052 5504805.0000    -999.25     9.5054     9.5054     3.0167   125.2127     0.0000    -999.25    67.8169     1.9103     1.9875  1365.7136     0.5511  -621.0662    -999.25     0.0279     0.0309     0.0309 18060.3848     2.2614     3.0167     9.1002   260.8267     1.0000     1.0000 -1287.2236    66.0100     0.0309     1.0000
  1365.8660  5458.5259 5458526.0000    -999.25     9.3584     9.3584     2.6550   127.7479     0.0000    -999.25    66.7274     1.5765     1.6018  1365.8660     0.5518  -621.1397    -999.25     0.0290     0.0305     0.0305 17908.5488     2.2878     2.6550     7.0492   262.8171     1.0000     1.0000 -1287.3760    66.4030     0.0305     1.0000
  1366.0184  5577.7759 5577775.5000    -999.25     9.2058     9.2058     1.7879   127.0627     0.0000    -999.25    67.2022     1.2495     1.2351  1366.0184     0.5498  -621.2133    -999.25     0.0301     0.0298     0.0298 18299.7891     2.3252     1.7879     3.1967   263.8111     1.0000     1.0000 -1287.5284    67.2140     0.0298     1.0000
  1366.1708  5735.4761 5735476.0000    -999.25     9.1414     9.1414     1.2885   125.2972     0.0000    -999.25    68.4446     1.1387     1.1352  1366.1708     0.5528  -621.2868    -999.25     0.0264     0.0282     0.0282 18817.1797     2.3577     1.2885     1.6603   264.0485     1.0000     1.0000 -1287.6808    68.9500     0.0282     1.0000
  1366.3232  5807.2344 5807234.5000    -999.25     9.1423     9.1423     1.2215   124.3725     0.0000    -999.25    69.4702     1.1834     1.2041  1366.3232     0.5662  -621.3603    -999.25     0.0184     0.0259     0.0259 19052.6055     2.3696     1.2215     1.4920   264.3076     1.0000     1.0000 -1287.8331    71.4990     0.0259     1.0000
  1366.4756  5754.1040 5754104.0000    -999.25     9.1461     9.1461     1.3266   124.5531     0.0000    -999.25    70.0107     1.2548     1.3073  1366.4756     0.5877  -621.4338    -999.25     0.0103     0.0232     0.0232 18878.2949     2.3514     1.3266     1.7598   264.2762     1.0000     1.0000 -1287.9856    74.4930     0.0232     1.0000
  1366.6280  5620.9282 5620928.0000    -999.25     9.1446     9.1446     1.5028   126.1528     0.0000    -999.25    70.1500     1.2911     1.3387  1366.6279     0.6126  -621.5074    -999.25     0.0052     0.0206     0.0206 18441.3652     2.3264     1.5028     2.2584   264.3325     1.0000     1.0000 -1288.1379    77.3140     0.0206     1.0000
  1366.7804  5431.1768 5431177.0000    -999.25     9.1548     9.1548     1.5399   129.1488     0.0000    -999.25    69.9604     1.2807     1.3063  1366.7804     0.6353  -621.5809    -999.25     0.0027     0.0187     0.0187 17818.8223     2.3013     1.5399     2.3712   264.8618     1.0000     1.0000 -1288.2904    79.4430     0.0187     1.0000
  1366.9328  5184.0815 5184082.0000    -999.25     9.2148     9.2148     1.5336   133.1021     0.0000    -999.25    68.9158     1.2656     1.2817  1366.9327     0.6535  -621.6544    -999.25     0.0016     0.0180     0.0180 17008.1426     2.2638     1.5336     2.3519   265.2116     1.0000     1.0000 -1288.4427    80.2500     0.0180     1.0000
  1367.0852  4967.0762 4967076.0000    -999.25     9.3513     9.3513     1.5160   136.6817     0.0000    -999.25    67.0334     1.2556     1.2738  1367.0852     0.6612  -621.7280    -999.25     0.0014     0.0186     0.0186 16296.1816     2.2274     1.5160     2.2983   265.7145     1.0000     1.0000 -1288.5952    79.4910     0.0186     1.0000
  1367.2376  4851.2935 4851293.5000    -999.25     9.5928     9.5928     1.5137   138.2638     0.0000    -999.25    65.8704     1.2025     1.2248  1367.2375     0.6558  -621.8015    -999.25     0.0019     0.0207     0.0207 15916.3174     2.2006     1.5137     2.2914   266.6314     1.0000     1.0000 -1288.7476    77.2650     0.0207     1.0000
  1367.3900  4901.3311 4901331.0000    -999.25     9.8677     9.8677     1.3843   136.6663     0.0000    -999.25    65.9346     1.1225     1.1165  1367.3900     0.6372  -621.8751    -999.25     0.0042     0.0237     0.0237 16080.4834     2.1977     1.3843     1.9163   267.1305     1.0000     1.0000 -1288.9000    73.8940     0.0237     1.0000
  1367.5424  5098.9204 5098920.5000    -999.25    10.0018    10.0018     1.2063   132.3961     0.0000    -999.25    66.2579     1.0524     1.0286  1367.5424     0.6090  -621.9485    -999.25     0.0101     0.0272     0.0272 16728.7422     2.2148     1.2063     1.4551   267.2621     1.0000     1.0000 -1289.0524    70.0880     0.0272     1.0000
  1367.6948  5348.3594 5348359.5000    -999.25     9.8841     9.8841     1.0988   127.4466     0.0000    -999.25    66.6403     1.0215     0.9965  1367.6948     0.5779  -622.0221    -999.25     0.0212     0.0302     0.0302 17547.1113     2.2363     1.0988     1.2074   267.0864     1.0000     1.0000 -1289.2048    66.7610     0.0302     1.0000
  1367.8472  5558.3794 5558379.5000    -999.25     9.6317     9.6317     1.0641   123.3594     0.0000    -999.25    66.7119     1.0680     1.0384  1367.8472     0.5528  -622.0956    -999.25     0.0341     0.0324     0.0324 18236.1523     2.2496     1.0641     1.1324   266.1084     1.0000     1.0000 -1289.3572    64.3890     0.0324     1.0000
  1367.9996  5653.7173 5653717.5000    -999.25     9.4482     9.4482     1.1776   121.0889     0.0000    -999.25    66.0071     1.2023     1.1802  1367.9996     0.5373  -622.1691    -999.25     0.0421     0.0333     0.0333 18548.9414     2.2461     1.1776     1.3868   265.0358     1.0000     1.0000 -1289.5096    63.3410     0.0333     1.0000
  1368.1520  5672.5967 5672597.0000    -999.25     9.3778     9.3778     1.4213   120.8116     0.0000    -999.25    64.8859     1.3750     1.3640  1368.1520     0.5319  -622.2427    -999.25     0.0425     0.0331     0.0331 18610.8828     2.2484     1.4213     2.0200   264.3393     1.0000     1.0000 -1289.6620    63.6130     0.0331     1.0000
  1368.3044  5623.3882 5623388.5000    -999.25     9.3306     9.3306     1.6441   122.1810     0.0000    -999.25    63.5680     1.4981     1.4814  1368.3044     0.5359  -622.3162    -999.25     0.0377     0.0322     0.0322 18449.4375     2.2542     1.6441     2.7032   263.8134     1.0000     1.0000 -1289.8143    64.5710     0.0322     1.0000
  1368.4568  5493.5410 5493541.0000    -999.25     9.3094     9.3094     1.7792   124.9945     0.0000    -999.25    62.0857     1.5633     1.5350  1368.4568     0.5447  -622.3898    -999.25     0.0325     0.0316     0.0316 18023.4297     2.2528     1.7792     3.1657   264.0919     1.0000     1.0000 -1289.9668    65.2560     0.0316     1.0000
  1368.6092  5324.6382 5324638.5000    -999.25     9.3850     9.3850     1.8332   128.7958     0.0000    -999.25    61.4600     1.6475     1.6377  1368.6091     0.5504  -622.4633    -999.25     0.0308     0.0318     0.0318 17469.2852     2.2500     1.8332     3.3608   265.1310     1.0000     1.0000 -1290.1191    65.0790     0.0318     1.0000
  1368.7616  5180.9668 5180966.5000    -999.25     9.6000     9.6000     1.9379   132.2091     0.0000    -999.25    62.4843     1.7037     1.7313  1368.7616     0.5486  -622.5368    -999.25     0.0337     0.0326     0.0326 16997.9219     2.2473     1.9379     3.7554   266.1808     1.0000     1.0000 -1290.2716    64.1010     0.0326     1.0000
  1368.9140  5115.9038 5115903.5000    -999.25     9.8263     9.8263     1.9428   133.6176     0.0000    -999.25    64.4715     1.5845     1.6160  1368.9139     0.5396  -622.6104    -999.25     0.0407     0.0337     0.0337 16784.4609     2.2427     1.9428     3.7744   267.3703     1.0000     1.0000 -1290.4240    62.9210     0.0337     1.0000
