~Version ---------------------------------------------------
VERS. 2.0 : CWLS log ASCII Standard -VERSION 2.0
WRAP.  NO : 
~Well ------------------------------------------------------
STRT.m                                                1249.0292 : 
STOP.m                                                1575.3176 : 
STEP.m                                                   0.1524 : 
NULL.                                                   -999.25 : 
COMP.                                                           : COMPANY
WELL.                                                   Well-10 : WELL
FLD .                                                           : FIELD
LOC .                                                           : LOCATION
SRVC.                                                           : SERVICE COMPANY
DATE. 2021-01-20 14:34:04   : Log Export Date {yyyy-MM-dd HH:mm : ss}
PROV.                                                           : PROVINCE
UWI .                                                   Well-10 : UNIQUE WELL ID
API .                                                           : API NUMBER
~Curve Information -----------------------------------------
DEPTH             .m        : DEPTH
ACOUSTICIMPEDANCE1.kPa.s/m  : ACOUSTICIMPEDANCE1
AI                .kPa.s/m  : AI
AVG_PIGN          .m3/m3    : AVG_PIGN
CALI              .in       : CALI
CALI[DERIVED]1    .in       : CALI[DERIVED]1
DFL               .ohm.m    : DFL
DT                .us/ft    : DT
FACIES            ._        : FACIES
FLD1              ._        : FLD1
GR                .gAPI     : GR
HDRS              .ohm.m    : HDRS
HMRS              .ohm.m    : HMRS
DEPTH_1           .m        : DEPTH_1
NPHI              .m3/m3    : NPHI
PEF               .b/e      : PEF
PERF_INT          ._        : PERF_INT
PERMEABILITY      .mD       : PERMEABILITY
PHIT              .m3/m3    : PHIT
PIGN              .m3/m3    : PIGN
PIGN_MODELLING    .m3/m3    : PIGN_MODELLING
PIMP              .kPa.s/m  : PIMP
RHOB              .g/cm3    : RHOB
RT_MODELLING      .ohm.m    : RT_MODELLING
RT_POWER          .ohm.m    : RT_POWER
SP                .mV       : SP
SUWI              ._        : SUWI
SUWI_MODELLING    ._        : SUWI_MODELLING
SXWI              ._        : SXWI
TDVSS             .m        : TDVSS
TEMP              .K        : TEMP
VCL               .%        : VCL
WATER_VOL         ._        : WATER_VOL
ZLT               ._        : ZLT
~Params ----------------------------------------------------
~Other -----------------------------------------------------
~ASCII -----------------------------------------------------
# ...
  1336.2020  4540.3711 4540371.5000    -999.25    10.0940    10.0940     2.1399   143.0832     0.0000    -999.25    64.1452     1.6628     1.6893  1336.2020     0.5883     7.4341    -999.25    -999.25     0.0226     0.0226     0.0226 14896.2314     2.1314     2.1399     4.5792   141.6132     1.0000     1.0000     1.0000 -1256.2020   163.5760    84.4530     0.0226     0.0000
  1336.3544  4550.2534 4550253.5000    -999.25    10.1598    10.1598     2.1205   142.9868     0.0000    -999.25    64.4452     1.6555     1.6708  1336.3544     0.6045     7.5696    -999.25    -999.25     0.0225     0.0225     0.0225 14928.6533     2.1346     2.1205     4.4965   141.5263     1.0000     1.0000     1.0000 -1256.3544   163.5855    84.5220     0.0225     0.0000
  1336.5068  4599.7329 4599733.0000    -999.25    10.0710    10.0710     2.0681   142.1312     0.0000    -999.25    63.9959     1.6539     1.6553  1336.5068     0.6377     7.7202    -999.25    -999.25     0.0230     0.0230     0.0230 15090.9873     2.1449     2.0681     4.2770   141.4088     1.0000     1.0000     1.0000 -1256.5068   163.5950    84.2210     0.0230     0.0000
  1336.6592  4733.9224 4733922.5000    -999.25     9.6454     9.6454     2.0523   139.6926     0.0000    -999.25    61.8779     1.6800     1.6748  1336.6592     0.6692     7.7822    -999.25    -999.25     0.0272     0.0272     0.0272 15531.2422     2.1696     2.0523     4.2119   141.2642     1.0000     1.0000     1.0000 -1256.6592   163.6046    81.5280     0.0272     0.0000
  1336.8116  4953.0234 4953023.5000    -999.25     9.6086     9.6086     2.0923   135.6363     0.0000    -999.25    59.7933     1.7481     1.7459  1336.8116     0.6549     7.7651    -999.25    -999.25     0.0389     0.0389     0.0389 16250.0762     2.2041     2.0923     4.3777   141.1551     1.0000     1.0000     1.0000 -1256.8116   163.6141    73.8920     0.0389     0.0000
  1336.9640  5223.6733 5223673.5000    -999.25     9.1870     9.1870     2.3305   131.1936     0.0000    -999.25    58.8120     1.8413     1.8587  1336.9640     0.5734     7.5664    -999.25    -999.25     0.0489     0.0489     0.0489 17138.0371     2.2484     2.3305     5.4312   141.1625     1.0000     1.0000     1.0000 -1256.9640   163.6236    67.3870     0.0489     0.0000
  1337.1164  5441.3721 5441372.0000    -999.25     9.1209     9.1209     2.5830   128.2414     0.0000    -999.25    59.5655     1.8899     1.9264  1337.1165     0.5142     7.1633    -999.25    -999.25     0.0538     0.0538     0.0538 17852.2715     2.2894     2.5830     6.6719   141.2595     1.0000     1.0000     1.0000 -1257.1165   163.6332    64.2550     0.0538     0.0000
  1337.2688  5485.3789 5485378.5000    -999.25     9.3335     9.3335     2.5849   128.1516     0.0000    -999.25    61.8284     1.8216     1.8522  1337.2688     0.5284     6.6813    -999.25    -999.25     0.0469     0.0469     0.0469 17996.6484     2.3063     2.5849     6.6817   141.3163     1.0000     1.0000     1.0000 -1257.2688   163.6427    65.0600     0.0469     0.0000
  1337.4212  5379.5298 5379530.0000    -999.25     9.4004     9.4004     2.2729   130.5599     0.0000    -999.25    64.3867     1.7027     1.7143  1337.4213     0.5370     6.2105    -999.25    -999.25     0.0406     0.0406     0.0406 17649.3770     2.3043     2.2729     5.1661   141.3585     1.0000     1.0000     1.0000 -1257.4213   163.6522    67.9720     0.0406     0.0000
  1337.5736  5187.0718 5187072.0000    -999.25     9.3890     9.3890     2.0206   134.3287     0.0000    -999.25    65.8664     1.6187     1.6059  1337.5736     0.5705     5.8681    -999.25    -999.25     0.0398     0.0398     0.0398 17017.9531     2.2860     2.0206     4.0828   141.4140     1.0000     1.0000     1.0000 -1257.5736   163.6618    71.3260     0.0398     0.0000
  1337.7260  5004.9805 5004980.5000    -999.25     9.3019     9.3019     1.8637   137.5594     0.0000    -999.25    66.3338     1.5777     1.5447  1337.7260     0.5838     5.6637    -999.25    -999.25     0.0341     0.0341     0.0341 16420.5391     2.2588     1.8637     3.4734   141.3710     1.0000     1.0000     1.0000 -1257.7260   163.6713    75.6870     0.0341     0.0000
  1337.8784  4913.4229 4913423.0000    -999.25     9.2611     9.2611     1.8062   138.9937     0.0000    -999.25    66.5271     1.5880     1.5425  1337.8784     0.5408     5.5771    -999.25    -999.25     0.0316     0.0316     0.0316 16120.1543     2.2406     1.8062     3.2624   141.1427     1.0000     1.0000     1.0000 -1257.8784   163.6808    77.7590     0.0316     0.0000
  1338.0308  4923.1216 4923121.5000    -999.25     9.1984     9.1984     1.8143   138.2432     0.0000    -999.25    66.1809     1.6483     1.5952  1338.0308     0.5344     5.5567    -999.25    -999.25     0.0365     0.0365     0.0365 16151.9736     2.2329     1.8143     3.2917   140.8374     1.0000     1.0000     1.0000 -1258.0308   163.6904    75.5170     0.0365     0.0000
  1338.1832  5041.3398 5041340.0000    -999.25     8.8930     8.8930     1.9223   135.5153     0.0000    -999.25    65.4050     1.7536     1.7005  1338.1832     0.5391     5.5868    -999.25    -999.25     0.0416     0.0416     0.0416 16539.8301     2.2414     1.9223     3.6952   140.5074     1.0000     1.0000     1.0000 -1258.1832   163.6999    70.6740     0.0416     0.0000
  1338.3356  5230.2500 5230250.0000    -999.25     8.8063     8.8063     2.1456   131.9960     0.0000    -999.25    65.4960     1.8595     1.8124  1338.3356     0.5456     5.6478    -999.25    -999.25     0.0407     0.0407     0.0407 17159.6133     2.2650     2.1456     4.6036   140.1633     1.0000     1.0000     1.0000 -1258.3356   163.7094    66.2120     0.0407     0.0000
  1338.4880  5435.0625 5435062.5000    -999.25     8.7905     8.7905     2.3883   128.5529     0.0000    -999.25    66.6850     1.9369     1.8916  1338.4880     0.5294     5.7020    -999.25    -999.25     0.0320     0.0320     0.0320 17831.5684     2.2923     2.3883     5.7040   139.7910     1.0000     1.0000     1.0000 -1258.4880   163.7190    64.0330     0.0320     0.0000
  1338.6404  5606.9019 5606902.0000    -999.25     8.8086     8.8086     2.5834   125.9286     0.0000    -999.25    68.7226     1.9875     1.9364  1338.6404     0.4949     5.7154    -999.25    -999.25     0.0256     0.0256     0.0256 18395.3477     2.3165     2.5834     6.6740   139.4069     1.0000     1.0000     1.0000 -1258.6404   163.7285    62.7700     0.0256     0.0000
  1338.7928  5715.3237 5715323.5000    -999.25     8.9201     8.9201     2.6689   124.2703     0.0000    -999.25    70.9706     2.0161     1.9587  1338.7928     0.4771     5.6922    -999.25    -999.25     0.0241     0.0241     0.0241 18751.0625     2.3302     2.6689     7.1230   139.0314     1.0000     1.0000     1.0000 -1258.7928   163.7380    60.6890     0.0241     0.0000
  1338.9452  5772.8198 5772820.0000    -999.25     8.8659     8.8659     2.6971   123.1435     0.0000    -999.25    72.1589     2.0450     1.9825  1338.9452     0.5054     5.6847    -999.25    -999.25     0.0293     0.0293     0.0293 18939.6973     2.3323     2.6971     7.2743   138.7372     1.0000     1.0000     1.0000 -1258.9452   163.7476    58.3440     0.0293     0.0000
  1339.0976  5820.7427 5820742.5000    -999.25     8.8838     8.8838     2.7055   122.0144     0.0000    -999.25    71.9670     2.0946     2.0335  1339.0977     0.5005     5.7574    -999.25    -999.25     0.0452     0.0452     0.0452 19096.9258     2.3301     2.7055     7.3197   138.5676     1.0000     1.0000     1.0000 -1259.0977   163.7571    55.4800     0.0452     0.0000
  1339.2500  5834.9868 5834986.5000    -999.25     8.9160     8.9160     2.7274   121.2046     0.0000    -999.25    70.5458     2.1658     2.1131  1339.2500     0.5136     5.9944    -999.25    -999.25     0.0609     0.0609     0.0609 19143.6562     2.3203     2.7274     7.4387   138.5070     1.0000     1.0000     1.0000 -1259.2500   163.7666    54.2720     0.0609     0.0000
  1339.4024  5735.9492 5735949.0000    -999.25     9.1692     9.1692     2.8721   122.4897     0.0000    -999.25    68.9671     2.2163     2.1697  1339.4025     0.5132     6.4549    -999.25    -999.25     0.0619     0.0619     0.0619 18818.7305     2.3051     2.8721     8.2490   138.6388     1.0000     1.0000     1.0000 -1259.4025   163.7762    57.9400     0.0619     0.0000
