~Version ---------------------------------------------------
VERS. 2.0 : CWLS log ASCII Standard -VERSION 2.0
WRAP.  NO : 
~Well ------------------------------------------------------
STRT.m                                                1249.0292 : 
STOP.m                                                1575.3176 : 
STEP.m                                                   0.1524 : 
NULL.                                                   -999.25 : 
COMP.                                                           : COMPANY
WELL.                                                   Well-10 : WELL
FLD .                                                           : FIELD
LOC .                                                           : LOCATION
SRVC.                                                           : SERVICE COMPANY
DATE. 2021-01-20 14:34:04   : Log Export Date {yyyy-MM-dd HH:mm : ss}
PROV.                                                           : PROVINCE
UWI .                                                   Well-10 : UNIQUE WELL ID
API .                                                           : API NUMBER
~Curve Information -----------------------------------------
DEPTH             .m        : DEPTH
ACOUSTICIMPEDANCE1.kPa.s/m  : ACOUSTICIMPEDANCE1
AI                .kPa.s/m  : AI
AVG_PIGN          .m3/m3    : AVG_PIGN
CALI              .in       : CALI
CALI[DERIVED]1    .in       : CALI[DERIVED]1
DFL               .ohm.m    : DFL
DT                .us/ft    : DT
FACIES            ._        : FACIES
FLD1              ._        : FLD1
GR                .gAPI     : GR
HDRS              .ohm.m    : HDRS
HMRS              .ohm.m    : HMRS
DEPTH_1           .m        : DEPTH_1
NPHI              .m3/m3    : NPHI
PEF               .b/e      : PEF
PERF_INT          ._        : PERF_INT
PERMEABILITY      .mD       : PERMEABILITY
PHIT              .m3/m3    : PHIT
PIGN              .m3/m3    : PIGN
PIGN_MODELLING    .m3/m3    : PIGN_MODELLING
PIMP              .kPa.s/m  : PIMP
RHOB              .g/cm3    : RHOB
RT_MODELLING      .ohm.m    : RT_MODELLING
RT_POWER          .ohm.m    : RT_POWER
SP                .mV       : SP
SUWI              ._        : SUWI
SUWI_MODELLING    ._        : SUWI_MODELLING
SXWI              ._        : SXWI
TDVSS             .m        : TDVSS
TEMP              .K        : TEMP
VCL               .%        : VCL
WATER_VOL         ._        : WATER_VOL
ZLT               ._        : ZLT
~Params ----------------------------------------------------
~Other -----------------------------------------------------
~ASCII -----------------------------------------------------
# ...
  1550.7812  5072.8721 5072872.0000    -999.25     9.3916     9.3916     2.9500   126.9642     0.0000    -999.25    77.3201     2.0367     2.0611  1550.7812     0.5725     8.5941    -999.25     2.6421     0.0375     0.0375     0.0375 16643.2812     2.1131     2.9500     8.7025   102.5505     1.0000     1.0000     1.0000 -1470.7812   176.9973    74.3000     0.0375    25.0000
  1550.9336  5680.7578 5680758.0000    -999.25     8.6791     8.6791     2.7782   116.9997     0.0000    -999.25    75.8210     1.9817     1.9941  1550.9336     0.5392     8.8597    -999.25     2.6468     0.0624     0.0624     0.0624 18637.6562     2.1806     2.7782     7.7184   102.3244     1.0000     1.0000     1.0000 -1470.9336   177.0069    57.7480     0.0624    25.0000
  1551.0860  6426.3672 6426367.5000    -999.25     8.3876     8.3876     2.7313   107.6699     0.0000    -999.25    73.2040     2.0066     2.0166  1551.0861     0.4957     8.8329    -999.25     2.6514     0.0831     0.0831     0.0831 21083.8828     2.2701     2.7313     7.4600   102.2746     1.0000     1.0000     1.0000 -1471.0861   177.0164    44.1310     0.0831    25.0000
  1551.2384  6876.7061 6876706.0000    -999.25     8.3392     8.3392     2.7879   103.4157     0.0000    -999.25    70.5675     2.1943     2.2186  1551.2384     0.4410     8.6384    -999.25     2.6561     0.0886     0.0886     0.0886 22561.3730     2.3332     2.7879     7.7724   102.1129     1.0000     1.0000     1.0000 -1471.2384   177.0259    40.6130     0.0886    25.0000
  1551.3908  6637.5649 6637565.0000    -999.25     8.6402     8.6402     3.4339   107.1692     0.0000    -999.25    69.6621     2.6622     2.7089  1551.3907     0.4600     8.4712    -999.25     2.6607     0.0749     0.0749     0.0749 21776.7891     2.3338     3.4339    11.7917   102.0146     1.0000     1.0000     1.0000 -1471.3907   177.0355    49.7640     0.0749    25.0000
  1551.5432  5883.5498 5883549.5000    -999.25     9.0526     9.0526     4.8890   117.2565     0.0000    -999.25    70.4026     3.1329     3.1996  1551.5432     0.4769     8.2661    -999.25     2.6654     0.0494     0.0494     0.0494 19302.9844     2.2634     4.8890    23.9023   102.1456     1.0000     1.0000     1.0000 -1471.5432   177.0450    66.7180     0.0494    25.0000
  1551.6956  5219.6387 5219638.5000    -999.25     9.4150     9.4150     5.7708   126.2555     0.0000    -999.25    71.4057     3.0318     3.1172  1551.6956     0.4864     8.1451    -999.25     2.6700     0.0312     0.0312     0.0312 17124.7988     2.1621     5.7708    33.3021   102.2564     1.0000     1.0000     1.0000 -1471.6956   177.0546    78.8220     0.0312    25.0000
  1551.8480  4919.3657 4919366.0000    -999.25     9.0973     9.0973     4.7562   129.3089     0.0000    -999.25    71.6195     2.5938     2.6510  1551.8480     0.4988     8.1104    -999.25     2.6747     0.0256     0.0256     0.0256 16139.6523     2.0870     4.7562    22.6214   102.3238     1.0000     1.0000     1.0000 -1471.8480   177.0641    82.6600     0.0256    25.0000
  1552.0004  4926.2207 4926220.5000    -999.25     8.6315     8.6315     3.6215   128.1699     0.0000    -999.25    71.3743     2.2468     2.2577  1552.0004     0.5038     7.9581    -999.25     2.6794     0.0290     0.0290     0.0290 16162.1406     2.0715     3.6215    13.1153   102.0965     1.0000     1.0000     1.0000 -1472.0004   177.0736    80.4630     0.0290    25.0000
  1552.1528  5104.5581 5104558.0000    -999.25     8.6998     8.6998     3.0180   125.5491     0.0000    -999.25    71.9085     2.0984     2.0917  1552.1528     0.5204     7.7566    -999.25     2.6840     0.0360     0.0360     0.0360 16747.2363     2.1026     3.0180     9.1083   101.7233     1.0000     1.0000     1.0000 -1472.1528   177.0831    75.8030     0.0360    25.0000
  1552.3052  5294.1274 5294127.5000    -999.25     8.8433     8.8433     2.9023   123.4658     0.0000    -999.25    73.5298     2.1291     2.1285  1552.3052     0.5137     7.4986    -999.25     2.6887     0.0407     0.0407     0.0407 17369.1836     2.1445     2.9023     8.4233   101.3327     1.0000     1.0000     1.0000 -1472.3052   177.0927    72.7020     0.0407    25.0000
  1552.4576  5397.8940 5397894.0000    -999.25     8.6901     8.6901     3.0294   122.7637     0.0000    -999.25    75.0860     2.2489     2.2625  1552.4576     0.5020     7.2623    -999.25     2.6933     0.0405     0.0405     0.0405 17709.6270     2.1741     3.0294     9.1773   100.7097     1.0000     1.0000     1.0000 -1472.4576   177.1022    72.8390     0.0405    25.0000
  1552.6100  5401.0630 5401063.0000    -999.25     8.4411     8.4411     3.2543   123.5777     0.0000    -999.25    76.4612     2.3533     2.3737  1552.6100     0.4935     7.1210    -999.25     2.6980     0.0389     0.0389     0.0389 17720.0234     2.1898     3.2543    10.5905   100.3266     1.0000     1.0000     1.0000 -1472.6100   177.1117    73.9140     0.0389    25.0000
  1552.7624  5338.6074 5338607.5000    -999.25     8.6566     8.6566     3.4419   125.4174     0.0000    -999.25    78.5999     2.4009     2.4179  1552.7625     0.5275     7.1257    -999.25     2.7027     0.0359     0.0359     0.0359 17515.1152     2.1967     3.4419    11.8467   100.1237     1.0000     1.0000     1.0000 -1472.7625   177.1213    75.8460     0.0359    25.0000
  1552.9148  5261.6831 5261683.0000    -999.25     9.1907     9.1907     3.5053   127.2683     0.0000    -999.25    80.2519     2.4005     2.4059  1552.9148     0.5514     7.3242    -999.25     2.7073     0.0320     0.0320     0.0320 17262.7402     2.1970     3.5053    12.2871    99.9394     1.0000     1.0000     1.0000 -1472.9148   177.1308    78.4090     0.0320    25.0000
  1553.0672  5247.2817 5247281.5000    -999.25     9.1969     9.1969     3.5678   128.1114     0.0000    -999.25    80.0422     2.3480     2.3457  1553.0673     0.5288     7.4976    -999.25     2.7120     0.0318     0.0318     0.0318 17215.4902     2.2055     3.5678    12.7292    99.9196     1.0000     1.0000     1.0000 -1473.0673   177.1403    78.5360     0.0318    25.0000
  1553.2196  5314.6274 5314627.0000    -999.25     9.0561     9.0561     3.4058   127.2278     0.0000    -999.25    79.0534     2.2759     2.2788  1553.2196     0.4800     7.4119    -999.25     2.7166     0.0381     0.0381     0.0381 17436.4414     2.2184     3.4058    11.5995    99.8126     1.0000     1.0000     1.0000 -1473.2196   177.1499    74.3530     0.0381    25.0000
  1553.3720  5451.6748 5451675.0000    -999.25     8.4293     8.4293     3.2081   124.7787     0.0000    -999.25    77.4314     2.2396     2.2569  1553.3719     0.4407     7.0383    -999.25     2.7213     0.0456     0.0456     0.0456 17886.0723     2.2318     3.2081    10.2919    99.7549     1.0000     1.0000     1.0000 -1473.3719   177.1594    69.4550     0.0456    25.0000
  1553.5244  5616.7554 5616755.5000    -999.25     8.3901     8.3901     2.9996   121.8765     0.0000    -999.25    76.7126     2.2778     2.3097  1553.5244     0.4269     6.6005    -999.25     2.7259     0.0485     0.0485     0.0485 18427.6758     2.2459     2.9996     8.9976    99.5842     1.0000     1.0000     1.0000 -1473.5244   177.1689    67.5890     0.0485    25.0000
  1553.6768  5805.1025 5805102.5000    -999.25     8.7350     8.7350     3.2415   119.4186     0.0000    -999.25    77.1831     2.4067     2.4461  1553.6768     0.4451     6.4579    -999.25     2.7306     0.0529     0.0529     0.0529 19045.6113     2.2744     3.2415    10.5073    99.4504     1.0000     1.0000     1.0000 -1473.6768   177.1785    64.6510     0.0529    25.0000
  1553.8292  6094.6909 6094691.0000    -999.25     8.9946     8.9946     3.6983   117.0001     0.0000    -999.25    77.5704     2.5225     2.5622  1553.8292     0.4552     6.7698    -999.25     2.7353     0.0595     0.0595     0.0595 19995.7051     2.3395     3.6983    13.6774    99.4895     1.0000     1.0000     1.0000 -1473.8292   177.1880    58.9900     0.0595    25.0000
  1553.9816  6508.1406 6508140.5000    -999.25     8.6516     8.6516     3.9149   113.7730     0.0000    -999.25    76.9875     2.5138     2.5517  1553.9816     0.4780     7.3400    -999.25     2.7399     0.0446     0.0446     0.0446 21352.1680     2.4293     3.9149    15.3264    99.3495     1.0000     1.0000     1.0000 -1473.9816   177.1975    56.9790     0.0446    25.0000
