~Version ---------------------------------------------------
VERS. 2.0 : CWLS log ASCII Standard -VERSION 2.0
WRAP.  NO : 
~Well ------------------------------------------------------
STRT.m                                                   1260.0 : 
STOP.m                                                1659.7452 : 
STEP.m                                                   0.1524 : 
NULL.                                                   -999.25 : 
COMP.                                                           : COMPANY
WELL.                                                    Well-6 : WELL
FLD .                                                           : FIELD
LOC .                                                           : LOCATION
SRVC.                                                           : SERVICE COMPANY
DATE. 2021-01-20 14:34:00   : Log Export Date {yyyy-MM-dd HH:mm : ss}
PROV.                                                           : PROVINCE
UWI .                                                    Well-6 : UNIQUE WELL ID
API .                                                           : API NUMBER
~Curve Information -----------------------------------------
DEPTH             .m        : DEPTH
ACOUSTICIMPEDANCE1.kPa.s/m  : ACOUSTICIMPEDANCE1
AI                .kPa.s/m  : AI
AVG_PIGN          .m3/m3    : AVG_PIGN
CALI              .in       : CALI
CALI[DERIVED]1    .in       : CALI[DERIVED]1
DT                .us/ft    : DT
FACIES            ._        : FACIES
FLD1              ._        : FLD1
GR                .gAPI     : GR
LLD               .ohm.m    : LLD
LLS               .ohm.m    : LLS
LL3               .ohm.m    : LL3
DEPTH_1           .m        : DEPTH_1
NPHI              .m3/m3    : NPHI
ONE-WAYTIME1      .ms       : ONE-WAYTIME1
PERF_INT          ._        : PERF_INT
PERMEABILITY      .mD       : PERMEABILITY
PHIT              .m3/m3    : PHIT
PIGE              .m3/m3    : PIGE
PIGN              .m3/m3    : PIGN
PIGN_MODELLING    .m3/m3    : PIGN_MODELLING
PIMP              .kPa.s/m  : PIMP
RHOB              .g/cm3    : RHOB
LLD_1             .ohm.m    : LLD_1
RT_MODELLING      .ohm.m    : RT_MODELLING
RT_POWER          .ohm.m    : RT_POWER
SP                .mV       : SP
SUWI              ._        : SUWI
SUWI_MODELLING    ._        : SUWI_MODELLING
SXWI              ._        : SXWI
TDVSS             .m        : TDVSS
VCL               .%        : VCL
WATER_VOL         ._        : WATER_VOL
ZLT               ._        : ZLT
~Params ----------------------------------------------------
~Other -----------------------------------------------------
~ASCII -----------------------------------------------------
  1260.0000  4561.7271    -999.25    -999.25     9.7801     9.7801   147.2649     0.0000    -999.25    41.6874     0.6806     0.7141     0.9613  1260.0000     0.5789  -570.4421    -999.25    -999.25     0.2955     0.0582     0.0582     0.0582    -999.25     2.2040     0.6806     0.6806     0.4632    35.4385     1.0000     1.0000     1.0000 -1182.2999    77.5380     0.0582    -999.25
  1260.0436  4536.5659 4536566.0000    -999.25     9.7873     9.7873   147.6780     0.0000    -999.25    41.7220     0.6798     0.7140     0.9614  1260.0436     0.5805  -570.4631    -999.25    -999.25     0.2952     0.0582     0.0582     0.0582 14883.7471     2.1980     0.6798     0.6798     0.4621    35.4583     1.0000     1.0000     1.0000 -1182.3435    77.5357     0.0582    -999.25
  1260.1524  4477.6567 4480485.5000    -999.25     9.8051     9.8051   148.6004     0.0000    -999.25    41.8082     0.6779     0.7136     0.9617  1260.1523     0.5844  -570.5156    -999.25    -999.25     0.2947     0.0582     0.0582     0.0582 14699.7559     2.1830     0.6779     0.6779     0.4595    35.5075     1.0000     1.0000     1.0000 -1182.4524    77.5300     0.0582    -999.25
  1260.1960  4458.0117 4458012.0000    -999.25     9.8186     9.8186   148.9700     0.0000    -999.25    42.0377     0.6756     0.7118     0.9587  1260.1959     0.5872  -570.5367    -999.25    -999.25     0.2949     0.0570     0.0570     0.0570 14626.0234     2.1788     0.6756     0.6756     0.4564    35.5225     1.0000     1.0000     1.0000 -1182.4960    78.0098     0.0570    -999.25
  1260.3048  4430.1333 4437777.5000    -999.25     9.8521     9.8521   149.1913     0.0000    -999.25    42.6104     0.6699     0.7073     0.9513  1260.3048     0.5941  -570.5892    -999.25    -999.25     0.2955     0.0539     0.0539     0.0539 14559.6377     2.1684     0.6698     0.6699     0.4487    35.5600     1.0000     1.0000     1.0000 -1182.6047    79.2070     0.0539    -999.25
  1260.3484  4429.6689 4429668.5000    -999.25     9.8406     9.8406   149.2800     0.0000    -999.25    42.9735     0.6662     0.7032     0.9495  1260.3484     0.5945  -570.6102    -999.25    -999.25     0.2955     0.0535     0.0535     0.0535 14533.0342     2.1695     0.6662     0.6662     0.4438    35.5677     1.0000     1.0000     1.0000 -1182.6483    79.3824     0.0535    -999.25
  1260.4572  4453.6494 4464113.5000    -999.25     9.8119     9.8119   148.6575     0.0000    -999.25    43.8796     0.6570     0.6929     0.9449  1260.4572     0.5956  -570.6627    -999.25    -999.25     0.2957     0.0523     0.0523     0.0523 14646.0420     2.1721     0.6570     0.6570     0.4317    35.5868     1.0000     1.0000     1.0000 -1182.7572    79.8200     0.0523    -999.25
  1260.5008  4477.9170 4477917.0000    -999.25     9.7798     9.7798   148.4080     0.0000    -999.25    44.3448     0.6532     0.6864     0.9418  1260.5007     0.5928  -570.6837    -999.25    -999.25     0.2963     0.0518     0.0518     0.0518 14691.3281     2.1803     0.6532     0.6532     0.4267    35.5867     1.0000     1.0000     1.0000 -1182.8008    80.0111     0.0518    -999.25
  1260.6096  4558.4741 4567059.0000    -999.25     9.6998     9.6998   147.1487     0.0000    -999.25    45.5057     0.6437     0.6702     0.9340  1260.6096     0.5857  -570.7362    -999.25    -999.25     0.2978     0.0506     0.0506     0.0506 14983.7900     2.2007     0.6437     0.6437     0.4144    35.5863     1.0000     1.0000     1.0000 -1182.9095    80.4880     0.0506    -999.25
  1260.6532  4602.7817 4602781.5000    -999.25     9.6720     9.6720   146.6440     0.0000    -999.25    45.8189     0.6422     0.6638     0.9280  1260.6532     0.5818  -570.7573    -999.25    -999.25     0.3000     0.0477     0.0477     0.0477 15100.9893     2.2145     0.6422     0.6422     0.4125    35.5760     1.0000     1.0000     1.0000 -1182.9531    81.6095     0.0477    -999.25
  1260.7620  4729.1562 4730315.0000    -999.25     9.6026     9.6026   144.9399     0.0000    -999.25    46.6004     0.6386     0.6480     0.9129  1260.7620     0.5720  -570.8098    -999.25    -999.25     0.3056     0.0404     0.0404     0.0404 15519.4072     2.2488     0.6386     0.6386     0.4078    35.5504     1.0000     1.0000     1.0000 -1183.0620    84.4080     0.0404    -999.25
  1260.8056  4781.4224 4781422.5000    -999.25     9.5807     9.5807   144.2570     0.0000    -999.25    46.3496     0.6404     0.6445     0.9097  1260.8055     0.5686  -570.8308    -999.25    -999.25     0.3077     0.0382     0.0382     0.0382 15687.0820     2.2630     0.6405     0.6404     0.4102    35.5192     1.0000     1.0000     1.0000 -1183.1056    85.2837     0.0382    -999.25
  1260.9144  4924.1436 4918984.0000    -999.25     9.5259     9.5259   142.2602     0.0000    -999.25    45.7235     0.6451     0.6356     0.9017  1260.9144     0.5602  -570.8833    -999.25    -999.25     0.3129     0.0325     0.0325     0.0325 16138.3984     2.2983     0.6452     0.6451     0.4162    35.4413     1.0000     1.0000     1.0000 -1183.2144    87.4690     0.0325    -999.25
  1260.9580  4974.1094 4974109.5000    -999.25     9.4964     9.4964   141.4600     0.0000    -999.25    45.0038     0.6509     0.6373     0.9035  1260.9580     0.5582  -570.9043    -999.25    -999.25     0.3139     0.0320     0.0320     0.0320 16319.2568     2.3085     0.6509     0.6509     0.4237    35.3912     1.0000     1.0000     1.0000 -1183.2579    87.6512     0.0320    -999.25
  1261.0668  5089.2329 5081856.0000    -999.25     9.4229     9.4229   139.7937     0.0000    -999.25    43.2079     0.6651     0.6416     0.9079  1261.0668     0.5534  -570.9568    -999.25    -999.25     0.3164     0.0308     0.0308     0.0308 16672.7559     2.3341     0.6652     0.6651     0.4424    35.2659     1.0000     1.0000     1.0000 -1183.3668    88.1060     0.0308    -999.25
  1261.1104  5125.0342 5125034.0000    -999.25     9.3998     9.3998   139.1260     0.0000    -999.25    42.2838     0.6738     0.6503     0.9147  1261.1104     0.5532  -570.9778    -999.25    -999.25     0.3168     0.0308     0.0308     0.0308 16814.4160     2.3393     0.6739     0.6738     0.4542    35.2122     1.0000     1.0000     1.0000 -1183.4104    88.1060     0.0308    -999.25
  1261.2192  5169.5503 5163121.0000    -999.25     9.3422     9.3422   138.6919     0.0000    -999.25    39.9779     0.6956     0.6721     0.9317  1261.2192     0.5527  -571.0303    -999.25    -999.25     0.3176     0.0308     0.0308     0.0308 16939.3730     2.3523     0.6956     0.6956     0.4838    35.0782     1.0000     1.0000     1.0000 -1183.5192    88.1060     0.0308    -999.25
  1261.2628  5178.3838 5178383.5000    -999.25     9.3318     9.3318   138.5180     0.0000    -999.25    39.2644     0.7068     0.6875     0.9598  1261.2628     0.5540  -571.0514    -999.25    -999.25     0.3175     0.0308     0.0308     0.0308 16989.4473     2.3533     0.7069     0.7068     0.4999    35.0122     1.0000     1.0000     1.0000 -1183.5627    88.1060     0.0308    -999.25
  1261.3716  5184.8149 5180896.0000    -999.25     9.3059     9.3059   138.5023     0.0000    -999.25    37.4840     0.7350     0.7258     1.0299  1261.3716     0.5573  -571.1039    -999.25    -999.25     0.3173     0.0308     0.0308     0.0308 16997.6895     2.3560     0.7351     0.7350     0.5402    34.8473     1.0000     1.0000     1.0000 -1183.6716    88.1060     0.0308    -999.25
  1261.4152  5181.9023 5181902.5000    -999.25     9.2912     9.2912   138.4960     0.0000    -999.25    37.1253     0.7497     0.7465     1.0639  1261.4152     0.5610  -571.1249    -999.25    -999.25     0.3167     0.0308     0.0308     0.0308 17000.9922     2.3546     0.7498     0.7497     0.5625    34.7689     1.0000     1.0000     1.0000 -1183.7152    88.1060     0.0308    -999.25
  1261.5240  5160.1885 5159316.0000    -999.25     9.2548     9.2548   138.8680     0.0000    -999.25    36.2304     0.7863     0.7980     1.1488  1261.5240     0.5704  -571.1774    -999.25    -999.25     0.3151     0.0308     0.0308     0.0308 16926.8906     2.3510     0.7864     0.7863     0.6182    34.5733     1.0000     1.0000     1.0000 -1183.8240    88.1060     0.0308    -999.25
