~Version ---------------------------------------------------
VERS. 2.0 : CWLS log ASCII Standard -VERSION 2.0
WRAP.  NO : 
~Well ------------------------------------------------------
STRT.m                                                   1260.0 : 
STOP.m                                                1659.7452 : 
STEP.m                                                   0.1524 : 
NULL.                                                   -999.25 : 
COMP.                                                           : COMPANY
WELL.                                                    Well-6 : WELL
FLD .                                                           : FIELD
LOC .                                                           : LOCATION
SRVC.                                                           : SERVICE COMPANY
DATE. 2021-01-20 14:34:00   : Log Export Date {yyyy-MM-dd HH:mm : ss}
PROV.                                                           : PROVINCE
UWI .                                                    Well-6 : UNIQUE WELL ID
API .                                                           : API NUMBER
~Curve Information -----------------------------------------
DEPTH             .m        : DEPTH
ACOUSTICIMPEDANCE1.kPa.s/m  : ACOUSTICIMPEDANCE1
AI                .kPa.s/m  : AI
AVG_PIGN          .m3/m3    : AVG_PIGN
CALI              .in       : CALI
CALI[DERIVED]1    .in       : CALI[DERIVED]1
DT                .us/ft    : DT
FACIES            ._        : FACIES
FLD1              ._        : FLD1
GR                .gAPI     : GR
LLD               .ohm.m    : LLD
LLS               .ohm.m    : LLS
LL3               .ohm.m    : LL3
DEPTH_1           .m        : DEPTH_1
NPHI              .m3/m3    : NPHI
ONE-WAYTIME1      .ms       : ONE-WAYTIME1
PERF_INT          ._        : PERF_INT
PERMEABILITY      .mD       : PERMEABILITY
PHIT              .m3/m3    : PHIT
PIGE              .m3/m3    : PIGE
PIGN              .m3/m3    : PIGN
PIGN_MODELLING    .m3/m3    : PIGN_MODELLING
PIMP              .kPa.s/m  : PIMP
RHOB              .g/cm3    : RHOB
LLD_1             .ohm.m    : LLD_1
RT_MODELLING      .ohm.m    : RT_MODELLING
RT_POWER          .ohm.m    : RT_POWER
SP                .mV       : SP
SUWI              ._        : SUWI
SUWI_MODELLING    ._        : SUWI_MODELLING
SXWI              ._        : SXWI
TDVSS             .m        : TDVSS
VCL               .%        : VCL
WATER_VOL         ._        : WATER_VOL
ZLT               ._        : ZLT
~Params ----------------------------------------------------
~Other -----------------------------------------------------
~ASCII -----------------------------------------------------
# ...
  1420.0200  6259.0791 6255637.0000    -999.25     8.9026     8.9026   119.6696     0.0000    -999.25    61.9393     2.8399     2.7039     3.5745  1420.0200     0.5189  -647.6494    -999.25     2.2397     0.2419     0.1137     0.1137     0.1137 20523.7441     2.4574     2.8398     2.8399     8.0649    36.9502     1.0000     1.0000     1.0000 -1342.3199    76.8260     0.1137     4.0000
  1420.0636  6261.8726 6261872.5000    -999.25     8.8998     8.8998   119.8570     0.0000    -999.25    61.7363     2.8455     2.7045     3.5457  1420.0636     0.5214  -647.6704    -999.25     2.7031     0.2389     0.1208     0.1208     0.1208 20544.2012     2.4624     2.8454     2.8455     8.0967    36.9010     1.0000     1.0000     1.0000 -1342.3635    76.9184     0.1208     4.0000
  1420.1724  6317.0806 6310747.0000    -999.25     8.8929     8.8929   119.4051     0.0000    -999.25    61.2300     2.8594     2.7060     3.4741  1420.1724     0.5277  -647.7229    -999.25     3.8593     0.2315     0.1383     0.1383     0.1383 20704.5508     2.4747     2.8595     2.8594     8.1762    36.7781     1.0000     1.0000     1.0000 -1342.4724    77.1490     0.1383     4.0000
  1420.2160  6330.3325 6330332.5000    -999.25     8.8910     8.8910   119.2240     0.0000    -999.25    60.7490     2.8794     2.7242     3.4579  1420.2159     0.5275  -647.7439    -999.25     3.8042     0.2309     0.1376     0.1376     0.1376 20768.8086     2.4761     2.8795     2.8794     8.2919    36.7265     1.0000     1.0000     1.0000 -1342.5160    77.2165     0.1376     4.0000
  1420.3248  6405.0034 6396769.5000    -999.25     8.8864     8.8864   118.0039     0.0000    -999.25    59.5487     2.9292     2.7698     3.4176  1420.3248     0.5271  -647.7964    -999.25     3.6666     0.2293     0.1358     0.1358     0.1358 20986.7773     2.4797     2.9295     2.9292     8.5804    36.5977     1.0000     1.0000     1.0000 -1342.6248    77.3850     0.1358     4.0000
  1420.3684  6423.3931 6423393.5000    -999.25     8.8848     8.8848   117.5150     0.0000    -999.25    59.2308     2.9583     2.8030     3.4495  1420.3684     0.5231  -647.8174    -999.25     3.8299     0.2288     0.1366     0.1366     0.1366 21074.1250     2.4765     2.9585     2.9583     8.7536    36.5009     1.0000     1.0000     1.0000 -1342.6683    76.5139     0.1366     4.0000
  1420.4772  6506.6650 6501092.0000    -999.25     8.8807     8.8807   115.6388     0.0000    -999.25    58.4375     3.0308     2.8858     3.5291  1420.4772     0.5131  -647.8699    -999.25     4.2373     0.2274     0.1385     0.1385     0.1385 21329.0410     2.4686     3.0311     3.0308     9.1857    36.2593     1.0000     1.0000     1.0000 -1342.7772    74.3400     0.1385     4.0000
  1420.5208  6532.2285 6532228.5000    -999.25     8.8819     8.8819   114.8870     0.0000    -999.25    58.8153     3.0648     2.9289     3.6080  1420.5208     0.5064  -647.8910    -999.25     4.5944     0.2267     0.1401     0.1401     0.1401 21431.1953     2.4622     3.0652     3.0648     9.3961    36.1339     1.0000     1.0000     1.0000 -1342.8208    72.8509     0.1401     4.0000
  1420.6296  6607.6475 6607555.5000    -999.25     8.8847     8.8847   112.8374     0.0000    -999.25    59.7581     3.1498     3.0365     3.8050  1420.6296     0.4894  -647.9435    -999.25     5.4857     0.2250     0.1442     0.1442     0.1442 21678.3320     2.4462     3.1501     3.1498     9.9212    35.8207     1.0000     1.0000     1.0000 -1342.9296    69.1350     0.1442     4.0000
  1420.6732  6637.7422 6637742.0000    -999.25     8.8876     8.8876   112.0160     0.0000    -999.25    60.6568     3.1860     3.0834     3.8968  1420.6732     0.4834  -647.9645    -999.25     6.6610     0.2235     0.1508     0.1508     0.1508 21777.3691     2.4394     3.1863     3.1860    10.1539    35.6498     1.0000     1.0000     1.0000 -1342.9731    64.2924     0.1508     4.0000
  1420.7820  6693.0957 6697425.5000    -999.25     8.8948     8.8948   110.3230     0.0000    -999.25    62.8993     3.2764     3.2005     4.1258  1420.7820     0.4684  -648.0170    -999.25     9.5940     0.2199     0.1673     0.1673     0.1673 21973.1797     2.4226     3.2767     3.2764    10.7345    35.2235     1.0000     1.0000     1.0000 -1343.0820    52.2080     0.1673     4.0000
  1420.8257  6721.3975 6721397.5000    -999.25     8.8974     8.8974   109.6430     0.0000    -999.25    63.6047     3.3135     3.2452     4.2114  1420.8257     0.4659  -648.0381    -999.25    10.0834     0.2192     0.1694     0.1694     0.1694 22051.8281     2.4178     3.3138     3.3135    10.9825    34.9984     1.0000     1.0000     1.0000 -1343.1257    50.6673     0.1694     4.0000
  1420.9344  6746.6006 6751446.0000    -999.25     8.9037     8.9037   108.6995     0.0000    -999.25    65.3592     3.4058     3.3565     4.4243  1420.9343     0.4594  -648.0905    -999.25    11.3007     0.2177     0.1747     0.1747     0.1747 22150.4121     2.4060     3.4062     3.4058    11.5994    34.4386     1.0000     1.0000     1.0000 -1343.2344    46.8350     0.1747     4.0000
  1420.9780  6763.4985 6763498.5000    -999.25     8.9056     8.9056   108.3210     0.0000    -999.25    65.4298     3.4432     3.3936     4.5049  1420.9779     0.4605  -648.1116    -999.25    11.0662     0.2177     0.1742     0.1742     0.1742 22189.9551     2.4036     3.4435     3.4432    11.8590    34.2099     1.0000     1.0000     1.0000 -1343.2780    47.3222     0.1742     4.0000
  1421.0868  6764.9795 6766304.5000    -999.25     8.9103     8.9103   108.0306     0.0000    -999.25    65.6058     3.5365     3.4864     4.7061  1421.0868     0.4630  -648.1641    -999.25    10.4811     0.2175     0.1729     0.1729     0.1729 22199.1621     2.3977     3.5369     3.5365    12.5068    33.6394     1.0000     1.0000     1.0000 -1343.3868    48.5380     0.1729     4.0000
  1421.1305  6767.4316 6767431.5000    -999.25     8.9106     8.9106   107.9140     0.0000    -999.25    65.1453     3.5765     3.5172     4.7524  1421.1305     0.4656  -648.1852    -999.25    10.1675     0.2176     0.1724     0.1724     0.1724 22202.8594     2.3960     3.5769     3.5765    12.7955    33.4023     1.0000     1.0000     1.0000 -1343.4305    49.1631     0.1724     4.0000
  1421.2392  6726.5171 6722493.5000    -999.25     8.9113     8.9113   108.3765     0.0000    -999.25    63.9999     3.6761     3.5938     4.8674  1421.2391     0.4721  -648.2376    -999.25     9.3874     0.2179     0.1713     0.1713     0.1713 22055.4238     2.3917     3.6765     3.6761    13.5135    32.8126     1.0000     1.0000     1.0000 -1343.5392    50.7180     0.1713     4.0000
  1421.2828  6704.4683 6704468.5000    -999.25     8.9120     8.9120   108.5620     0.0000    -999.25    63.4848     3.7182     3.6252     4.8832  1421.2827     0.4734  -648.2586    -999.25     9.2306     0.2183     0.1712     0.1712     0.1712 21996.2871     2.3880     3.7186     3.7182    13.8295    32.6087     1.0000     1.0000     1.0000 -1343.5828    51.2026     0.1712     4.0000
  1421.3916  6620.6982 6612480.0000    -999.25     8.9139     8.9139   109.5037     0.0000    -999.25    62.1995     3.8233     3.7037     4.9228  1421.3916     0.4764  -648.3112    -999.25     8.8394     0.2194     0.1712     0.1712     0.1712 21694.4883     2.3786     3.8238     3.8233    14.6180    32.0999     1.0000     1.0000     1.0000 -1343.6915    52.4120     0.1712     4.0000
  1421.4353  6575.5327 6575532.5000    -999.25     8.9142     8.9142   109.8820     0.0000    -999.25    61.6710     3.8605     3.7455     4.9289  1421.4353     0.4758  -648.3322    -999.25     8.9267     0.2207     0.1722     0.1722     0.1722 21573.2695     2.3705     3.8609     3.8605    14.9073    31.9616     1.0000     1.0000     1.0000 -1343.7352    52.7162     0.1722     4.0000
  1421.5440  6428.4341 6414263.0000    -999.25     8.9150     8.9150   111.4451     0.0000    -999.25    60.3564     3.9531     3.8495     4.9441  1421.5439     0.4741  -648.3846    -999.25     9.1438     0.2239     0.1747     0.1747     0.1747 21044.1699     2.3505     3.9534     3.9531    15.6268    31.6176     1.0000     1.0000     1.0000 -1343.8440    53.4730     0.1747     4.0000
