~Version ---------------------------------------------------
VERS. 2.0 : CWLS log ASCII Standard -VERSION 2.0
WRAP.  NO : 
~Well ------------------------------------------------------
STRT.m                                                1290.3698 : 
STOP.m                                                1526.7422 : 
STEP.m                                                   0.1524 : 
NULL.                                                   -999.25 : 
COMP.                                                           : COMPANY
WELL.                                                   Well-18 : WELL
FLD .                                                           : FIELD
LOC .                                                           : LOCATION
SRVC.                                                           : SERVICE COMPANY
DATE. 2021-01-20 14:34:10   : Log Export Date {yyyy-MM-dd HH:mm : ss}
PROV.                                                           : PROVINCE
UWI .                                                   Well-18 : UNIQUE WELL ID
API .                                                           : API NUMBER
~Curve Information -----------------------------------------
DEPTH             .m        : DEPTH
ACOUSTICIMPEDANCE1.kPa.s/m  : ACOUSTICIMPEDANCE1
AI                .kPa.s/m  : AI
AVG_PIGN          .m3/m3    : AVG_PIGN
BS                .in       : BS
CALI              .in       : CALI
CALI[DERIVED]1    .in       : CALI[DERIVED]1
DT                .us/ft    : DT
FACIES            ._        : FACIES
FLD1              ._        : FLD1
GR                .gAPI     : GR
DEPTH_1           .m        : DEPTH_1
NPHI              .m3/m3    : NPHI
PEF               .b/e      : PEF
PERF_INT          ._        : PERF_INT
PHIT              .m3/m3    : PHIT
PIGN              .m3/m3    : PIGN
PIGN_MODELLING    .m3/m3    : PIGN_MODELLING
PIMP              .kPa.s/m  : PIMP
RHOB              .g/cm3    : RHOB
LLD               .ohm.m    : LLD
RT_MODELLING      .ohm.m    : RT_MODELLING
RT_POWER          .ohm.m    : RT_POWER
RXO               .ohm.m    : RXO
SP                .mV       : SP
SUWI              ._        : SUWI
SUWI_MODELLING    ._        : SUWI_MODELLING
SXWI              ._        : SXWI
TDVSS             .m        : TDVSS
TEMP              .K        : TEMP
VCL               .%        : VCL
WATER_VOL         ._        : WATER_VOL
ZLT               ._        : ZLT
~Params ----------------------------------------------------
~Other -----------------------------------------------------
~ASCII -----------------------------------------------------
# ...
  1367.4842  5602.2104 5602210.0000    -999.25     8.5000     8.7438     8.7438   130.5390     0.0000    -999.25    94.4188  1367.4843     0.4850     6.3952    -999.25     0.1940     0.0277     0.0277 18379.9551     2.3993     1.6796     1.6796     2.8212     1.6671   -63.1875     1.0000     1.0000     1.0000 -1275.1165   157.7696    83.1590     0.0277     0.0000
  1367.6366  5569.7671 5569767.0000    -999.25     8.5000     8.7588     8.7588   130.9299     0.0000    -999.25    94.4658  1367.6366     0.4871     6.3896    -999.25     0.1940     0.0279     0.0279 18273.5137     2.3925     1.6435     1.6435     2.7012     1.6787   -63.9375     1.0000     1.0000     1.0000 -1275.2668   157.7783    83.0590     0.0279     0.0000
  1367.7890  5649.4233 5649423.0000    -999.25     8.5000     8.7358     8.7358   129.2662     0.0000    -999.25    95.7428  1367.7891     0.4945     6.2174    -999.25     0.1940     0.0286     0.0286 18534.8535     2.3959     1.6786     1.6786     2.8178     1.6920   -64.4375     1.0000     1.0000     1.0000 -1275.4171   157.7869    82.6860     0.0286     0.0000
  1367.9414  5758.5107 5758511.0000    -999.25     8.5000     8.7335     8.7335   127.1091     0.0000    -999.25    98.4994  1367.9414     0.4908     5.9677    -999.25     0.1897     0.0282     0.0282 18892.7520     2.4014     1.7847     1.7847     3.1853     1.7605   -64.8750     1.0000     1.0000     1.0000 -1275.5674   157.7956    80.7610     0.0282     0.0000
  1368.0938  5872.8853 5872885.0000    -999.25     8.5000     8.7311     8.7311   125.3431     0.0000    -999.25   100.4124  1368.0939     0.4764     5.8969    -999.25     0.1799     0.0254     0.0254 19267.9961     2.4151     1.9325     1.9325     3.7347     1.8949   -64.4375     1.0000     1.0000     1.0000 -1275.7178   157.8043    77.2800     0.0254     0.0000
  1368.2462  5954.5918 5954592.0000    -999.25     8.5000     8.7588     8.7588   124.3644     0.0000    -999.25   102.2326  1368.2462     0.4254     6.0640    -999.25     0.1738     0.0228     0.0228 19536.0625     2.4296     2.0410     2.0410     4.1655     2.0031   -63.9375     1.0000     1.0000     1.0000 -1275.8680   157.8129    75.4580     0.0228     0.0000
  1368.3986  5963.7241 5963724.0000    -999.25     8.5000     8.7702     8.7702   124.4208     0.0000    -999.25   102.3899  1368.3987     0.4226     6.2834    -999.25     0.1749     0.0227     0.0227 19566.0234     2.4344     2.0944     2.0944     4.3867     1.9035   -63.3750     1.0000     1.0000     1.0000 -1276.0183   157.8216    76.0570     0.0227     0.0000
  1368.5510  5890.9409 5890941.0000    -999.25     8.5000     8.7863     8.7863   125.9451     0.0000    -999.25   100.8789  1368.5510     0.4339     6.4758    -999.25     0.1749     0.0225     0.0225 19327.2344     2.4342     2.0671     2.0671     4.2729     1.9010   -63.0625     1.0000     1.0000     1.0000 -1276.1687   157.8303    76.1770     0.0225     0.0000
  1368.7034  5822.8198 5822820.0000    -999.25     8.5000     8.7886     8.7886   126.8097     0.0000    -999.25    98.8396  1368.7034     0.4146     6.4273    -999.25     0.1734     0.0219     0.0219 19103.7402     2.4225     1.9773     1.9773     3.9099     1.7796   -63.5000     1.0000     1.0000     1.0000 -1276.3190   157.8389    75.7560     0.0219     0.0000
  1368.8558  5746.0405 5746040.5000    -999.25     8.5000     8.7787     8.7787   127.0672     0.0000    -999.25    95.0175  1368.8558     0.4126     6.3738    -999.25     0.1796     0.0349     0.0349 18851.8379     2.3954     1.7630     1.7630     3.1081     1.7231   -63.8750     1.0000     1.0000     1.0000 -1276.4692   157.8476    72.3570     0.0349     0.0000
  1369.0082  5721.5493 5721549.5000    -999.25     8.5000     8.7268     8.7268   126.1909     0.0000    -999.25    91.1389  1369.0082     0.3898     6.5091    -999.25     0.1877     0.0461     0.0461 18771.4883     2.3688     1.6007     1.6007     2.5622     1.4753   -63.6250     1.0000     1.0000     1.0000 -1276.6196   157.8563    70.8060     0.0461     0.0000
  1369.1606  5753.2822 5753282.0000    -999.25     8.5000     8.7060     8.7060   126.5126     0.0000    -999.25    85.2193  1369.1606     0.4338     6.8031    -999.25     0.1912     0.0410     0.0410 18875.5977     2.3880     1.6979     1.6979     2.8829     1.4237   -63.6875     1.0000     1.0000     1.0000 -1276.7699   157.8649    75.1060     0.0410     0.0000
  1369.3130  5967.8828 5967883.0000    -999.25     8.5000     8.7801     8.7801   127.2233     0.0000    -999.25    78.6511  1369.3130     0.4789     7.2420    -999.25     0.1929     0.0357     0.0357 19579.6680     2.4910     1.6422     1.6422     2.6968     1.1218   -63.9375     1.0000     1.0000     1.0000 -1276.9202   157.8736    78.5700     0.0357     0.0000
  1369.4654  6004.1704 6004170.5000    -999.25     8.5000     8.6922     8.6922   129.2109     0.0000    -999.25    74.8792  1369.4655     0.5059     7.0962    -999.25     0.1932     0.0341     0.0341 19698.7207     2.5453     1.5084     1.5084     2.2753     1.0869   -64.0000     1.0000     1.0000     1.0000 -1277.0706   157.8823    79.5260     0.0341     0.0000
  1369.6178  5624.3916 5624392.0000    -999.25     8.5000     8.8712     8.8712   132.4086     0.0000    -999.25    76.5043  1369.6178     0.4713     6.6881    -999.25     0.1926     0.0344     0.0344 18452.7285     2.4433     1.4151     1.4151     2.0026     0.9479   -64.1875     1.0000     1.0000     1.0000 -1277.2208   157.8909    79.1240     0.0344     0.0000
  1369.7702  5175.8130 5175813.0000    -999.25     8.5000     8.9102     8.9102   136.8328     0.0000    -999.25    81.7098  1369.7703     0.4369     6.1553    -999.25     0.1929     0.0300     0.0300 16981.0137     2.3236     1.2445     1.2445     1.5489     0.7013   -64.0625     1.0000     1.0000     1.0000 -1277.3712   157.8996    81.4720     0.0300     0.0000
  1369.9226  4957.9302 4957930.0000    -999.25     8.5000     8.8972     8.8972   140.5389     0.0000    -999.25    83.8186  1369.9226     0.4516     5.7154    -999.25     0.1939     0.0260     0.0260 16266.1758     2.2860     1.0652     1.0652     1.1345     0.6858   -64.5000     1.0000     1.0000     1.0000 -1277.5215   157.9083    83.9590     0.0260     1.0000
  1370.0750  4914.9629 4914963.0000    -999.25     8.5000     8.8781     8.8781   142.2301     0.0000    -999.25    82.1517  1370.0751     0.4873     5.7167    -999.25     0.1940     0.0257     0.0257 16125.2061     2.2935     1.0597     1.0597     1.1229     0.6927   -65.1250     1.0000     1.0000     1.0000 -1277.6718   157.9169    84.1390     0.0257     1.0000
  1370.2274  4847.1938 4847194.0000    -999.25     8.5000     8.8712     8.8712   142.4372     0.0000    -999.25    80.6290  1370.2274     0.4975     5.6132    -999.25     0.1940     0.0254     0.0254 15902.8672     2.2652     1.0550     1.0550     1.1131     0.6110   -65.1250     1.0000     1.0000     1.0000 -1277.8221   157.9256    84.3260     0.0254     1.0000
  1370.3798  4871.1069 4871107.0000    -999.25     8.5000     8.8482     8.8482   140.6160     0.0000    -999.25    80.6352  1370.3799     0.4801     5.4683    -999.25     0.1940     0.0255     0.0255 15981.3223     2.2472     1.0435     1.0435     1.0889     0.6167   -65.1875     1.0000     1.0000     1.0000 -1277.9724   157.9343    84.2300     0.0255     1.0000
  1370.5322  4868.7842 4868784.5000    -999.25     8.5000     8.7978     8.7978   140.3394     0.0000    -999.25    82.8556  1370.5322     0.4627     5.2873    -999.25     0.1940     0.0262     0.0262 15973.7021     2.2417     1.0337     1.0337     1.0686     0.6131   -65.1250     1.0000     1.0000     1.0000 -1278.1227   157.9429    83.9060     0.0262     1.0000
  1370.6846  4897.1938 4897194.0000    -999.25     8.5000     8.7950     8.7950   139.7780     0.0000    -999.25    88.7214  1370.6846     0.4640     5.0933    -999.25     0.1940     0.0261     0.0261 16066.9102     2.2458     1.0422     1.0422     1.0862     0.6281   -65.0000     1.0000     1.0000     1.0000 -1278.2731   157.9516    83.9590     0.0261     1.0000
