~Version ---------------------------------------------------
VERS. 2.0 : CWLS log ASCII Standard -VERSION 2.0
WRAP.  NO : 
~Well ------------------------------------------------------
STRT.m                                                   1260.0 : 
STOP.m                                                1587.9648 : 
STEP.m                                                   0.1524 : 
NULL.                                                   -999.25 : 
COMP.                                                           : COMPANY
WELL.                                                    Well-5 : WELL
FLD .                                                           : FIELD
LOC .                                                           : LOCATION
SRVC.                                                           : SERVICE COMPANY
DATE. 2021-01-20 14:34:00   : Log Export Date {yyyy-MM-dd HH:mm : ss}
PROV.                                                           : PROVINCE
UWI .                                                    Well-5 : UNIQUE WELL ID
API .                                                           : API NUMBER
~Curve Information -----------------------------------------
DEPTH             .m        : DEPTH
ACOUSTICIMPEDANCE1.kPa.s/m  : ACOUSTICIMPEDANCE1
AI                .kPa.s/m  : AI
AVG_PIGN          .m3/m3    : AVG_PIGN
CALI              .in       : CALI
CALI[DERIVED]1    .in       : CALI[DERIVED]1
DT                .us/ft    : DT
FACIES            ._        : FACIES
FLD1              ._        : FLD1
GR                .gAPI     : GR
LLD               .ohm.m    : LLD
LLS               .ohm.m    : LLS
LL3               .ohm.m    : LL3
DEPTH_1           .m        : DEPTH_1
NPHI              .m3/m3    : NPHI
PERF_INT          ._        : PERF_INT
PERMEABILITY      .mD       : PERMEABILITY
PIGN              .m3/m3    : PIGN
PIGN_MODELLING    .m3/m3    : PIGN_MODELLING
PIMP              .kPa.s/m  : PIMP
RHOB              .g/cm3    : RHOB
RT_MODELLING      .ohm.m    : RT_MODELLING
RT_POWER          .ohm.m    : RT_POWER
SP                .mV       : SP
SUWI              ._        : SUWI
SUWI_MODELLING    ._        : SUWI_MODELLING
TDVSS             .m        : TDVSS
VCL               .%        : VCL
WATER_VOL         ._        : WATER_VOL
ZLT               ._        : ZLT
~Params ----------------------------------------------------
~Other -----------------------------------------------------
~ASCII -----------------------------------------------------
# ...
  1433.3219  5720.8369 5720837.0000    -999.25     9.8815     9.8815   122.5148     0.0000     0.0000    56.8482     2.1399     2.0207     2.2521  1433.3219     0.5706    -999.25     0.0032     0.0244     0.0244 18769.1504     2.2995     2.1399     4.5819    21.6095     1.0000     1.0000 -1361.7319    73.1557     0.0244     8.0000
  1433.4312  5782.5972 5786819.0000    -999.25     9.8843     9.8843   121.5964     0.0000     0.0000    57.2814     2.0558     1.9374     2.1260  1433.4312     0.5840    -999.25     0.0032     0.0228     0.0228 18985.6270     2.3069     2.0558     4.2263    21.9666     1.0000     1.0000 -1361.8412    74.8970     0.0228     8.0000
  1433.4742  5812.7769 5812777.0000    -999.25     9.8700     9.8700   121.2351     0.0000     0.0000    57.5371     2.0361     1.9246     2.1152  1433.4741     0.5887    -999.25     0.0036     0.0223     0.0223 19070.7910     2.3120     2.0361     4.1466    22.0380     1.0000     1.0000 -1361.8842    75.4892     0.0223     8.0000
  1433.5836  5918.6650 5920060.5000    -999.25     9.8335     9.8335   119.7408     0.0000     0.0000    58.1875     1.9859     1.8920     2.0877  1433.5836     0.6007    -999.25     0.0046     0.0209     0.0209 19422.7715     2.3252     1.9859     3.9440    22.2195     1.0000     1.0000 -1361.9935    76.9960     0.0209     8.0000
  1433.6267  5962.3267 5962326.5000    -999.25     9.8114     9.8114   119.1521     0.0000     0.0000    58.5299     1.9763     1.8952     2.1122  1433.6267     0.6021    -999.25     0.0055     0.0208     0.0208 19561.4395     2.3308     1.9763     3.9062    22.2273     1.0000     1.0000 -1362.0366    77.1334     0.0208     8.0000
  1433.7360  6091.1118 6089641.0000    -999.25     9.7554     9.7554   117.3481     0.0000     0.0000    59.3982     1.9520     1.9034     2.1744  1433.7360     0.6055    -999.25     0.0077     0.0205     0.0205 19979.1367     2.3451     1.9520     3.8103    22.2470     1.0000     1.0000 -1362.1460    77.4820     0.0205     8.0000
  1433.7790  6139.7280 6139728.0000    -999.25     9.7501     9.7501   116.6384     0.0000     0.0000    59.6475     1.9490     1.9167     2.2131  1433.7789     0.6014    -999.25     0.0095     0.0210     0.0210 20143.4648     2.3495     1.9490     3.7986    22.2109     1.0000     1.0000 -1362.1890    76.9400     0.0210     8.0000
  1433.8884  6250.6553 6246695.0000    -999.25     9.7368     9.7368   115.1170     0.0000     0.0000    60.2820     1.9413     1.9506     2.3117  1433.8884     0.5910    -999.25     0.0142     0.0222     0.0222 20494.4062     2.3607     1.9413     3.7688    22.1191     1.0000     1.0000 -1362.2983    75.5610     0.0222     8.0000
  1433.9314  6288.7393 6288739.0000    -999.25     9.7385     9.7385   114.5190     0.0000     0.0000    60.0719     1.9428     1.9667     2.3568  1433.9314     0.5842    -999.25     0.0169     0.0230     0.0230 20632.3457     2.3628     1.9428     3.7744    22.0554     1.0000     1.0000 -1362.3413    74.6987     0.0230     8.0000
  1434.0408  6340.2754 6335874.5000    -999.25     9.7429     9.7429   113.8383     0.0000     0.0000    59.5375     1.9464     2.0077     2.4716  1434.0408     0.5669    -999.25     0.0238     0.0250     0.0250 20786.9883     2.3680     1.9464     3.7886    21.8933     1.0000     1.0000 -1362.4508    72.5050     0.0250     8.0000
  1434.0838  6354.4009 6354401.0000    -999.25     9.7452     9.7452   113.5708     0.0000     0.0000    58.9017     1.9514     2.0199     2.5079  1434.0837     0.5620    -999.25     0.0254     0.0255     0.0255 20847.7715     2.3677     1.9514     3.8079    21.8171     1.0000     1.0000 -1362.4938    71.9057     0.0255     8.0000
  1434.1932  6343.4258 6340741.5000    -999.25     9.7511     9.7511   113.7304     0.0000     0.0000    57.2841     1.9639     2.0508     2.6002  1434.1932     0.5498    -999.25     0.0295     0.0269     0.0269 20802.9570     2.3669     1.9639     3.8570    21.6233     1.0000     1.0000 -1362.6031    70.3810     0.0269     8.0000
  1434.2362  6335.3721 6335372.5000    -999.25     9.7609     9.7609   113.7931     0.0000     0.0000    56.7148     1.9711     2.0564     2.6057  1434.2362     0.5484    -999.25     0.0292     0.0271     0.0271 20785.3418     2.3652     1.9711     3.8854    21.5530     1.0000     1.0000 -1362.6461    70.2086     0.0271     8.0000
  1434.3456  6281.0522 6281008.5000    -999.25     9.7856     9.7856   114.5672     0.0000     0.0000    55.2664     1.9894     2.0705     2.6195  1434.3456     0.5450    -999.25     0.0283     0.0275     0.0275 20606.9824     2.3609     1.9894     3.9577    21.3742     1.0000     1.0000 -1362.7556    69.7700     0.0275     8.0000
  1434.3886  6259.6401 6259640.5000    -999.25     9.7952     9.7952   114.8714     0.0000     0.0000    55.1156     1.9965     2.0704     2.5945  1434.3885     0.5446    -999.25     0.0275     0.0275     0.0275 20536.8770     2.3591     1.9965     3.9861    21.3121     1.0000     1.0000 -1362.7986    69.7102     0.0275     8.0000
  1434.4980  6206.6157 6209041.0000    -999.25     9.8195     9.8195   115.6279     0.0000     0.0000    54.7319     2.0145     2.0702     2.5309  1434.4980     0.5437    -999.25     0.0256     0.0277     0.0277 20370.8691     2.3545     2.0145     4.0584    21.1539     1.0000     1.0000 -1362.9080    69.5580     0.0277     8.0000
  1434.5410  6189.1528 6189153.0000    -999.25     9.8260     9.8260   115.9252     0.0000     0.0000    54.9461     2.0186     2.0669     2.5035  1434.5410     0.5419    -999.25     0.0260     0.0279     0.0279 20305.6191     2.3539     2.0186     4.0748    21.1108     1.0000     1.0000 -1362.9509    69.3255     0.0279     8.0000
  1434.6504  6162.9351 6165679.0000    -999.25     9.8424     9.8424   116.3445     0.0000     0.0000    55.4912     2.0289     2.0584     2.4338  1434.6504     0.5374    -999.25     0.0268     0.0284     0.0284 20228.6055     2.3524     2.0289     4.1166    21.0011     1.0000     1.0000 -1363.0604    68.7340     0.0284     8.0000
  1434.6935  6156.4312 6156431.0000    -999.25     9.8485     9.8485   116.5097     0.0000     0.0000    55.8193     2.0277     2.0529     2.4169  1434.6935     0.5347    -999.25     0.0283     0.0287     0.0287 20198.2656     2.3533     2.0277     4.1118    20.9781     1.0000     1.0000 -1363.1035    68.3963     0.0287     8.0000
  1434.8028  6156.8149 6158264.5000    -999.25     9.8641     9.8641   116.6097     0.0000     0.0000    56.6514     2.0247     2.0390     2.3740  1434.8027     0.5279    -999.25     0.0321     0.0295     0.0295 20204.2793     2.3555     2.0247     4.0995    20.9196     1.0000     1.0000 -1363.2128    67.5400     0.0295     8.0000
  1434.8458  6158.9858 6158986.0000    -999.25     9.8659     9.8659   116.6490     0.0000     0.0000    56.8621     2.0185     2.0313     2.3631  1434.8457     0.5258    -999.25     0.0340     0.0297     0.0297 20206.6465     2.3571     2.0185     4.0746    20.9139     1.0000     1.0000 -1363.2557    67.2897     0.0297     8.0000
  1434.9552  6168.7539 6168128.5000    -999.25     9.8704     9.8704   116.6686     0.0000     0.0000    57.3981     2.0028     2.0116     2.3354  1434.9552     0.5206    -999.25     0.0387     0.0303     0.0303 20236.6426     2.3612     2.0028     4.0112    20.8994     1.0000     1.0000 -1363.3652    66.6530     0.0303     8.0000
  1434.9983  6171.7300 6171730.0000    -999.25     9.8642     9.8642   116.6763     0.0000     0.0000    57.2765     1.9948     2.0012     2.3295  1434.9983     0.5202    -999.25     0.0397     0.0304     0.0304 20248.4590     2.3625     1.9948     3.9795    20.8707     1.0000     1.0000 -1363.4083    66.6114     0.0304     8.0000
  1435.1076  6171.0386 6169618.5000    -999.25     9.8484     9.8484   116.8516     0.0000     0.0000    56.9682     1.9746     1.9747     2.3143  1435.1075     0.5191    -999.25     0.0421     0.0304     0.0304 20241.5312     2.3658     1.9746     3.8992    20.7979     1.0000     1.0000 -1363.5176    66.5060     0.0304     8.0000
  1435.1506  6168.7876 6168788.0000    -999.25     9.8454     9.8454   116.9206     0.0000     0.0000    56.8225     1.9691     1.9634     2.3049  1435.1505     0.5200    -999.25     0.0419     0.0303     0.0303 20238.8047     2.3663     1.9691     3.8773    20.7246     1.0000     1.0000 -1363.5605    66.6206     0.0303     8.0000
