~Version ---------------------------------------------------
VERS. 2.0 : CWLS log ASCII Standard -VERSION 2.0
WRAP.  NO : 
~Well ------------------------------------------------------
STRT.m                                                1295.9144 : 
STOP.m                                                1639.8812 : 
STEP.m                                                   0.1524 : 
NULL.                                                   -999.25 : 
COMP.                                                           : COMPANY
WELL.                                                    Well-1 : WELL
FLD .                                                           : FIELD
LOC .                                                           : LOCATION
SRVC.                                                           : SERVICE COMPANY
DATE. 2021-01-20 14:33:59   : Log Export Date {yyyy-MM-dd HH:mm : ss}
PROV.                                                           : PROVINCE
UWI .                                                    Well-1 : UNIQUE WELL ID
API .                                                           : API NUMBER
~Curve Information -----------------------------------------
DEPTH             .m        : DEPTH
ACOUSTICIMPEDANCE1.kPa.s/m  : ACOUSTICIMPEDANCE1
AI                .kPa.s/m  : AI
AVG_PIGN          .m3/m3    : AVG_PIGN
CALI              .in       : CALI
CALI[DERIVED]1    .in       : CALI[DERIVED]1
DFL               .ohm.m    : DFL
DT                .us/ft    : DT
FACIES            ._        : FACIES
FLD1              ._        : FLD1
GR                .gAPI     : GR
HDRS              .ohm.m    : HDRS
HMRS              .ohm.m    : HMRS
DEPTH_1           .m        : DEPTH_1
NPHI              .m3/m3    : NPHI
ONE-WAYTIME1      .ms       : ONE-WAYTIME1
PERF_INT          ._        : PERF_INT
PERMEABILITY      .mD       : PERMEABILITY
PIGN              .m3/m3    : PIGN
PIGN_MODELLING    .m3/m3    : PIGN_MODELLING
PIMP              .kPa.s/m  : PIMP
RHOB              .g/cm3    : RHOB
RT_MODELLING      .ohm.m    : RT_MODELLING
RT_POWER          .ohm.m    : RT_POWER
SP                .mV       : SP
SUWI              ._        : SUWI
SUWI_MODELLING    ._        : SUWI_MODELLING
TDVSS             .m        : TDVSS
VCL               .%        : VCL
WATER_VOL         ._        : WATER_VOL
ZLT               ._        : ZLT
~Params ----------------------------------------------------
~Other -----------------------------------------------------
~ASCII -----------------------------------------------------
# ...
  1566.5768  2343.1819 2343181.7500    -999.25     8.9388     8.9388    59.8600   152.5209     3.0000    -999.25    14.3003    57.2714    51.3315  1566.5768     0.8988  -717.9797    -999.25     0.0002     0.0001     0.0100  7687.6045     1.1725    59.8600  3583.2183   265.9361     1.0000     1.0000 -1488.0868     0.0000     0.0001    19.0000
  1566.7292  2355.7148 2355714.7500    -999.25     8.9518     8.9518    60.9645   152.0859     3.0000    -999.25    13.1368    54.1627    48.2315  1566.7291     0.8857  -718.0532    -999.25     0.0002     0.0001     0.0100  7728.7227     1.1754    60.9645  3716.6750   265.6121     1.0000     1.0000 -1488.2391     0.0000     0.0001    19.0000
  1566.8816  2375.8352 2375835.0000    -999.25     8.9638     8.9638    60.2048   151.6909     3.0000    -999.25    12.1295    51.2469    45.8350  1566.8816     0.8704  -718.1268    -999.25     0.0002     0.0001     0.0100  7794.7349     1.1824    60.2048  3624.6194   265.5080     1.0000     1.0000 -1488.3916     0.0000     0.0001    19.0000
  1567.0340  2404.1340 2404134.0000    -999.25     8.9769     8.9769    58.2098   151.3950     3.0000    -999.25    11.6218    50.9008    46.3707  1567.0339     0.8730  -718.2003    -999.25     0.0002     0.0001     0.0100  7887.5791     1.1941    58.2098  3388.3809   265.2895     1.0000     1.0000 -1488.5439     0.0000     0.0001    19.0000
  1567.1864  2429.3911 2429391.2500    -999.25     8.9815     8.9815    56.6889   151.2614     3.0000    -999.25    11.7061    50.5195    46.4576  1567.1864     0.8996  -718.2738    -999.25     0.0002     0.0001     0.0100  7970.4434     1.2056    56.6889  3213.6335   264.9888     1.0000     1.0000 -1488.6964     0.0000     0.0001    19.0000
  1567.3388  2437.5544 2437554.5000    -999.25     8.9840     8.9840    56.2973   151.3325     3.0000    -999.25    12.1620    50.0847    47.2912  1567.3387     0.9453  -718.3474    -999.25     0.0002     0.0001     0.0100  7997.2261     1.2102    56.2973  3169.3816   264.9364     1.0000     1.0000 -1488.8488     0.0000     0.0001    19.0000
  1567.4912  2426.6304 2426630.5000    -999.25     8.9827     8.9827    55.4312   151.5302     3.0000    -999.25    12.4220    47.1063    45.0723  1567.4912     0.9888  -718.4209    -999.25     0.0002     0.0001     0.0100  7961.3857     1.2064    55.4312  3072.6204   264.6638     1.0000     1.0000 -1489.0012     0.0000     0.0001    19.0000
  1567.6436  2402.8213 2402821.2500    -999.25     8.9777     8.9777    53.9355   151.8671     3.0000    -999.25    12.5059    42.1965    41.6592  1567.6436     1.0006  -718.4944    -999.25     0.0002     0.0001     0.0100  7883.2720     1.1972    53.9355  2909.0403   264.5212     1.0000     1.0000 -1489.1536     0.0000     0.0001    19.0000
  1567.7960  2374.3967 2374396.7500    -999.25     8.9708     8.9708    52.4934   152.3270     3.0000    -999.25    12.6415    39.9122    40.4090  1567.7960     0.9749  -718.5679    -999.25     0.0002     0.0001     0.0100  7790.0156     1.1866    52.4934  2755.5540   264.4378     1.0000     1.0000 -1489.3060     0.0000     0.0001    19.0000
  1567.9484  2355.3721 2355372.0000    -999.25     8.9672     8.9672    51.6285   152.7085     3.0000    -999.25    12.7255    38.7166    38.0957  1567.9484     0.9199  -718.6415    -999.25     0.0002     0.0001     0.0100  7727.5981     1.1801    51.6285  2665.5029   264.0715     1.0000     1.0000 -1489.4584     0.0000     0.0001    19.0000
  1568.1008  2354.8723 2354872.2500    -999.25     8.9675     8.9675    51.4682   152.8457     3.0000    -999.25    12.7596    38.9764    37.6356  1568.1008     0.8607  -718.7150    -999.25     0.0002     0.0001     0.0100  7725.9590     1.1809    51.4682  2648.9746   263.9003     1.0000     1.0000 -1489.6108     0.0000     0.0001    19.0000
  1568.2532  2362.7283 2362728.2500    -999.25     8.9665     8.9665    52.7539   152.8381     3.0000    -999.25    12.6960    43.7907    41.7252  1568.2532     0.8130  -718.7885    -999.25     0.0002     0.0001     0.0100  7751.7334     1.1848    52.7539  2782.9783   263.5499     1.0000     1.0000 -1489.7632     0.0000     0.0001    19.0000
  1568.4056  2376.3931 2376393.0000    -999.25     8.9675     8.9675    53.9284   152.8211     3.0000    -999.25    12.3176    43.8858    42.3361  1568.4056     0.7840  -718.8621    -999.25     0.0002     0.0001     0.0100  7796.5649     1.1915    53.9284  2908.2681   263.0913     1.0000     1.0000 -1489.9155     0.0000     0.0001    19.0000
  1568.5580  2385.8882 2385888.2500    -999.25     8.9669     8.9669    51.5761   152.8249     3.0000    -999.25    11.7563    36.9261    37.4645  1568.5580     0.7718  -718.9356    -999.25     0.0002     0.0001     0.0100  7827.7168     1.1963    51.5761  2660.0908   262.9793     1.0000     1.0000 -1490.0680     0.0000     0.0001    19.0000
  1568.7104  2381.9851 2381985.2500    -999.25     8.9714     8.9714    47.7579   152.8680     3.0000    -999.25    11.5903    36.1931    37.3090  1568.7103     0.7690  -719.0091    -999.25     0.0002     0.0001     0.0100  7814.9121     1.1947    47.7579  2280.8201   262.7556     1.0000     1.0000 -1490.2203     0.0000     0.0001    19.0000
  1568.8628  2376.3843 2376384.2500    -999.25     8.9729     8.9729    46.6707   152.9320     3.0000    -999.25    12.0709    39.2401    40.2443  1568.8628     0.7689  -719.0826    -999.25     0.0002     0.0001     0.0100  7796.5361     1.1923    46.6707  2178.1504   262.7808     1.0000     1.0000 -1490.3728     0.0000     0.0001    19.0000
  1569.0152  2375.7422 2375742.2500    -999.25     8.9728     8.9728    47.6829   152.9785     3.0000    -999.25    12.8349    39.7048    40.0129  1569.0151     0.7756  -719.1562    -999.25     0.0002     0.0001     0.0100  7794.4297     1.1924    47.6829  2273.6589   262.9778     1.0000     1.0000 -1490.5251     0.0000     0.0001    19.0000
  1569.1676  2378.4114 2378411.5000    -999.25     8.9720     8.9720    48.6212   152.9939     3.0000    -999.25    13.5836    38.7944    38.2386  1569.1676     0.7986  -719.2297    -999.25     0.0002     0.0001     0.0100  7803.1875     1.1938    48.6212  2364.0200   262.9377     1.0000     1.0000 -1490.6776     0.0000     0.0001    19.0000
  1569.3200  2377.7810 2377781.0000    -999.25     8.9675     8.9675    47.6631   152.9537     3.0000    -999.25    14.2028    37.6843    36.0673  1569.3199     0.8421  -719.3032    -999.25     0.0002     0.0001     0.0100  7801.1187     1.1932    47.6631  2271.7673   263.0965     1.0000     1.0000 -1490.8300     0.0000     0.0001    19.0000
  1569.4724  2379.0535 2379053.2500    -999.25     8.9610     8.9610    46.1678   152.8399     3.0000    -999.25    14.4447    35.2538    33.1453  1569.4724     0.8918  -719.3768    -999.25     0.0002     0.0001     0.0100  7805.2930     1.1930    46.1678  2131.4619   263.0854     1.0000     1.0000 -1490.9824     0.0000     0.0001    19.0000
  1569.6248  2382.6931 2382693.0000    -999.25     8.9607     8.9607    45.3504   152.7382     3.0000    -999.25    14.2339    36.0114    34.6267  1569.6248     0.9403  -719.4503    -999.25     0.0002     0.0001     0.0100  7817.2344     1.1940    45.3504  2056.6587   263.0504     1.0000     1.0000 -1491.1348     0.0000     0.0001    19.0000
  1569.7772  2389.5369 2389537.0000    -999.25     8.9674     8.9674    46.9476   152.6540     3.0000    -999.25    13.8323    43.3855    42.9177  1569.7772     0.9695  -719.5239    -999.25     0.0002     0.0001     0.0100  7839.6880     1.1968    46.9476  2204.0725   263.3630     1.0000     1.0000 -1491.2872     0.0000     0.0001    19.0000
  1569.9296  2407.9404 2407940.5000    -999.25     8.9800     8.9800    48.9572   152.2354     3.0000    -999.25    13.5415    45.6763    48.5807  1569.9296     0.9539  -719.5974    -999.25     0.0002     0.0001     0.0100  7900.0669     1.2027    48.9572  2396.8103   263.5208     1.0000     1.0000 -1491.4396     0.0000     0.0001    19.0000
  1570.0820  2431.4717 2431471.7500    -999.25     8.9922     8.9922    46.3766   151.2447     3.0000    -999.25    13.5961    35.6889    39.1629  1570.0820     0.9100  -719.6709    -999.25     0.0002     0.0001     0.0100  7977.2690     1.2065    46.3766  2150.7871   263.9014     1.0000     1.0000 -1491.5920     0.0000     0.0001    19.0000
