~Version ---------------------------------------------------
VERS. 2.0 : CWLS log ASCII Standard -VERSION 2.0
WRAP.  NO : 
~Well ------------------------------------------------------
STRT.m                                                1295.9144 : 
STOP.m                                                1639.8812 : 
STEP.m                                                   0.1524 : 
NULL.                                                   -999.25 : 
COMP.                                                           : COMPANY
WELL.                                                    Well-1 : WELL
FLD .                                                           : FIELD
LOC .                                                           : LOCATION
SRVC.                                                           : SERVICE COMPANY
DATE. 2021-01-20 14:33:59   : Log Export Date {yyyy-MM-dd HH:mm : ss}
PROV.                                                           : PROVINCE
UWI .                                                    Well-1 : UNIQUE WELL ID
API .                                                           : API NUMBER
~Curve Information -----------------------------------------
DEPTH             .m        : DEPTH
ACOUSTICIMPEDANCE1.kPa.s/m  : ACOUSTICIMPEDANCE1
AI                .kPa.s/m  : AI
AVG_PIGN          .m3/m3    : AVG_PIGN
CALI              .in       : CALI
CALI[DERIVED]1    .in       : CALI[DERIVED]1
DFL               .ohm.m    : DFL
DT                .us/ft    : DT
FACIES            ._        : FACIES
FLD1              ._        : FLD1
GR                .gAPI     : GR
HDRS              .ohm.m    : HDRS
HMRS              .ohm.m    : HMRS
DEPTH_1           .m        : DEPTH_1
NPHI              .m3/m3    : NPHI
ONE-WAYTIME1      .ms       : ONE-WAYTIME1
PERF_INT          ._        : PERF_INT
PERMEABILITY      .mD       : PERMEABILITY
PIGN              .m3/m3    : PIGN
PIGN_MODELLING    .m3/m3    : PIGN_MODELLING
PIMP              .kPa.s/m  : PIMP
RHOB              .g/cm3    : RHOB
RT_MODELLING      .ohm.m    : RT_MODELLING
RT_POWER          .ohm.m    : RT_POWER
SP                .mV       : SP
SUWI              ._        : SUWI
SUWI_MODELLING    ._        : SUWI_MODELLING
TDVSS             .m        : TDVSS
VCL               .%        : VCL
WATER_VOL         ._        : WATER_VOL
ZLT               ._        : ZLT
~Params ----------------------------------------------------
~Other -----------------------------------------------------
~ASCII -----------------------------------------------------
# ...
  1592.1800  6421.2290 6421229.0000    -999.25     9.1113     9.1113     2.7493   117.4983     0.0000    -999.25    80.7000     2.1705     2.2774  1592.1799     0.5855  -730.3328    -999.25     0.0000     0.0230     0.0230 21067.0234     2.4753     2.7493     7.5587   292.7439     1.0000     1.0000 -1513.6899    74.7330     0.0230    20.0000
  1592.3324  6615.0527 6615053.0000    -999.25     9.0747     9.0747     2.7538   113.7833     0.0000    -999.25    80.8114     2.1131     2.2066  1592.3324     0.5814  -730.4064    -999.25     0.0001     0.0239     0.0239 21702.9297     2.4694     2.7538     7.5835   292.4035     1.0000     1.0000 -1513.8424    73.7220     0.0239    20.0000
  1592.4848  6563.9175 6563917.5000    -999.25     9.0511     9.0511     2.7204   114.6228     0.0000    -999.25    81.5464     2.0482     2.1323  1592.4847     0.5740  -730.4799    -999.25     0.0005     0.0240     0.0240 21535.1621     2.4684     2.7204     7.4004   292.0563     1.0000     1.0000 -1513.9948    73.6230     0.0240    20.0000
  1592.6372  6402.1377 6402138.0000    -999.25     9.0500     9.0500     2.7440   117.7083     0.0000    -999.25    83.1429     2.1166     2.2045  1592.6372     0.5735  -730.5535    -999.25     0.0005     0.0231     0.0231 21004.3887     2.4724     2.7440     7.5294   291.8237     1.0000     1.0000 -1514.1472    74.5930     0.0231    20.0000
  1592.7896  6184.1030 6184103.0000    -999.25     9.0172     9.0172     2.8784   121.4414     0.0000    -999.25    86.0311     2.2170     2.2940  1592.7896     0.5835  -730.6270    -999.25     0.0000     0.0219     0.0219 20289.0508     2.4639     2.8784     8.2849   291.3620     1.0000     1.0000 -1514.2996    75.9140     0.0219    20.0000
  1592.9420  5994.0991 5994099.0000    -999.25     8.9543     8.9543     2.9353   124.2312     0.0000    -999.25    90.0302     2.1777     2.2441  1592.9420     0.5986  -730.7005    -999.25     0.0001     0.0146     0.0146 19665.6797     2.4431     2.9353     8.6162   290.8608     1.0000     1.0000 -1514.4520    52.3100     0.0146    20.0000
  1593.0944  5847.4150 5847415.0000    -999.25     8.9056     8.9056     2.9102   125.3360     0.0000    -999.25    93.7007     2.1635     2.2361  1593.0944     0.6092  -730.7740    -999.25     0.0000     0.0021     0.0100 19184.4316     2.4045     2.9102     8.4691   290.1131     1.0000     1.0000 -1514.6044     7.4430     0.0021    20.0000
  1593.2468  5665.7080 5665708.0000    -999.25     8.8814     8.8814     3.0550   125.4656     0.0000    -999.25    95.8699     2.3261     2.4148  1593.2468     0.6140  -730.8476    -999.25     0.0000     0.0001     0.0100 18588.2812     2.3322     3.0550     9.3333   289.0229     1.0000     1.0000 -1514.7568     0.0000     0.0001    20.0000
  1593.3992  5412.8315 5412831.5000    -999.25     8.8673     8.8673     3.4472   126.6387     0.0000    -999.25    96.0117     2.6169     2.7050  1593.3992     0.6217  -730.9211    -999.25     0.0000     0.0001     0.0100 17758.6348     2.2489     3.4472    11.8833   287.9662     1.0000     1.0000 -1514.9092     0.0000     0.0001    20.0000
  1593.5516  4997.0693 4997069.5000    -999.25     8.8575     8.8575     3.9737   130.3339     0.0000    -999.25    93.4992     2.9506     3.0507  1593.5516     0.6429  -730.9946    -999.25     0.0000     0.0001     0.0100 16394.5840     2.1368     3.9737    15.7906   286.7596     1.0000     1.0000 -1515.0616     0.0000     0.0001    21.0000
  1593.7040  4444.7017 4444701.5000    -999.25     8.8497     8.8497     4.5080   136.0638     0.0000    -999.25    88.2607     3.3082     3.4191  1593.7040     0.6779  -731.0682    -999.25     0.0010     0.0001     0.0100 14582.3545     1.9841     4.5080    20.3223   285.7608     1.0000     1.0000 -1515.2140     0.0000     0.0001    21.0000
  1593.8564  3911.3691 3911369.0000    -999.25     8.8450     8.8450     4.9506   142.2575     0.0000    -999.25    80.3606     3.6929     3.7939  1593.8564     0.7217  -731.1417    -999.25     0.0020     0.0001     0.0100 12832.5762     1.8255     4.9506    24.5086   285.0424     1.0000     1.0000 -1515.3663     0.0000     0.0001    21.0000
  1594.0088  3426.3521 3426352.0000    -999.25     8.8451     8.8451     5.1230   147.5682     0.0000    -999.25    70.0410     4.0886     4.1980  1594.0088     0.7651  -731.2152    -999.25     0.0030     0.0001     0.0100 11241.3125     1.6589     5.1230    26.2447   284.2667     1.0000     1.0000 -1515.5188     0.0000     0.0001    21.0000
  1594.1612  3007.3933 3007393.2500    -999.25     8.8494     8.8494     5.3868   151.0423     0.0000    -999.25    58.4779     4.5526     4.6741  1594.1611     0.7989  -731.2888    -999.25     0.0040     0.0001     0.0100  9866.7764     1.4903     5.3868    29.0177   283.7387     1.0000     1.0000 -1515.6711     0.0000     0.0001    21.0000
  1594.3136  2723.5762 2723576.0000    -999.25     8.8569     8.8569     6.2108   152.6005     0.0000    -999.25    46.2450     5.4711     5.6147  1594.3136     0.8148  -731.3623    -999.25     0.0049     0.0001     0.0100  8935.6172     1.3636     6.2108    38.5743   283.1140     1.0000     1.0000 -1515.8236     0.0000     0.0001    21.0000
  1594.4660  2529.1138 2529113.7500    -999.25     8.8628     8.8628     8.5734   152.9993     0.0000    -999.25    34.8669     8.1093     8.3495  1594.4659     0.8182  -731.4358    -999.25     0.0059     0.0001     0.0100  8297.6172     1.2695     8.5734    73.5029   282.4453     1.0000     1.0000 -1515.9760     0.0000     0.0001    21.0000
  1594.6184  2407.7046 2407704.7500    -999.25     8.8645     8.8645    15.2264   152.9630     0.0000    -999.25    26.5069    14.1529    14.6090  1594.6184     0.8196  -731.5093    -999.25     0.0069     0.0001     0.0100  7899.2935     1.2083    15.2264   231.8442   281.9903     1.0000     1.0000 -1516.1284     0.0000     0.0001    21.0000
  1594.7708  2378.9688 2378968.7500    -999.25     8.8558     8.8558    33.2352   152.9388     0.0000    -999.25    20.9427    22.1455    22.9227  1594.7708     0.8198  -731.5829    -999.25     0.0079     0.0001     0.0100  7805.0156     1.1937    33.2352  1104.5818   281.4295     1.0000     1.0000 -1516.2808     0.0000     0.0001    21.0000
  1594.9232  2389.6138 2389614.0000    -999.25     8.8472     8.8472    64.8627   153.0573     0.0000    -999.25    17.6714    34.3849    35.8282  1594.9232     0.8141  -731.6564    -999.25     0.0089     0.0001     0.0100  7839.9404     1.2000    64.8627  4207.1660   281.1185     1.0000     1.0000 -1516.4332     0.0000     0.0001    21.0000
  1595.0756  2395.2056 2395205.7500    -999.25     8.8476     8.8476    86.3409   153.1644     0.0000    -999.25    16.1542    55.1437    58.9552  1595.0756     0.8007  -731.7299    -999.25     0.0099     0.0001     0.0100  7858.2861     1.2036    86.3409  7454.7529   280.7929     1.0000     1.0000 -1516.5856     0.0000     0.0001    21.0000
  1595.2280  2394.2380 2394238.0000    -999.25     8.8510     8.8510    87.7261   153.1029     0.0000    -999.25    15.4700    70.0470    78.9951  1595.2280     0.7845  -731.8035    -999.25     0.0109     0.0001     0.0100  7855.1118     1.2026    87.7261  7695.8682   280.3324     1.0000     1.0000 -1516.7380     0.0000     0.0001    21.0000
  1595.3804  2393.4373 2393437.2500    -999.25     8.8575     8.8575    90.8546   153.0280     0.0000    -999.25    14.8917    77.6572    93.4773  1595.3804     0.7782  -731.8770    -999.25     0.0119     0.0001     0.0100  7852.4849     1.2017    90.8546  8254.5625   280.1291     1.0000     1.0000 -1516.8904     0.0000     0.0001    21.0000
  1595.5328  2385.3337 2385333.7500    -999.25     8.8632     8.8632    93.2729   153.1121     0.0000    -999.25    14.5866    74.3455    93.6005  1595.5328     0.7849  -731.9505    -999.25     0.0129     0.0001     0.0100  7825.8984     1.1982    93.2729  8699.8291   279.8228     1.0000     1.0000 -1517.0427     0.0000     0.0001    21.0000
  1595.6852  2370.8486 2370848.7500    -999.25     8.8675     8.8675    89.1133   153.4022     0.0000    -999.25    14.5115    64.9770    78.7143  1595.6852     0.7924  -732.0240    -999.25     0.0138     0.0001     0.0100  7778.3750     1.1932    89.1133  7941.1782   279.6748     1.0000     1.0000 -1517.1952     0.0000     0.0001    21.0000
