~Version ---------------------------------------------------
VERS. 2.0 : CWLS log ASCII Standard -VERSION 2.0
WRAP.  NO : 
~Well ------------------------------------------------------
STRT.m                                                   1260.0 : 
STOP.m                                                1587.9648 : 
STEP.m                                                   0.1524 : 
NULL.                                                   -999.25 : 
COMP.                                                           : COMPANY
WELL.                                                    Well-5 : WELL
FLD .                                                           : FIELD
LOC .                                                           : LOCATION
SRVC.                                                           : SERVICE COMPANY
DATE. 2021-01-20 14:34:00   : Log Export Date {yyyy-MM-dd HH:mm : ss}
PROV.                                                           : PROVINCE
UWI .                                                    Well-5 : UNIQUE WELL ID
API .                                                           : API NUMBER
~Curve Information -----------------------------------------
DEPTH             .m        : DEPTH
ACOUSTICIMPEDANCE1.kPa.s/m  : ACOUSTICIMPEDANCE1
AI                .kPa.s/m  : AI
AVG_PIGN          .m3/m3    : AVG_PIGN
CALI              .in       : CALI
CALI[DERIVED]1    .in       : CALI[DERIVED]1
DT                .us/ft    : DT
FACIES            ._        : FACIES
FLD1              ._        : FLD1
GR                .gAPI     : GR
LLD               .ohm.m    : LLD
LLS               .ohm.m    : LLS
LL3               .ohm.m    : LL3
DEPTH_1           .m        : DEPTH_1
NPHI              .m3/m3    : NPHI
PERF_INT          ._        : PERF_INT
PERMEABILITY      .mD       : PERMEABILITY
PIGN              .m3/m3    : PIGN
PIGN_MODELLING    .m3/m3    : PIGN_MODELLING
PIMP              .kPa.s/m  : PIMP
RHOB              .g/cm3    : RHOB
RT_MODELLING      .ohm.m    : RT_MODELLING
RT_POWER          .ohm.m    : RT_POWER
SP                .mV       : SP
SUWI              ._        : SUWI
SUWI_MODELLING    ._        : SUWI_MODELLING
TDVSS             .m        : TDVSS
VCL               .%        : VCL
WATER_VOL         ._        : WATER_VOL
ZLT               ._        : ZLT
~Params ----------------------------------------------------
~Other -----------------------------------------------------
~ASCII -----------------------------------------------------
# ...
  1498.0918  7334.8857 7334886.0000    -999.25     9.7805     9.7805   103.3665     0.0000    -999.25    85.0197     2.6036     2.6917     3.9580  1498.0918     0.5865    -999.25     2.8159     0.0768     0.0768 24064.5859     2.4875     2.6036     6.7801    26.4312     0.9107     0.9107 -1426.5017    58.2728     0.0697    18.0000
  1498.2012  6895.9014 6897448.0000     0.0957     9.7852     9.7852   108.7324     4.0000    -999.25    79.8621     2.6617     2.7249     3.9810  1498.2012     0.5729    -999.25     4.3373     0.0957     0.0957 22629.4238     2.4600     2.6617     7.0845    26.1675     0.8867     0.8867 -1426.6112    52.0010     0.0849    18.0000
  1498.2442  6725.5122 6725512.0000     0.1027     9.7841     9.7841   110.8415     4.0000    -999.25    78.7886     2.6821     2.7237     3.9558  1498.2441     0.5651    -999.25     4.7897     0.1027     0.1027 22065.3281     2.4458     2.6821     7.1948    26.0803     0.8812     0.8812 -1426.6542    50.3450     0.0904    18.0000
  1498.3536  6326.4370 6337885.0000     0.1204     9.7813     9.7813   116.0872     4.0000    -999.25    76.0572     2.7341     2.7206     3.8919  1498.3536     0.5454    -999.25     5.9404     0.1204     0.1204 20793.5859     2.4095     2.7341     7.4753    25.8583     0.8673     0.8673 -1426.7635    46.1320     0.1044    18.0000
  1498.3966  6185.5269 6185527.0000     0.1297     9.7811     9.7811   118.1491     4.0000    -999.25    76.0955     2.7494     2.7165     3.7506  1498.3966     0.5391    -999.25     6.8791     0.1297     0.1297 20293.7227     2.3977     2.7494     7.5597    25.7990     0.8628     0.8628 -1426.8065    44.0396     0.1118    18.0000
  1498.5060  5954.5498 5967047.0000     0.1532     9.7808     9.7808   121.1921     4.0000    -999.25    76.1930     2.7882     2.7061     3.3912  1498.5060     0.5234    -999.25     9.2675     0.1532     0.1532 19576.9238     2.3676     2.7882     7.7743    25.6480     0.8513     0.8513 -1426.9160    38.7160     0.1304    18.0000
  1498.5490  5881.1724 5881172.5000     0.1591     9.7710     9.7710   122.3882     4.0000    -999.25    76.8045     2.7966     2.7044     3.3141  1498.5490     0.5202    -999.25    10.1493     0.1591     0.1591 19295.1836     2.3615     2.7966     7.8214    25.6332     0.8510     0.8510 -1426.9590    37.2595     0.1354    18.0000
  1498.6584  5819.6548 5831825.0000     0.1742     9.7458     9.7458   122.8694     4.0000    -999.25    78.3601     2.8180     2.7002     3.1179  1498.6584     0.5122    -999.25    12.3930     0.1742     0.1742 19133.2832     2.3460     2.8180     7.9412    25.5958     0.8504     0.8504 -1427.0684    33.5540     0.1482    18.0000
  1498.7014  5812.4287 5812428.5000     0.1744     9.7257     9.7257   123.0586     4.0000    -999.25    78.7933     2.8203     2.7016     3.1157  1498.7014     0.5112    -999.25    12.5151     0.1744     0.1744 19069.6465     2.3467     2.8203     7.9541    25.6187     0.8542     0.8542 -1427.1113    33.2484     0.1490    18.0000
  1498.8108  5866.0278 5877724.0000     0.1748     9.6747     9.6747   122.0259     4.0000    -999.25    79.8954     2.8261     2.7052     3.1099  1498.8108     0.5085    -999.25    12.8257     0.1748     0.1748 19283.8711     2.3484     2.8261     7.9870    25.6770     0.8637     0.8637 -1427.2208    32.4710     0.1510    18.0000
  1498.8539  5903.4482 5903448.0000     0.1701     9.6602     9.6602   121.6191     4.0000    -999.25    80.1666     2.8238     2.7115     3.1316  1498.8539     0.5078    -999.25    12.1403     0.1701     0.1701 19368.2676     2.3556     2.8238     7.9739    25.7318     0.8733     0.8733 -1427.2639    33.0047     0.1484    18.0000
  1498.9632  5926.9849 5936130.5000     0.1580     9.6235     9.6235   122.0622     4.0000    -999.25    80.8546     2.8180     2.7272     3.1866  1498.9631     0.5060    -999.25    10.4021     0.1580     0.1580 19475.4941     2.3736     2.8180     7.9410    25.8709     0.8974     0.8974 -1427.3732    34.3580     0.1418    18.0000
  1499.0062  5948.9878 5948988.0000     0.1525     9.6179     9.6179   122.2366     4.0000    -999.25    81.0478     2.8121     2.7393     3.2528  1499.0061     0.5062    -999.25     9.7952     0.1525     0.1525 19517.6777     2.3858     2.8121     7.9077    25.9576     0.9059     0.9059 -1427.4161    35.2488     0.1380    18.0000
  1499.1156  5877.3096 5880235.0000     0.1384     9.6035     9.6035   125.3390     4.0000    -999.25    81.5396     2.7970     2.7699     3.4212  1499.1156     0.5066    -999.25     8.2512     0.1384     0.1384 19292.1094     2.4169     2.7970     7.8232    26.1780     0.9276     0.9276 -1427.5256    37.5150     0.1284    18.0000
  1499.1587  5853.1484 5853148.5000     0.1343     9.6003     9.6003   126.5612     4.0000    -999.25    81.2033     2.7879     2.7826     3.4715  1499.1587     0.5094    -999.25     7.9235     0.1343     0.1343 19203.2422     2.4304     2.7879     7.7728    26.2939     0.9254     0.9254 -1427.5687    38.8250     0.1243    18.0000
  1499.2680  5778.0400 5771874.0000     0.1238     9.5921     9.5921   130.0170     4.0000    -999.25    80.3506     2.7650     2.8149     3.5991  1499.2679     0.5165    -999.25     7.0926     0.1238     0.1238 18936.5938     2.4647     2.7650     7.6451    26.5878     0.9200     0.9200 -1427.6780    42.1470     0.1139    18.0000
  1499.3110  5739.8994 5739899.5000     0.1191     9.5894     9.5894   131.3766     4.0000    -999.25    79.6130     2.7527     2.8165     3.6192  1499.3109     0.5237    -999.25     6.6458     0.1191     0.1191 18831.6914     2.4740     2.7527     7.5778    26.7221     0.9107     0.9107 -1427.7209    44.0972     0.1086    18.0000
  1499.4204  5723.8379 5712075.5000     0.1072     9.5824     9.5824   133.0098     4.0000    -999.25    77.7365     2.7215     2.8207     3.6703  1499.4204     0.5418    -999.25     5.5091     0.1072     0.1072 18740.4043     2.4978     2.7215     7.4066    27.0639     0.8870     0.8870 -1427.8304    49.0590     0.0951    18.0000
  1499.4635  5701.1133 5701113.5000     0.1031     9.5807     9.5807   133.6532     4.0000    -999.25    77.1274     2.7077     2.8030     3.6693  1499.4635     0.5507    -999.25     5.1106     0.1031     0.1031 18704.4395     2.4999     2.7077     7.3320    27.2077     0.8784     0.8784 -1427.8735    50.8695     0.0907    18.0000
  1499.5728  5691.1597 5682590.5000     0.0929     9.5765     9.5765   134.1747     4.0000    -999.25    75.5828     2.6726     2.7582     3.6668  1499.5728     0.5733    -999.25     4.1003     0.0929     0.0929 18643.6699     2.5053     2.6726     7.1430    27.5723     0.8567     0.8567 -1427.9828    55.4610     0.0796    18.0000
  1499.6158  5675.3032 5675303.5000     0.0928     9.5754     9.5754   134.3798     4.0000    -999.25    75.7905     2.6602     2.7249     3.6334  1499.6157     0.5778    -999.25     4.1496     0.0928     0.0928 18619.7617     2.5021     2.6602     7.0769    27.7049     0.8550     0.8550 -1428.0258    55.7736     0.0794    18.0000
  1499.7252  5720.3296 5720262.0000     0.0927     9.5726     9.5726   132.8937     4.0000    -999.25    76.3192     2.6285     2.6404     3.5485  1499.7252     0.5893    -999.25     4.2750     0.0927     0.0927 18767.2637     2.4941     2.6285     6.9088    28.0422     0.8507     0.8507 -1428.1351    56.5690     0.0788    18.0000
  1499.7683  5737.9746 5737974.5000     0.0976     9.5736     9.5736   132.3082     4.0000    -999.25    77.8307     2.6177     2.6046     3.4438  1499.7683     0.5866    -999.25     5.1093     0.0976     0.0976 18825.3750     2.4908     2.6177     6.8527    28.1565     0.8571     0.8571 -1428.1782    55.1193     0.0838    18.0000
  1499.8776  5799.9912 5807972.0000     0.1102     9.5760     9.5760   130.4499     4.0000    -999.25    81.6638     2.5905     2.5140     3.1783  1499.8776     0.5800    -999.25     7.2251     0.1102     0.1102 19055.0254     2.4823     2.5905     6.7106    28.4464     0.8734     0.8734 -1428.2876    51.4430     0.0963    18.0000
  1499.9206  5835.5098 5835510.0000    -999.25     9.5811     9.5811   129.7188     4.0000    -999.25    83.8386     2.5781     2.4888     3.0810  1499.9205     0.5735    -999.25     5.3019     0.0910     0.0910 19145.3730     2.4835     2.5781     6.6469    28.5287     0.8997     0.8997 -1428.3306    55.6809     0.0806    18.0000
