~Version ---------------------------------------------------
VERS. 2.0 : CWLS log ASCII Standard -VERSION 2.0
WRAP.  NO : 
~Well ------------------------------------------------------
STRT.m                                                   1260.0 : 
STOP.m                                                1587.9648 : 
STEP.m                                                   0.1524 : 
NULL.                                                   -999.25 : 
COMP.                                                           : COMPANY
WELL.                                                    Well-5 : WELL
FLD .                                                           : FIELD
LOC .                                                           : LOCATION
SRVC.                                                           : SERVICE COMPANY
DATE. 2021-01-20 14:34:00   : Log Export Date {yyyy-MM-dd HH:mm : ss}
PROV.                                                           : PROVINCE
UWI .                                                    Well-5 : UNIQUE WELL ID
API .                                                           : API NUMBER
~Curve Information -----------------------------------------
DEPTH             .m        : DEPTH
ACOUSTICIMPEDANCE1.kPa.s/m  : ACOUSTICIMPEDANCE1
AI                .kPa.s/m  : AI
AVG_PIGN          .m3/m3    : AVG_PIGN
CALI              .in       : CALI
CALI[DERIVED]1    .in       : CALI[DERIVED]1
DT                .us/ft    : DT
FACIES            ._        : FACIES
FLD1              ._        : FLD1
GR                .gAPI     : GR
LLD               .ohm.m    : LLD
LLS               .ohm.m    : LLS
LL3               .ohm.m    : LL3
DEPTH_1           .m        : DEPTH_1
NPHI              .m3/m3    : NPHI
PERF_INT          ._        : PERF_INT
PERMEABILITY      .mD       : PERMEABILITY
PIGN              .m3/m3    : PIGN
PIGN_MODELLING    .m3/m3    : PIGN_MODELLING
PIMP              .kPa.s/m  : PIMP
RHOB              .g/cm3    : RHOB
RT_MODELLING      .ohm.m    : RT_MODELLING
RT_POWER          .ohm.m    : RT_POWER
SP                .mV       : SP
SUWI              ._        : SUWI
SUWI_MODELLING    ._        : SUWI_MODELLING
TDVSS             .m        : TDVSS
VCL               .%        : VCL
WATER_VOL         ._        : WATER_VOL
ZLT               ._        : ZLT
~Params ----------------------------------------------------
~Other -----------------------------------------------------
~ASCII -----------------------------------------------------
# ...
  1324.7700  4826.7661 4814753.0000    -999.25    10.5468    10.5468   135.6246     0.0000    -999.25    57.9165     1.1553     1.1106     1.3508  1324.7700     0.5386    -999.25    -999.25     0.0001     0.0100 15796.4336     2.1477     1.1553     1.3348    22.4220     1.0000     1.0000 -1253.1799     0.0000     0.0001     0.0000
  1324.8131  4907.9409 4907941.0000    -999.25    10.5661    10.5661   134.2276     0.0000    -999.25    59.8707     1.1267     1.0987     1.3561  1324.8131     0.5377    -999.25    -999.25     0.0004     0.0100 16102.1689     2.1614     1.1267     1.2716    22.5169     1.0000     1.0000 -1253.2230     0.7568     0.0004     0.0000
  1324.9224  5033.1357 5025801.0000    -999.25    10.6152    10.6152   132.9814     0.0000    -999.25    64.8266     1.0541     1.0686     1.3695  1324.9224     0.5354    -999.25    -999.25     0.0011     0.0100 16488.8477     2.1959     1.0541     1.1112    22.7577     1.0000     1.0000 -1253.3324     2.6760     0.0011     0.0000
  1324.9654  5072.1685 5072168.5000    -999.25    10.6155    10.6155   132.4911     0.0000    -999.25    65.5584     1.0345     1.0588     1.3811  1324.9653     0.5368    -999.25    -999.25     0.0063     0.0127 16640.9727     2.2048     1.0345     1.0712    22.7932     1.0000     1.0000 -1253.3754    16.5483     0.0063     0.0000
  1325.0748  5061.0347 5055610.5000    -999.25    10.6165    10.6165   134.1418     0.0000    -999.25    67.4203     0.9846     1.0337     1.4107  1325.0748     0.5402    -999.25    -999.25     0.0194     0.0194 16586.6484     2.2273     0.9846     0.9695    22.8835     1.0000     1.0000 -1253.4847    51.8420     0.0194     0.0000
  1325.1178  5049.1021 5049102.0000    -999.25    10.6146    10.6146   134.7906     0.0000    -999.25    67.0938     0.9725     1.0227     1.4098  1325.1178     0.5425    -999.25    -999.25     0.0212     0.0212 16565.2969     2.2328     0.9725     0.9460    22.8880     1.0000     1.0000 -1253.5277    57.4501     0.0212     0.0000
  1325.2272  4969.4722 4963116.5000    -999.25    10.6096    10.6096   137.8082     0.0000    -999.25    66.2632     0.9415     0.9947     1.4075  1325.2272     0.5482    -999.25    -999.25     0.0257     0.0257 16283.1914     2.2468     0.9415     0.8864    22.8992     1.0000     1.0000 -1253.6372    71.7180     0.0257     0.0000
  1325.2702  4929.3198 4929319.5000    -999.25    10.6059    10.6059   138.9942     0.0000    -999.25    65.4305     0.9347     0.9827     1.3932  1325.2701     0.5520    -999.25    -999.25     0.0253     0.0253 16172.3086     2.2479     0.9347     0.8737    22.8676     1.0000     1.0000 -1253.6802    72.2075     0.0253     0.0000
  1325.3796  4849.2568 4844390.5000    -999.25    10.5964    10.5964   141.4533     0.0000    -999.25    63.3122     0.9173     0.9523     1.3569  1325.3796     0.5615    -999.25    -999.25     0.0241     0.0241 15893.6699     2.2505     0.9173     0.8414    22.7872     1.0000     1.0000 -1253.7896    73.4530     0.0241     0.0000
  1325.4226  4811.0093 4811009.0000    -999.25    10.5994    10.5994   142.4198     0.0000    -999.25    62.5885     0.9137     0.9419     1.3381  1325.4226     0.5654    -999.25    -999.25     0.0237     0.0237 15784.1504     2.2480     0.9137     0.8348    22.7589     1.0000     1.0000 -1253.8325    73.9420     0.0237     0.0000
  1325.5320  4765.7969 4765690.0000    -999.25    10.6071    10.6071   143.3651     0.0000    -999.25    60.7473     0.9045     0.9156     1.2902  1325.5320     0.5753    -999.25    -999.25     0.0226     0.0226 15635.4668     2.2416     0.9045     0.8181    22.6869     1.0000     1.0000 -1253.9420    75.1860     0.0226     0.0000
  1325.5750  4747.8779 4747877.5000    -999.25    10.6033    10.6033   143.7366     0.0000    -999.25    60.5095     0.9019     0.9092     1.2739  1325.5750     0.5771    -999.25    -999.25     0.0224     0.0224 15577.0264     2.2390     0.9019     0.8135    22.6624     1.0000     1.0000 -1253.9850    75.4035     0.0224     0.0000
  1325.6844  4690.8916 4694669.0000    -999.25    10.5937    10.5937   145.0462     0.0000    -999.25    59.9045     0.8954     0.8928     1.2325  1325.6843     0.5816    -999.25    -999.25     0.0219     0.0219 15402.4570     2.2323     0.8954     0.8018    22.6000     1.0000     1.0000 -1254.0944    75.9570     0.0219     0.0000
  1325.7274  4673.7549 4673755.0000    -999.25    10.5965    10.5965   145.5609     0.0000    -999.25    60.2932     0.8924     0.8905     1.2171  1325.7273     0.5808    -999.25    -999.25     0.0219     0.0219 15333.8418     2.2320     0.8924     0.7964    22.5874     1.0000     1.0000 -1254.1373    75.8678     0.0219     0.0000
  1325.8368  4587.1865 4590590.5000    -999.25    10.6036    10.6036   148.2635     0.0000    -999.25    61.2822     0.8847     0.8847     1.1780  1325.8368     0.5786    -999.25    -999.25     0.0221     0.0221 15060.9922     2.2313     0.8847     0.7826    22.5555     1.0000     1.0000 -1254.2468    75.6410     0.0221     0.0000
  1325.8799  4557.8267 4557826.5000    -999.25    10.6049    10.6049   149.3283     0.0000    -999.25    61.7708     0.8812     0.8847     1.1742  1325.8799     0.5790    -999.25    -999.25     0.0221     0.0221 14953.4990     2.2330     0.8812     0.7765    22.5516     1.0000     1.0000 -1254.2899    75.7094     0.0221     0.0000
  1325.9892  4458.2515 4458535.0000    -999.25    10.6081    10.6081   152.9479     0.0000    -999.25    63.0099     0.8723     0.8849     1.1644  1325.9891     0.5798    -999.25    -999.25     0.0219     0.0219 14627.7393     2.2371     0.8723     0.7609    22.5418     1.0000     1.0000 -1254.3992    75.8830     0.0219     0.0000
  1326.0322  4419.4727 4419472.5000    -999.25    10.6106    10.6106   154.3719     0.0000    -999.25    63.2273     0.8697     0.8855     1.1693  1326.0321     0.5832    -999.25    -999.25     0.0215     0.0215 14499.5811     2.2383     0.8697     0.7563    22.5469     1.0000     1.0000 -1254.4421    76.3274     0.0215     0.0000
  1326.1416  4434.0405 4430252.0000    -999.25    10.6170    10.6170   154.0725     0.0000    -999.25    63.7804     0.8630     0.8873     1.1818  1326.1416     0.5918    -999.25    -999.25     0.0205     0.0205 14534.9473     2.2414     0.8630     0.7447    22.5600     1.0000     1.0000 -1254.5516    77.4580     0.0205     0.0000
  1326.1847  4434.4985 4434498.5000    -999.25    10.6202    10.6202   153.9545     0.0000    -999.25    63.6288     0.8625     0.8884     1.1849  1326.1847     0.5961    -999.25    -999.25     0.0200     0.0200 14548.8799     2.2399     0.8625     0.7439    22.5740     1.0000     1.0000 -1254.5947    77.9885     0.0200     0.0000
  1326.2940  4539.9790 4537107.5000    -999.25    10.6284    10.6284   150.1248     0.0000    -999.25    63.2442     0.8613     0.8914     1.1927  1326.2939     0.6071    -999.25    -999.25     0.0188     0.0188 14885.5234     2.2361     0.8613     0.7418    22.6094     1.0000     1.0000 -1254.7040    79.3340     0.0188     0.0000
  1326.3370  4577.4751 4577475.0000    -999.25    10.6414    10.6414   148.6181     0.0000    -999.25    62.9675     0.8632     0.8939     1.1931  1326.3369     0.6078    -999.25    -999.25     0.0187     0.0187 15017.9629     2.2319     0.8632     0.7451    22.6257     1.0000     1.0000 -1254.7469    79.4051     0.0187     0.0000
  1326.4464  4732.4937 4733942.0000    -999.25    10.6747    10.6747   143.0685     0.0000    -999.25    62.2635     0.8681     0.9002     1.1943  1326.4464     0.6097    -999.25    -999.25     0.0186     0.0186 15531.3057     2.2214     0.8681     0.7536    22.6670     1.0000     1.0000 -1254.8564    79.5860     0.0186     0.0000
  1326.4895  4795.5850 4795585.0000    -999.25    10.6857    10.6857   140.8821     0.0000    -999.25    62.1594     0.8714     0.9039     1.1965  1326.4895     0.6069    -999.25    -999.25     0.0189     0.0189 15733.5459     2.2166     0.8714     0.7594    22.6466     1.0000     1.0000 -1254.8995    79.2257     0.0189     0.0000
  1326.5988  4858.9844 4861934.5000    -999.25    10.7137    10.7137   138.2827     0.0000    -999.25    61.8954     0.8798     0.9133     1.2020  1326.5988     0.5998    -999.25    -999.25     0.0197     0.0197 15951.2295     2.2044     0.8798     0.7741    22.5950     1.0000     1.0000 -1255.0088    78.3120     0.0197     0.0000
