~Version ---------------------------------------------------
VERS. 2.0 : CWLS log ASCII Standard -VERSION 2.0
WRAP.  NO : 
~Well ------------------------------------------------------
STRT.m                                                   1260.0 : 
STOP.m                                                1587.9648 : 
STEP.m                                                   0.1524 : 
NULL.                                                   -999.25 : 
COMP.                                                           : COMPANY
WELL.                                                    Well-5 : WELL
FLD .                                                           : FIELD
LOC .                                                           : LOCATION
SRVC.                                                           : SERVICE COMPANY
DATE. 2021-01-20 14:34:00   : Log Export Date {yyyy-MM-dd HH:mm : ss}
PROV.                                                           : PROVINCE
UWI .                                                    Well-5 : UNIQUE WELL ID
API .                                                           : API NUMBER
~Curve Information -----------------------------------------
DEPTH             .m        : DEPTH
ACOUSTICIMPEDANCE1.kPa.s/m  : ACOUSTICIMPEDANCE1
AI                .kPa.s/m  : AI
AVG_PIGN          .m3/m3    : AVG_PIGN
CALI              .in       : CALI
CALI[DERIVED]1    .in       : CALI[DERIVED]1
DT                .us/ft    : DT
FACIES            ._        : FACIES
FLD1              ._        : FLD1
GR                .gAPI     : GR
LLD               .ohm.m    : LLD
LLS               .ohm.m    : LLS
LL3               .ohm.m    : LL3
DEPTH_1           .m        : DEPTH_1
NPHI              .m3/m3    : NPHI
PERF_INT          ._        : PERF_INT
PERMEABILITY      .mD       : PERMEABILITY
PIGN              .m3/m3    : PIGN
PIGN_MODELLING    .m3/m3    : PIGN_MODELLING
PIMP              .kPa.s/m  : PIMP
RHOB              .g/cm3    : RHOB
RT_MODELLING      .ohm.m    : RT_MODELLING
RT_POWER          .ohm.m    : RT_POWER
SP                .mV       : SP
SUWI              ._        : SUWI
SUWI_MODELLING    ._        : SUWI_MODELLING
TDVSS             .m        : TDVSS
VCL               .%        : VCL
WATER_VOL         ._        : WATER_VOL
ZLT               ._        : ZLT
~Params ----------------------------------------------------
~Other -----------------------------------------------------
~ASCII -----------------------------------------------------
  1260.0000  4159.4756    -999.25    -999.25    10.7047    10.7047   154.7553    -999.25    -999.25    53.9894     1.1022     1.0741     1.2620  1260.0000     0.5974    -999.25    -999.25    -999.25    -999.25    -999.25     2.1119     1.1022     1.2148    13.8125    -999.25    -999.25 -1188.4100    -999.25    -999.25    -999.25
  1260.0430  4172.7578 4172757.7500    -999.25    10.7035    10.7035   154.4717    -999.25    -999.25    53.5188     1.0897     1.0646     1.2615  1260.0430     0.5965    -999.25    -999.25    -999.25    -999.25 13690.1494     2.1147     1.0897     1.1878    14.0199    -999.25    -999.25 -1188.4530    -999.25    -999.25    -999.25
  1260.1524  4228.2900 4232014.5000    -999.25    10.7005    10.7005   152.9677     0.0000    -999.25    52.3218     1.0579     1.0404     1.2601  1260.1523     0.5943    -999.25    -999.25     0.0126     0.0126 13884.5615     2.1220     1.0579     1.1191    14.5474     1.0000     1.0000 -1188.5624    86.1540     0.0126    -999.25
  1260.1954  4255.3057 4255305.5000    -999.25    10.7044    10.7044   152.3765     0.0000    -999.25    51.9737     1.0527     1.0360     1.2597  1260.1953     0.5921    -999.25    -999.25     0.0130     0.0130 13960.9756     2.1273     1.0527     1.1083    14.6703     1.0000     1.0000 -1188.6053    85.6978     0.0130    -999.25
  1260.3048  4351.8965 4357527.0000    -999.25    10.7143    10.7143   149.9397     0.0000    -999.25    51.0883     1.0396     1.0250     1.2586  1260.3048     0.5864    -999.25    -999.25     0.0141     0.0141 14296.3486     2.1408     1.0396     1.0808    14.9830     1.0000     1.0000 -1188.7148    84.5370     0.0141    -999.25
  1260.3478  4397.7056 4397705.5000    -999.25    10.7015    10.7015   148.9819     0.0000    -999.25    51.0511     1.0403     1.0268     1.2570  1260.3478     0.5854    -999.25    -999.25     0.0144     0.0144 14428.1680     2.1495     1.0403     1.0821    15.0282     1.0000     1.0000 -1188.7578    84.1335     0.0144    -999.25
  1260.4572  4554.3652 4561405.5000    -999.25    10.6687    10.6687   145.3413     0.0000    -999.25    50.9565     1.0419     1.0316     1.2530  1260.4572     0.5828    -999.25    -999.25     0.0154     0.0154 14965.2412     2.1717     1.0419     1.0855    15.1431     1.0000     1.0000 -1188.8672    83.1070     0.0154    -999.25
  1260.5002  4625.7485 4625748.5000    -999.25    10.6228    10.6228   143.9103     0.0000    -999.25    50.9391     1.0456     1.0402     1.2634  1260.5001     0.5856    -999.25    -999.25     0.0154     0.0154 15176.3398     2.1840     1.0456     1.0933    15.1482     1.0000     1.0000 -1188.9102    83.0596     0.0154    -999.25
  1260.6096  4821.8130 4825441.0000    -999.25    10.5058    10.5058   140.0402     0.0000    -999.25    50.8949     1.0550     1.0618     1.2897  1260.6096     0.5926    -999.25    -999.25     0.0155     0.0155 15831.4990     2.2154     1.0550     1.1130    15.1611     1.0000     1.0000 -1189.0195    82.9390     0.0155    -999.25
  1260.6526  4903.9312 4903931.0000    -999.25    10.4517    10.4517   138.5191     0.0000    -999.25    50.7039     1.0586     1.0748     1.3191  1260.6526     0.5983    -999.25    -999.25     0.0152     0.0152 16089.0117     2.2286     1.0586     1.1207    15.1477     1.0000     1.0000 -1189.0625    83.2508     0.0152    -999.25
  1260.7620  5071.6216 5064328.5000    -999.25    10.3141    10.3141   135.9659     0.0000    -999.25    50.2182     1.0679     1.1077     1.3938  1260.7620     0.6127    -999.25    -999.25     0.0145     0.0145 16615.2500     2.2624     1.0679     1.1404    15.1136     1.0000     1.0000 -1189.1720    84.0440     0.0145    -999.25
  1260.8050  5127.3730 5127373.0000    -999.25    10.2869    10.2869   134.9623     0.0000    -999.25    49.7294     1.0696     1.1194     1.4325  1260.8049     0.6219    -999.25    -999.25     0.0137     0.0137 16822.0898     2.2703     1.0696     1.1441    15.0967     1.0000     1.0000 -1189.2150    84.9226     0.0137    -999.25
  1260.9144  5183.1685 5166593.5000    -999.25    10.2177    10.2177   134.7045     0.0000    -999.25    48.4859     1.0740     1.1491     1.5309  1260.9144     0.6453    -999.25    -999.25     0.0117     0.0117 16950.7676     2.2907     1.0740     1.1535    15.0537     1.0000     1.0000 -1189.3243    87.1580     0.0117    -999.25
  1260.9574  5182.0098 5182009.5000    -999.25    10.2008    10.2008   134.6032     0.0000    -999.25    47.8229     1.0742     1.1532     1.5520  1260.9574     0.6566    -999.25    -999.25     0.0111     0.0112 17001.3438     2.2884     1.0742     1.1539    15.0346     1.0000     1.0000 -1189.3673    87.8366     0.0111    -999.25
  1261.0668  5042.6191 5029234.5000    -999.25    10.1580    10.1580   137.9803     0.0000    -999.25    46.1363     1.0746     1.1635     1.6057  1261.0668     0.6852    -999.25    -999.25     0.0095     0.0100 16500.1133     2.2827     1.0746     1.1548    14.9860     1.0000     1.0000 -1189.4768    89.5630     0.0095    -999.25
  1261.1098  4969.1860 4969186.0000    -999.25    10.1619    10.1619   139.3077     0.0000    -999.25    45.7343     1.0747     1.1585     1.6101  1261.1097     0.6933    -999.25    -999.25     0.0094     0.0100 16303.1035     2.2711     1.0747     1.1549    14.9676     1.0000     1.0000 -1189.5198    89.7117     0.0094    -999.25
  1261.2192  4725.9131 4724615.5000    -999.25    10.1719    10.1719   144.5750     0.0000    -999.25    44.7113     1.0748     1.1457     1.6211  1261.2192     0.7138    -999.25    -999.25     0.0090     0.0100 15500.7070     2.2416     1.0748     1.1553    14.9208     1.0000     1.0000 -1189.6291    90.0900     0.0090    -999.25
  1261.2622  4628.4868 4628486.5000    -999.25    10.2039    10.2039   146.6453     0.0000    -999.25    44.6930     1.0760     1.1357     1.6099  1261.2622     0.7137    -999.25    -999.25     0.0090     0.0100 15185.3232     2.2269     1.0760     1.1577    14.8972     1.0000     1.0000 -1189.6721    90.0900     0.0090    -999.25
  1261.3716  4408.0273 4414854.5000    -999.25    10.2853    10.2853   151.3805     0.0000    -999.25    44.6464     1.0789     1.1104     1.5812  1261.3716     0.7135    -999.25    -999.25     0.0090     0.0100 14484.4307     2.1893     1.0789     1.1640    14.8371     1.0000     1.0000 -1189.7816    90.0900     0.0090    -999.25
  1261.4146  4330.8857 4330885.5000    -999.25    10.3357    10.3357   153.2417     0.0000    -999.25    45.0282     1.0813     1.1012     1.5491  1261.4146     0.7075    -999.25    -999.25     0.0090     0.0100 14208.9424     2.1774     1.0813     1.1692    14.8006     1.0000     1.0000 -1189.8246    90.0900     0.0090    -999.25
  1261.5240  4194.1704 4202435.5000    -999.25    10.4640    10.4640   156.0427     0.0000    -999.25    45.9997     1.0874     1.0777     1.4675  1261.5240     0.6922    -999.25    -999.25     0.0090     0.0100 13787.5186     2.1472     1.0874     1.1824    14.7077     1.0000     1.0000 -1189.9340    90.0900     0.0090    -999.25
  1261.5670  4151.9478 4151947.7500    -999.25    10.5173    10.5173   157.1436     0.0000    -999.25    46.5018     1.0906     1.0728     1.4270  1261.5670     0.6839    -999.25    -999.25     0.0090     0.0100 13621.8760     2.1406     1.0906     1.1895    14.6516     1.0000     1.0000 -1189.9769    90.0900     0.0090    -999.25
  1261.6764  4119.3286 4124616.5000    -999.25    10.6528    10.6528   157.1419     0.0000    -999.25    47.7793     1.0990     1.0602     1.3238  1261.6764     0.6629    -999.25    -999.25     0.0090     0.0100 13532.2061     2.1237     1.0990     1.2078    14.5090     1.0000     1.0000 -1190.0864    90.0900     0.0090    -999.25
  1261.7194  4113.8735 4113873.7500    -999.25    10.6732    10.6732   157.1412     0.0000    -999.25    48.1367     1.1032     1.0609     1.3084  1261.7194     0.6561    -999.25    -999.25     0.0090     0.0100 13496.9609     2.1209     1.1032     1.2172    14.4168     1.0000     1.0000 -1190.1294    90.0832     0.0090    -999.25
  1261.8288  4174.5962 4178825.5000    -999.25    10.7252    10.7252   154.3313     0.0000    -999.25    49.0462     1.1140     1.0626     1.2691  1261.8287     0.6390    -999.25    -999.25     0.0090     0.0100 13710.0576     2.1137     1.1140     1.2410    14.1823     1.0000     1.0000 -1190.2388    90.0660     0.0090    -999.25
