~Version ---------------------------------------------------
VERS. 2.0 : CWLS log ASCII Standard -VERSION 2.0
WRAP.  NO : 
~Well ------------------------------------------------------
STRT.m                                                1295.9144 : 
STOP.m                                                1639.8812 : 
STEP.m                                                   0.1524 : 
NULL.                                                   -999.25 : 
COMP.                                                           : COMPANY
WELL.                                                    Well-1 : WELL
FLD .                                                           : FIELD
LOC .                                                           : LOCATION
SRVC.                                                           : SERVICE COMPANY
DATE. 2021-01-20 14:33:59   : Log Export Date {yyyy-MM-dd HH:mm : ss}
PROV.                                                           : PROVINCE
UWI .                                                    Well-1 : UNIQUE WELL ID
API .                                                           : API NUMBER
~Curve Information -----------------------------------------
DEPTH             .m        : DEPTH
ACOUSTICIMPEDANCE1.kPa.s/m  : ACOUSTICIMPEDANCE1
AI                .kPa.s/m  : AI
AVG_PIGN          .m3/m3    : AVG_PIGN
CALI              .in       : CALI
CALI[DERIVED]1    .in       : CALI[DERIVED]1
DFL               .ohm.m    : DFL
DT                .us/ft    : DT
FACIES            ._        : FACIES
FLD1              ._        : FLD1
GR                .gAPI     : GR
HDRS              .ohm.m    : HDRS
HMRS              .ohm.m    : HMRS
DEPTH_1           .m        : DEPTH_1
NPHI              .m3/m3    : NPHI
ONE-WAYTIME1      .ms       : ONE-WAYTIME1
PERF_INT          ._        : PERF_INT
PERMEABILITY      .mD       : PERMEABILITY
PIGN              .m3/m3    : PIGN
PIGN_MODELLING    .m3/m3    : PIGN_MODELLING
PIMP              .kPa.s/m  : PIMP
RHOB              .g/cm3    : RHOB
RT_MODELLING      .ohm.m    : RT_MODELLING
RT_POWER          .ohm.m    : RT_POWER
SP                .mV       : SP
SUWI              ._        : SUWI
SUWI_MODELLING    ._        : SUWI_MODELLING
TDVSS             .m        : TDVSS
VCL               .%        : VCL
WATER_VOL         ._        : WATER_VOL
ZLT               ._        : ZLT
~Params ----------------------------------------------------
~Other -----------------------------------------------------
~ASCII -----------------------------------------------------
# ...
  1431.2456  6911.0874 6911087.5000    -999.25     8.8146     8.8146     4.6005   104.3619     0.0000     0.0000    56.4486     3.2637     3.4588  1431.2456     0.3974  -652.6844    -999.25    34.7642     0.2073     0.2073 22674.1719     2.3663     4.6005    21.1642   256.1959     0.9426     0.9426 -1352.7556    25.7450     0.1954     6.0000
  1431.3980  6995.9941 6995994.5000    -999.25     8.8609     8.8609     4.6606   103.7471     0.0000     0.0000    59.9263     3.3362     3.5142  1431.3979     0.4090  -652.7579    -999.25    27.4300     0.1785     0.1785 22952.7363     2.3813     4.6606    21.7207   257.2586     0.9634     0.9634 -1352.9080    30.8700     0.1719     6.0000
  1431.5504  7186.8418 7186842.0000    -999.25     8.8858     8.8858     5.1106   102.8013     0.0000     0.0000    63.7691     3.5434     3.7090  1431.5504     0.4256  -652.8315    -999.25    26.9354     0.1492     0.1492 23578.8770     2.4239     5.1106    26.1180   259.0625     0.9723     0.9723 -1353.0604    36.5020     0.1451     6.0000
  1431.7028  7509.3569 7509357.0000    -999.25     8.8931     8.8931     5.7098   101.3443     0.0000     0.0000    67.9563     3.8047     3.9288  1431.7028     0.4443  -652.9050    -999.25    23.9977     0.1162     0.1162 24636.9980     2.4968     5.7098    32.6017   261.1705     0.9803     0.9803 -1353.2128    42.9000     0.1139     6.0000
  1431.8552  7887.7480 7887748.0000    -999.25     8.8944     8.8944     6.2559    99.8379     0.0000     0.0000    69.9204     3.9792     4.0496  1431.8552     0.4626  -652.9785    -999.25    16.2090     0.0854     0.0854 25878.4375     2.5836     6.2559    39.1359   263.2024     0.9971     0.9971 -1353.3652    48.9500     0.0852     6.0000
  1432.0076  8056.2607 8056260.5000    -999.25     8.9085     8.9085     6.4193    99.6012     0.0000     0.0000    69.1420     3.9952     4.0610  1432.0076     0.4779  -653.0521    -999.25    31.0992     0.0981     0.0981 26431.3008     2.6326     6.4193    41.2073   264.8045     0.9651     0.9651 -1353.5176    47.7720     0.0947     6.0000
  1432.1600  7736.0146 7736014.5000    -999.25     8.9151     8.9151     6.3275   101.3907     0.0000     0.0000    68.0982     4.1167     4.1750  1432.1600     0.4883  -653.1256    -999.25    58.7740     0.1317     0.1317 25380.6250     2.5734     6.3275    40.0378   265.9513     0.9205     0.9205 -1353.6700    41.3480     0.1213     6.0000
  1432.3124  7002.6089 7002609.0000    -999.25     8.8877     8.8877     6.0758   104.8069     0.0000     0.0000    67.2618     4.2067     4.2508  1432.3124     0.4917  -653.1991    -999.25    27.7962     0.1454     0.1454 22974.4375     2.4079     6.0758    36.9151   266.6041     0.9525     0.9525 -1353.8224    38.8770     0.1385     6.0000
  1432.4648  6328.9092 6328909.5000    -999.25     8.8417     8.8417     5.5218   109.0149     0.0000     0.0000    66.4939     3.7845     3.8922  1432.4648     0.4896  -653.2726    -999.25     3.4768     0.1595     0.1595 20764.1387     2.2636     5.5218    30.4899   266.8335     0.9761     0.9761 -1353.9747    38.7150     0.1557     6.0000
  1432.6172  5887.0967 5887097.0000    -999.25     8.8147     8.8147     4.8218   113.1169     0.0000     0.0000    66.5223     3.2460     3.4313  1432.6172     0.4819  -653.3462    -999.25     0.7369     0.1701     0.1701 19314.6230     2.1848     4.8218    23.2499   266.8727     0.9926     0.9926 -1354.1272    36.6800     0.1689     6.0000
  1432.7696  5636.5435 5636543.5000    -999.25     8.8242     8.8242     4.4248   115.8799     0.0000     0.0000    66.4305     3.0883     3.3308  1432.7695     0.4680  -653.4197    -999.25     5.2410     0.1721     0.1721 18492.5957     2.1429     4.4248    19.5789   266.7694     0.9992     0.9992 -1354.2795    34.2910     0.1719     6.0000
  1432.9220  5599.3628 5599362.5000    -999.25     8.8457     8.8457     4.5050   116.5835     0.0000     0.0000    66.1512     3.2082     3.4916  1432.9220     0.4482  -653.4932    -999.25     4.1374     0.1647     0.1647 18370.6113     2.1417     4.5050    20.2946   266.5941     1.0000     1.0000 -1354.4320    33.9070     0.1647     6.0000
  1433.0744  5719.2607 5719261.0000    -999.25     8.8599     8.8599     4.7745   115.7889     0.0000     0.0000    67.2339     3.4146     3.7110  1433.0743     0.4307  -653.5668    -999.25     0.6783     0.1500     0.1500 18763.9805     2.1727     4.7745    22.7958   266.7012     0.9947     0.9947 -1354.5844    35.9070     0.1492     6.0000
  1433.2268  5917.7764 5917776.5000    -999.25     8.8735     8.8735     5.1542   114.2569     0.0000     0.0000    69.4534     3.6753     3.9924  1433.2268     0.4243  -653.6403    -999.25     0.1868     0.1331     0.1331 19415.2773     2.2183     5.1542    26.5661   267.3542     0.9694     0.9694 -1354.7368    39.4300     0.1290     6.0000
  1433.3792  6087.5239 6087523.5000    -999.25     8.8860     8.8860     5.5332   113.1268     0.0000     0.0000    71.4964     4.0451     4.4124  1433.3792     0.4308  -653.7138    -999.25     1.6573     0.1176     0.1176 19972.1914     2.2594     5.5332    30.6163   268.2636     0.9235     0.9235 -1354.8892    43.8540     0.1086     6.0000
  1433.5316  6173.9570 6173957.0000    -999.25     8.8901     8.8901     6.0486   113.0044     0.0000     0.0000    73.0161     4.4430     4.8730  1433.5316     0.4497  -653.7874    -999.25     3.0628     0.1059     0.1059 20255.7656     2.2890     6.0486    36.5850   269.2339     0.8862     0.8862 -1355.0416    48.0070     0.0939     6.0000
  1433.6840  6218.3843 6218384.5000    -999.25     8.8787     8.8787     6.4511   113.4832     0.0000     0.0000    74.3095     4.6726     5.1247  1433.6840     0.4728  -653.8609    -999.25     4.1506     0.0991     0.0991 20401.5234     2.3152     6.4511    41.6171   270.1891     0.8743     0.8743 -1355.1940    50.8330     0.0867     6.0000
  1433.8364  6253.8325 6253832.5000    -999.25     8.8658     8.8658     6.6070   113.9536     0.0000     0.0000    75.6426     4.6758     5.1049  1433.8364     0.4903  -653.9344    -999.25     5.7071     0.1009     0.1009 20517.8242     2.3381     6.6070    43.6523   270.6606     0.8785     0.8785 -1355.3464    52.1130     0.0886     6.0000
  1433.9888  6290.7075 6290707.5000    -999.25     8.8518     8.8518     6.3759   114.1423     4.0000     0.0000    76.3219     4.4251     4.8106  1433.9888     0.4919  -654.0079    -999.25     8.8221     0.1137     0.1137 20638.8027     2.3558     6.3759    40.6526   270.4189     0.9126     0.9126 -1355.4988    50.4320     0.1038     6.0000
  1434.1412  6350.9907 6350990.5000    -999.25     8.8185     8.8185     5.8377   113.7936     4.0000     0.0000    75.3942     3.9117     4.2381  1434.1412     0.4779  -654.0815    -999.25    14.8247     0.1382     0.1382 20836.5820     2.3711     5.8377    34.0791   269.3302     0.9670     0.9670 -1355.6512    44.7980     0.1336     6.0000
  1434.2936  6454.7900 6454790.0000    -999.25     8.7557     8.7557     5.1227   112.5511     4.0000     0.0000    72.8286     3.2856     3.5863  1434.2936     0.4573  -654.1550    -999.25    24.0241     0.1709     0.1709 21177.1328     2.3835     5.1227    26.2417   267.3341     0.9962     0.9962 -1355.8036    36.8400     0.1702     6.0000
  1434.4460  6594.9014 6594901.0000    -999.25     8.6673     8.6673     4.3720   110.3776     4.0000     0.0000    69.8696     2.7592     3.0771  1434.4460     0.4381  -654.2286    -999.25    28.6260     0.1945     0.1945 21636.8145     2.3882     4.3720    19.1141   264.7049     1.0000     1.0000 -1355.9559    31.6410     0.1945     6.0000
  1434.5984  6742.3071 6742307.0000    -999.25     8.5770     8.5770     3.9396   107.6204     4.0000     0.0000    69.1017     2.4320     2.7653  1434.5984     0.4274  -654.3021    -999.25    23.3460     0.2012     0.2012 22120.4297     2.3806     3.9396    15.5206   261.8856     1.0000     1.0000 -1356.1084    31.0700     0.2012     6.0000
  1434.7508  6866.1177 6866117.5000    -999.25     8.4967     8.4967     3.8316   104.9691     4.0000     0.0000    71.3547     2.2108     2.5158  1434.7507     0.4281  -654.3756    -999.25    14.9116     0.2003     0.2003 22526.6328     2.3646     3.8316    14.6812   259.2036     1.0000     1.0000 -1356.2607    32.7490     0.2003     6.0000
