~Version ---------------------------------------------------
VERS. 2.0 : CWLS log ASCII Standard -VERSION 2.0
WRAP.  NO : 
~Well ------------------------------------------------------
STRT.m                                                1171.1084 : 
STOP.m                                                  1705.88 : 
STEP.m                                                   0.1524 : 
NULL.                                                   -999.25 : 
COMP.                                                           : COMPANY
WELL.                                                   Well-12 : WELL
FLD .                                                           : FIELD
LOC .                                                           : LOCATION
SRVC.                                                           : SERVICE COMPANY
DATE. 2021-01-20 14:34:05   : Log Export Date {yyyy-MM-dd HH:mm : ss}
PROV.                                                           : PROVINCE
UWI .                                                   Well-12 : UNIQUE WELL ID
API .                                                           : API NUMBER
~Curve Information -----------------------------------------
DEPTH             .m        : DEPTH
ACOUSTICIMPEDANCE1.kPa.s/m  : ACOUSTICIMPEDANCE1
AI                .kPa.s/m  : AI
AVG_PIGN          .m3/m3    : AVG_PIGN
DT                .us/ft    : DT
FACIES            ._        : FACIES
FLD1              ._        : FLD1
GR                .gAPI     : GR
HDRS              .ohm.m    : HDRS
HMRS              .ohm.m    : HMRS
DEPTH_1           .m        : DEPTH_1
NPHI              .m3/m3    : NPHI
ONE-WAYTIME1      .ms       : ONE-WAYTIME1
PERF_INT          ._        : PERF_INT
PERMEABILITY      .mD       : PERMEABILITY
PIGN              .m3/m3    : PIGN
PIGN_MODELLING    .m3/m3    : PIGN_MODELLING
PIMP              .kPa.s/m  : PIMP
RHOB              .g/cm3    : RHOB
RT_MODELLING      .ohm.m    : RT_MODELLING
RT_POWER          .ohm.m    : RT_POWER
SP                .mV       : SP
SUWI              ._        : SUWI
SUWI_MODELLING    ._        : SUWI_MODELLING
SXWI              ._        : SXWI
TDVSS             .m        : TDVSS
TEMP              .K        : TEMP
VCL               .%        : VCL
WATER_VOL         ._        : WATER_VOL
ZLT               ._        : ZLT
~Params ----------------------------------------------------
~Other -----------------------------------------------------
~ASCII -----------------------------------------------------
# ...
  1380.6584  5603.2588 5603259.0000    -999.25   134.1863     0.0000    -999.25   172.1245     1.3466     1.5159  1380.6583     0.5837  -633.1367    -999.25     0.0053     0.0418     0.0418 18383.3945     2.4668     1.3466     1.8133    87.6356     1.0000     1.0000     1.0000 -1298.1783   156.8748    79.1010     0.0418     1.0000
  1380.8108  5476.5962 5476596.0000    -999.25   137.2063     0.0000    -999.25   171.3475     1.3405     1.5017  1380.8108     0.5843  -633.2109    -999.25     0.0053     0.0386     0.0386 17967.8340     2.4653     1.3405     1.7969    86.8556     1.0000     1.0000     1.0000 -1298.3308   156.8832    80.7030     0.0386     1.0000
  1380.9632  5319.6958 5319696.0000    -999.25   140.1358     0.0000    -999.25   169.9283     1.3679     1.5068  1380.9631     0.6004  -633.2853    -999.25     0.0048     0.0367     0.0367 17453.0703     2.4458     1.3679     1.8712    85.9615     1.0000     1.0000     1.0000 -1298.4832   156.8917    81.6690     0.0367     1.0000
  1381.1156  5306.5991 5306599.0000    -999.25   140.9584     0.0000    -999.25   167.4729     1.4573     1.5847  1381.1156     0.5871  -633.3596    -999.25     0.0064     0.0401     0.0401 17410.1016     2.4541     1.4573     2.1237    85.2481     1.0000     1.0000     1.0000 -1298.6356   156.9002    79.9680     0.0401     1.0000
  1381.2680  5478.3335 5478333.5000    -999.25   140.1338     0.0000    -999.25   163.9718     1.6262     1.7838  1381.2679     0.5406  -633.4340    -999.25     0.0146     0.0245     0.0245 17973.5352     2.5187     1.6262     2.6445    85.0407     1.0000     1.0000     1.0000 -1298.7880   156.9087    79.1360     0.0245     1.0000
  1381.4204  5703.2061 5703206.0000    -999.25   138.3121     0.0000    -999.25   160.8672     1.8302     2.0837  1381.4204     0.4921  -633.5083    -999.25     0.0281     0.0001     0.0100 18711.3066     2.5880     1.8302     3.3496    85.4521     1.0000     1.0000     1.0000 -1298.9404   156.9172    79.2660     0.0001     1.0000
  1381.5728  6021.9087 6021908.5000    -999.25   132.5561     0.0000    -999.25   160.2794     1.9473     2.2931  1381.5728     0.4716  -633.5826    -999.25     0.0315     0.0001     0.0100 19756.9180     2.6189     1.9473     3.7920    86.4866     1.0000     1.0000     1.0000 -1299.0928   156.9257    77.1410     0.0001     1.0000
  1381.7252  6449.0425 6449042.5000    -999.25   123.5734     0.0000    -999.25   162.8883     1.8115     2.1520  1381.7252     0.4830  -633.6569    -999.25     0.0214     0.0165     0.0165 21158.2754     2.6146     1.8115     3.2815    87.8240     1.0000     1.0000     1.0000 -1299.2451   156.9342    73.4330     0.0165     1.0000
  1381.8776  6604.7388 6604695.5000    -999.25   117.2776     0.0000    -999.25   166.7411     1.5545     1.8082  1381.8776     0.5295  -633.7313    -999.25     0.0109     0.0509     0.0509 21668.9473     2.5413     1.5545     2.4165    89.1259     1.0000     1.0000     1.0000 -1299.3976   156.9426    68.1830     0.0509     1.0000
  1382.0300  6388.3657 6388365.5000    -999.25   116.4882     0.0000    -999.25   169.0283     1.3568     1.5355  1382.0300     0.5869  -633.8056    -999.25     0.0063     0.0652     0.0652 20959.2051     2.4415     1.3568     1.8409    90.1317     1.0000     1.0000     1.0000 -1299.5499   156.9511    67.3960     0.0652     1.0000
  1382.1824  6094.9648 6095026.0000    -999.25   119.6353     0.0000    -999.25   168.9094     1.2351     1.3746  1382.1824     0.6407  -633.8799    -999.25     0.0055     0.0596     0.0596 19996.8047     2.3923     1.2351     1.5255    90.9172     1.0000     1.0000     1.0000 -1299.7024   156.9596    70.1900     0.0596     1.0000
  1382.3348  5800.5981 5800598.0000    -999.25   124.7134     0.0000    -999.25   167.7305     1.1496     1.2664  1382.3347     0.6414  -633.9542    -999.25     0.0069     0.0535     0.0535 19030.8340     2.3734     1.1496     1.3216    91.3410     1.0000     1.0000     1.0000 -1299.8547   156.9681    73.2420     0.0535     1.0000
  1382.4872  5510.5298 5510530.0000    -999.25   130.3600     0.0000    -999.25   166.9399     1.0787     1.1696  1382.4872     0.6482  -634.0286    -999.25     0.0062     0.0448     0.0448 18079.1660     2.3568     1.0787     1.1636    91.4397     1.0000     1.0000     1.0000 -1300.0072   156.9766    77.6270     0.0448     1.0000
  1382.6396  5334.2554 5334255.0000    -999.25   134.4050     0.0000    -999.25   166.7505     1.0383     1.1119  1382.6395     0.6534  -634.1029    -999.25     0.0056     0.0375     0.0375 17500.8379     2.3522     1.0383     1.0781    90.9497     1.0000     1.0000     1.0000 -1300.1595   156.9851    81.2680     0.0375     1.0000
  1382.7920  5303.6919 5303692.0000    -999.25   135.5186     0.0000    -999.25   167.1152     1.0456     1.1247  1382.7920     0.6433  -634.1772    -999.25     0.0047     0.0358     0.0358 17400.5645     2.3581     1.0456     1.0933    90.0783     1.0000     1.0000     1.0000 -1300.3120   156.9935    82.0820     0.0358     1.0000
  1382.9444  5480.6592 5480659.5000    -999.25   132.3051     0.0000    -999.25   168.5258     1.1154     1.2253  1382.9443     0.6149  -634.2515    -999.25     0.0037     0.0396     0.0396 17981.1660     2.3790     1.1154     1.2441    88.7178     1.0000     1.0000     1.0000 -1300.4644   157.0020    80.1970     0.0396     1.0000
  1383.0968  5795.6528 5795652.5000    -999.25   126.6605     0.0000    -999.25   170.9712     1.2178     1.3677  1383.0968     0.5983  -634.3259    -999.25     0.0212     0.0482     0.0482 19014.6094     2.4084     1.2178     1.4830    87.2280     1.0000     1.0000     1.0000 -1300.6168   157.0105    75.8990     0.0482     1.0000
  1383.2492  6084.3618 6084362.0000    -999.25   121.5721     0.0000    -999.25   172.9585     1.3197     1.4942  1383.2491     0.5783  -634.4002    -999.25     0.3705     0.0601     0.0601 19961.8164     2.4268     1.3197     1.7416    85.8505     1.0000     1.0000     1.0000 -1300.7692   157.0190    69.9520     0.0601     1.0000
  1383.4016  6212.8232 6212823.0000    -999.25   118.9014     0.0000    -999.25   172.7873     1.3997     1.5824  1383.4016     0.5720  -634.4745    -999.25     2.1626     0.0712     0.0712 20383.2773     2.4236     1.3997     1.9592    84.8781     1.0000     1.0000     1.0000 -1300.9216   157.0275    64.3970     0.0712     1.0000
  1383.5540  6177.3857 6177385.5000    -999.25   118.4881     0.0000    -999.25   170.6796     1.4563     1.6452  1383.5540     0.5594  -634.5488    -999.25     2.1188     0.0787     0.0787 20267.0137     2.4014     1.4563     2.1208    84.6067     1.0000     1.0000     1.0000 -1301.0740   157.0360    60.3550     0.0787     1.0000
  1383.7064  6112.0371 6112037.0000    -999.25   118.9022     0.0000    -999.25   168.5602     1.4923     1.6829  1383.7064     0.5499  -634.6232    -999.25     0.8178     0.0807     0.0807 20052.6152     2.3843     1.4923     2.2270    84.9131     1.0000     1.0000     1.0000 -1301.2263   157.0445    59.2680     0.0807     1.0000
  1383.8588  6073.7061 6073712.0000    -999.25   119.6476     0.0000    -999.25   167.6160     1.4761     1.6556  1383.8588     0.5553  -634.6975    -999.25     0.0117     0.0786     0.0786 19926.8770     2.3842     1.4761     2.1789    85.8130     1.0000     1.0000     1.0000 -1301.3788   157.0529    60.7170     0.0786     1.0000
  1384.0112  6054.5122 6054512.5000    -999.25   120.1930     0.0000    -999.25   167.4573     1.4234     1.5891  1384.0112     0.5695  -634.7719    -999.25     0.0084     0.0742     0.0742 19863.8867     2.3875     1.4234     2.0261    86.8656     1.0000     1.0000     1.0000 -1301.5311   157.0614    62.8980     0.0742     1.0000
  1384.1635  6052.9277 6052927.5000    -999.25   120.4761     0.0000    -999.25   167.7252     1.3780     1.5379  1384.1635     0.5753  -634.8461    -999.25     0.0066     0.0701     0.0701 19858.6875     2.3925     1.3780     1.8990    87.9200     1.0000     1.0000     1.0000 -1301.6835   157.0699    64.9338     0.0701     1.0000
  1384.3160  5994.8149 5994815.0000    -999.25   121.3899     0.0000    -999.25   168.6006     1.3537     1.5074  1384.3159     0.5951  -634.9205    -999.25     0.0048     0.0667     0.0667 19668.0293     2.3875     1.3537     1.8325    88.7360     1.0000     1.0000     1.0000 -1301.8359   157.0784    66.6280     0.0667     1.0000
