~Version ---------------------------------------------------
VERS. 2.0 : CWLS log ASCII Standard -VERSION 2.0
WRAP.  NO : 
~Well ------------------------------------------------------
STRT.m                                                   1260.0 : 
STOP.m                                                1587.9648 : 
STEP.m                                                   0.1524 : 
NULL.                                                   -999.25 : 
COMP.                                                           : COMPANY
WELL.                                                    Well-5 : WELL
FLD .                                                           : FIELD
LOC .                                                           : LOCATION
SRVC.                                                           : SERVICE COMPANY
DATE. 2021-01-20 14:34:00   : Log Export Date {yyyy-MM-dd HH:mm : ss}
PROV.                                                           : PROVINCE
UWI .                                                    Well-5 : UNIQUE WELL ID
API .                                                           : API NUMBER
~Curve Information -----------------------------------------
DEPTH             .m        : DEPTH
ACOUSTICIMPEDANCE1.kPa.s/m  : ACOUSTICIMPEDANCE1
AI                .kPa.s/m  : AI
AVG_PIGN          .m3/m3    : AVG_PIGN
CALI              .in       : CALI
CALI[DERIVED]1    .in       : CALI[DERIVED]1
DT                .us/ft    : DT
FACIES            ._        : FACIES
FLD1              ._        : FLD1
GR                .gAPI     : GR
LLD               .ohm.m    : LLD
LLS               .ohm.m    : LLS
LL3               .ohm.m    : LL3
DEPTH_1           .m        : DEPTH_1
NPHI              .m3/m3    : NPHI
PERF_INT          ._        : PERF_INT
PERMEABILITY      .mD       : PERMEABILITY
PIGN              .m3/m3    : PIGN
PIGN_MODELLING    .m3/m3    : PIGN_MODELLING
PIMP              .kPa.s/m  : PIMP
RHOB              .g/cm3    : RHOB
RT_MODELLING      .ohm.m    : RT_MODELLING
RT_POWER          .ohm.m    : RT_POWER
SP                .mV       : SP
SUWI              ._        : SUWI
SUWI_MODELLING    ._        : SUWI_MODELLING
TDVSS             .m        : TDVSS
VCL               .%        : VCL
WATER_VOL         ._        : WATER_VOL
ZLT               ._        : ZLT
~Params ----------------------------------------------------
~Other -----------------------------------------------------
~ASCII -----------------------------------------------------
# ...
  1389.5400  7774.9868 7758571.0000    -999.25     9.7657     9.7657    98.9055     0.0000    -999.25    69.3975     2.3412     2.6346     4.5051  1389.5400     0.4414    -999.25     0.0184     0.0187     0.0187 25454.6289     2.5229     2.3412     5.4811    10.0798     1.0000     1.0000 -1317.9500    60.6820     0.0187     2.0000
  1389.5830  7668.8374 7668837.5000    -999.25     9.7848     9.7848    99.8328     0.0000    -999.25    68.2394     2.3167     2.5981     4.4620  1389.5830     0.4450    -999.25     0.0176     0.0186     0.0186 25160.2285     2.5118     2.3167     5.3684    10.3124     1.0000     1.0000 -1317.9929    60.9238     0.0186     2.0000
  1389.6924  7246.2534 7246337.5000    -999.25     9.8334     9.8334   104.4654     0.0000    -999.25    65.2930     2.2543     2.5054     4.3523  1389.6924     0.4543    -999.25     0.0157     0.0184     0.0184 23774.0723     2.4835     2.2543     5.0818    10.9043     1.0000     1.0000 -1318.1024    61.5390     0.0184     2.0000
  1389.7354  7080.2725 7080272.5000    -999.25     9.8658     9.8658   106.2863     0.0000    -999.25    64.8792     2.2229     2.4451     4.2406  1389.7354     0.4619    -999.25     0.0157     0.0188     0.0188 23229.2402     2.4690     2.2229     4.9439    11.2819     1.0000     1.0000 -1318.1454    62.1832     0.0188     2.0000
  1389.8448  6630.6733 6643353.5000    -999.25     9.9482     9.9482   111.7868     0.0000    -999.25    63.8266     2.1432     2.2916     3.9563  1389.8447     0.4812    -999.25     0.0156     0.0198     0.0198 21795.7793     2.4318     2.1432     4.5931    12.2425     1.0000     1.0000 -1318.2548    63.8220     0.0198     2.0000
  1389.8878  6471.6216 6471621.5000    -999.25     9.9980     9.9980   113.9488     0.0000    -999.25    64.3109     2.1080     2.2283     3.7386  1389.8877     0.4927    -999.25     0.0184     0.0215     0.0215 21232.3535     2.4194     2.1080     4.4468    12.6927     1.0000     1.0000 -1318.2977    64.8919     0.0215     2.0000
  1389.9972  6112.1650 6127621.5000    -999.25    10.1249    10.1249   119.0732     0.0000    -999.25    65.5428     2.0185     2.0674     3.1847  1389.9972     0.5221    -999.25     0.0257     0.0261     0.0261 20103.7441     2.3878     2.0185     4.0743    13.8383     1.0000     1.0000 -1318.4072    67.6140     0.0261     2.0000
  1390.0403  5992.0962 5992096.5000    -999.25    10.1711    10.1711   121.0921     0.0000    -999.25    66.6093     1.9820     2.0115     3.0144  1390.0403     0.5335    -999.25     0.0229     0.0258     0.0258 19659.1094     2.3806     1.9820     3.9318    14.3119     1.0000     1.0000 -1318.4503    68.9474     0.0258     2.0000
  1390.1496  5758.2944 5768549.0000    -999.25    10.2883    10.2883   125.0400     0.0000    -999.25    69.3140     1.8895     1.8698     2.5826  1390.1495     0.5624    -999.25     0.0159     0.0252     0.0252 18925.6855     2.3623     1.8895     3.5703    15.5127     1.0000     1.0000 -1318.5596    72.3290     0.0252     2.0000
  1390.1926  5680.6025 5680602.5000    -999.25    10.3309    10.3309   126.5931     0.0000    -999.25    70.0363     1.8552     1.8249     2.4851  1390.1925     0.5697    -999.25     0.0138     0.0243     0.0243 18637.1484     2.3593     1.8552     3.4449    15.9816     1.0000     1.0000 -1318.6025    73.2573     0.0243     2.0000
  1390.3020  5567.3843 5570906.5000    -999.25    10.4393    10.4393   128.7599     0.0000    -999.25    71.8738     1.7680     1.7109     2.2371  1390.3020     0.5883    -999.25     0.0083     0.0222     0.0222 18277.2539     2.3519     1.7680     3.1256    17.1745     1.0000     1.0000 -1318.7120    75.6190     0.0222     2.0000
  1390.3451  5527.6899 5527690.0000    -999.25    10.4764    10.4764   129.6136     0.0000    -999.25    72.0501     1.7390     1.6784     2.1600  1390.3451     0.5895    -999.25     0.0081     0.0220     0.0220 18135.4668     2.3506     1.7390     3.0264    17.5817     1.0000     1.0000 -1318.7551    75.7482     0.0220     2.0000
  1390.4544  5490.1655 5490684.5000    -999.25    10.5705    10.5705   130.3183     0.0000    -999.25    72.4971     1.6657     1.5961     1.9644  1390.4543     0.5923    -999.25     0.0076     0.0217     0.0217 18014.0566     2.3473     1.6657     2.7747    18.6143     1.0000     1.0000 -1318.8644    76.0760     0.0217     2.0000
  1390.4974  5476.1260 5476126.0000    -999.25    10.5844    10.5844   130.5956     0.0000    -999.25    72.4273     1.6449     1.5768     1.9212  1390.4973     0.5874    -999.25     0.0088     0.0223     0.0223 17966.2930     2.3463     1.6449     2.7070    18.9158     1.0000     1.0000 -1318.9073    75.4389     0.0223     2.0000
  1390.6068  5503.0889 5503196.0000    -999.25    10.6200    10.6200   129.8118     0.0000    -999.25    72.2498     1.5920     1.5278     1.8114  1390.6068     0.5749    -999.25     0.0120     0.0238     0.0238 18055.1055     2.3437     1.5920     2.5346    19.6828     1.0000     1.0000 -1319.0168    73.8180     0.0238     2.0000
  1390.6499  5513.8608 5513861.0000    -999.25    10.6108    10.6108   129.5030     0.0000    -999.25    72.0300     1.5806     1.5203     1.7975  1390.6499     0.5658    -999.25     0.0156     0.0248     0.0248 18090.0957     2.3427     1.5806     2.4988    19.8614     1.0000     1.0000 -1319.0599    72.6777     0.0248     2.0000
  1390.7592  5588.9971 5591230.5000    -999.25    10.5874    10.5874   127.6239     0.0000    -999.25    71.4727     1.5517     1.5013     1.7623  1390.7592     0.5428    -999.25     0.0248     0.0275     0.0275 18343.9316     2.3402     1.5517     2.4079    20.3144     1.0000     1.0000 -1319.1692    69.7860     0.0275     2.0000
  1390.8022  5621.6685 5621668.5000    -999.25    10.5630    10.5630   126.8847     0.0000    -999.25    71.4121     1.5496     1.5037     1.7613  1390.8021     0.5349    -999.25     0.0300     0.0284     0.0284 18443.7949     2.3402     1.5496     2.4012    20.3753     1.0000     1.0000 -1319.2122    68.8140     0.0284     2.0000
  1390.9116  5723.8359 5728615.0000    -999.25    10.5010    10.5010   124.6260     0.0000    -999.25    71.2577     1.5440     1.5099     1.7587  1390.9116     0.5148    -999.25     0.0432     0.0306     0.0306 18794.6680     2.3404     1.5440     2.3840    20.5303     1.0000     1.0000 -1319.3215    66.3410     0.0306     2.0000
  1390.9546  5770.6504 5770650.5000    -999.25    10.4626    10.4626   123.7382     0.0000    -999.25    71.3746     1.5500     1.5204     1.7726  1390.9546     0.5120    -999.25     0.0457     0.0309     0.0309 18932.5801     2.3427     1.5500     2.4027    20.4567     1.0000     1.0000 -1319.3645    66.0064     0.0309     2.0000
  1391.0640  5898.0034 5902984.0000    -999.25    10.3647    10.3647   121.3732     0.0000    -999.25    71.6721     1.5653     1.5472     1.8081  1391.0640     0.5049    -999.25     0.0520     0.0317     0.0317 19366.7441     2.3486     1.5653     2.4501    20.2694     1.0000     1.0000 -1319.4740    65.1550     0.0317     2.0000
  1391.1070  5954.9980 5954998.0000    -999.25    10.3209    10.3209   120.4436     0.0000    -999.25    71.6262     1.5781     1.5649     1.8388  1391.1069     0.5064    -999.25     0.0509     0.0315     0.0315 19537.3945     2.3532     1.5781     2.4907    20.0814     1.0000     1.0000 -1319.5170    65.3257     0.0315     2.0000
  1391.2164  6098.2695 6099966.5000    -999.25    10.2093    10.2093   118.1905     0.0000    -999.25    71.5096     1.6105     1.6098     1.9169  1391.2164     0.5103    -999.25     0.0482     0.0311     0.0311 20013.0137     2.3647     1.6105     2.5938    19.6033     1.0000     1.0000 -1319.6263    65.7600     0.0311     2.0000
  1391.2594  6156.9473 6156947.0000    -999.25    10.1702    10.1702   117.3049     0.0000    -999.25    71.4542     1.6279     1.6333     1.9591  1391.2594     0.5109    -999.25     0.0478     0.0310     0.0310 20199.9570     2.3696     1.6279     2.6510    19.3479     1.0000     1.0000 -1319.6693    65.7899     0.0310     2.0000
  1391.3688  6282.1611 6279831.5000    -999.25    10.0705    10.0705   115.5673     0.0000    -999.25    71.3133     1.6723     1.6930     2.0664  1391.3688     0.5123    -999.25     0.0467     0.0308     0.0308 20603.1211     2.3819     1.6723     2.7964    18.6982     1.0000     1.0000 -1319.7788    65.8660     0.0308     2.0000
