~Version ---------------------------------------------------
VERS. 2.0 : CWLS log ASCII Standard -VERSION 2.0
WRAP.  NO : 
~Well ------------------------------------------------------
STRT.m                                                1290.3698 : 
STOP.m                                                1526.7422 : 
STEP.m                                                   0.1524 : 
NULL.                                                   -999.25 : 
COMP.                                                           : COMPANY
WELL.                                                   Well-18 : WELL
FLD .                                                           : FIELD
LOC .                                                           : LOCATION
SRVC.                                                           : SERVICE COMPANY
DATE. 2021-01-20 14:34:10   : Log Export Date {yyyy-MM-dd HH:mm : ss}
PROV.                                                           : PROVINCE
UWI .                                                   Well-18 : UNIQUE WELL ID
API .                                                           : API NUMBER
~Curve Information -----------------------------------------
DEPTH             .m        : DEPTH
ACOUSTICIMPEDANCE1.kPa.s/m  : ACOUSTICIMPEDANCE1
AI                .kPa.s/m  : AI
AVG_PIGN          .m3/m3    : AVG_PIGN
BS                .in       : BS
CALI              .in       : CALI
CALI[DERIVED]1    .in       : CALI[DERIVED]1
DT                .us/ft    : DT
FACIES            ._        : FACIES
FLD1              ._        : FLD1
GR                .gAPI     : GR
DEPTH_1           .m        : DEPTH_1
NPHI              .m3/m3    : NPHI
PEF               .b/e      : PEF
PERF_INT          ._        : PERF_INT
PHIT              .m3/m3    : PHIT
PIGN              .m3/m3    : PIGN
PIGN_MODELLING    .m3/m3    : PIGN_MODELLING
PIMP              .kPa.s/m  : PIMP
RHOB              .g/cm3    : RHOB
LLD               .ohm.m    : LLD
RT_MODELLING      .ohm.m    : RT_MODELLING
RT_POWER          .ohm.m    : RT_POWER
RXO               .ohm.m    : RXO
SP                .mV       : SP
SUWI              ._        : SUWI
SUWI_MODELLING    ._        : SUWI_MODELLING
SXWI              ._        : SXWI
TDVSS             .m        : TDVSS
TEMP              .K        : TEMP
VCL               .%        : VCL
WATER_VOL         ._        : WATER_VOL
ZLT               ._        : ZLT
~Params ----------------------------------------------------
~Other -----------------------------------------------------
~ASCII -----------------------------------------------------
  1290.3698  4936.6797 4936680.0000    -999.25     8.5000     8.6899     8.6899   136.9312    -999.25    -999.25    79.0932  1290.3699     0.4225     6.0976    -999.25    -999.25    -999.25    -999.25 16196.4561     2.2178     0.9630     0.9630     0.9274     0.5827   -70.8750    -999.25    -999.25    -999.25 -1199.2773   153.3841    -999.25    -999.25    -999.25
  1290.5222  4925.3271 4925327.0000    -999.25     8.5000     8.7083     8.7083   136.9312    -999.25    -999.25    77.9816  1290.5222     0.4357     6.2017    -999.25    -999.25    -999.25    -999.25 16159.2090     2.2127     0.9897     0.9897     0.9794     0.6008   -70.6250    -999.25    -999.25    -999.25 -1199.4271   153.3927    -999.25    -999.25    -999.25
  1290.6746  4877.0244 4877024.5000    -999.25     8.5000     8.7481     8.7481   136.9312    -999.25    -999.25    80.9354  1290.6747     0.4317     6.1497    -999.25    -999.25    -999.25    -999.25 16000.7363     2.1910     0.9989     0.9989     0.9978     0.9136   -70.7500    -999.25    -999.25    -999.25 -1199.5769   153.4014    -999.25    -999.25    -999.25
  1290.8270  4848.5327 4848532.5000    -999.25     8.5000     8.7725     8.7725   136.9312    -999.25    -999.25    83.7796  1290.8270     0.4425     5.6898    -999.25    -999.25    -999.25    -999.25 15907.2588     2.1782     1.0057     1.0057     1.0114     0.6003   -70.8750    -999.25    -999.25    -999.25 -1199.7267   153.4101    -999.25    -999.25    -999.25
  1290.9794  4858.1035 4858103.5000    -999.25     8.5000     8.7588     8.7588   136.9312    -999.25    -999.25    80.3221  1290.9794     0.4501     5.9285    -999.25    -999.25    -999.25    -999.25 15938.6602     2.1825     0.9878     0.9878     0.9757     0.6054   -70.5000    -999.25    -999.25    -999.25 -1199.8765   153.4187    -999.25    -999.25    -999.25
  1291.1318  4905.9614 4905961.5000    -999.25     8.5000     8.7817     8.7817   136.9312    -999.25    -999.25    77.0131  1291.1318     0.5031     6.1200    -999.25    -999.25    -999.25    -999.25 16095.6748     2.2040     0.9830     0.9830     0.9663     0.7987   -70.8750    -999.25    -999.25    -999.25 -1200.0262   153.4274    -999.25    -999.25    -999.25
  1291.2842  4980.7534 4980753.0000    -999.25     8.5000     8.7928     8.7928   136.9312    -999.25    -999.25    72.9294  1291.2842     0.4999     6.3835    -999.25    -999.25    -999.25    -999.25 16341.0537     2.2376     1.0184     1.0184     1.0371     0.7326   -71.1250    -999.25    -999.25    -999.25 -1200.1760   153.4361    -999.25    -999.25    -999.25
  1291.4366  5042.8569 5042857.0000    -999.25     8.5000     8.7588     8.7588   136.9312    -999.25    -999.25    73.2436  1291.4366     0.4909     6.0158    -999.25    -999.25    -999.25    -999.25 16544.8066     2.2655     1.0656     1.0656     1.1355     0.6885   -70.6875    -999.25    -999.25    -999.25 -1200.3258   153.4447    -999.25    -999.25    -999.25
  1291.5890  5079.3618 5079362.0000    -999.25     8.5000     8.6647     8.6647   136.9312    -999.25    -999.25    73.4915  1291.5890     0.4723     5.9266    -999.25    -999.25    -999.25    -999.25 16664.5723     2.2819     1.1076     1.1076     1.2268     0.7578   -70.7500    -999.25    -999.25    -999.25 -1200.4756   153.4534    -999.25    -999.25    -999.25
  1291.7414  5021.2651 5021265.0000    -999.25     8.5000     8.7460     8.7460   136.9312    -999.25    -999.25    74.8488  1291.7415     0.4349     5.9535    -999.25    -999.25    -999.25    -999.25 16473.9668     2.2558     1.0924     1.0924     1.1934     1.1961   -70.7500    -999.25    -999.25    -999.25 -1200.6254   153.4621    -999.25    -999.25    -999.25
  1291.8938  4893.4966 4893496.5000    -999.25     8.5000     8.7886     8.7886   136.9312    -999.25    -999.25    75.9681  1291.8938     0.4368     5.9228    -999.25    -999.25    -999.25    -999.25 16054.7783     2.1984     1.0691     1.0691     1.1430     0.9052   -70.8750    -999.25    -999.25    -999.25 -1200.7751   153.4707    -999.25    -999.25    -999.25
  1292.0462  4810.2466 4810246.5000    -999.25     8.5000     8.8460     8.8460   136.9312    -999.25    -999.25    74.8528  1292.0463     0.4305     5.8261    -999.25    -999.25    -999.25    -999.25 15781.6484     2.1610     1.0207     1.0207     1.0418     0.6467   -70.6250    -999.25    -999.25    -999.25 -1200.9250   153.4794    -999.25    -999.25    -999.25
  1292.1986  4795.5547 4795555.0000    -999.25     8.5000     8.8368     8.8368   136.9312    -999.25    -999.25    77.2371  1292.1986     0.4490     5.6234    -999.25    -999.25    -999.25    -999.25 15733.4482     2.1544     0.9582     0.9582     0.9181     0.5637   -69.9375    -999.25    -999.25    -999.25 -1201.0748   153.4881    -999.25    -999.25    -999.25
  1292.3510  4818.0371 4818037.0000    -999.25     8.5000     8.9125     8.9125   136.9312    -999.25    -999.25    77.6418  1292.3511     0.4771     5.6718    -999.25    -999.25    -999.25    -999.25 15807.2080     2.1645     0.9559     0.9559     0.9136     0.5933   -70.1875    -999.25    -999.25    -999.25 -1201.2246   153.4967    -999.25    -999.25    -999.25
  1292.5034  4827.6089 4827609.0000    -999.25     8.5000     8.9629     8.9629   136.9312    -999.25    -999.25    80.6864  1292.5034     0.4971     5.6258    -999.25    -999.25    -999.25    -999.25 15838.6123     2.1688     0.9768     0.9768     0.9541     0.5836   -70.3750    -999.25    -999.25    -999.25 -1201.3744   153.5054    -999.25    -999.25    -999.25
  1292.6558  4826.0508 4826051.0000    -999.25     8.5000     8.9164     8.9164   136.9312    -999.25    -999.25    76.3139  1292.6559     0.4895     5.6387    -999.25    -999.25    -999.25    -999.25 15833.5000     2.1681     0.9789     0.9789     0.9583     0.6131   -69.8125    -999.25    -999.25    -999.25 -1201.5242   153.5141    -999.25    -999.25    -999.25
  1292.8082  4793.7749 4793775.0000    -999.25     8.5000     8.8781     8.8781   136.9312    -999.25    -999.25    77.3040  1292.8082     0.4763     5.7918    -999.25    -999.25    -999.25    -999.25 15727.6084     2.1536     0.9881     0.9881     0.9763     0.6414   -70.0000    -999.25    -999.25    -999.25 -1201.6740   153.5227    -999.25    -999.25    -999.25
  1292.9606  4775.5215 4775521.5000    -999.25     8.5000     8.8887     8.8887   136.9312    -999.25    -999.25    73.7764  1292.9606     0.4590     5.9605    -999.25    -999.25    -999.25    -999.25 15667.7207     2.1454     0.9891     0.9891     0.9784     0.6316   -70.1250    -999.25    -999.25    -999.25 -1201.8237   153.5314    -999.25    -999.25    -999.25
  1293.1130  4801.7876 4801787.5000    -999.25     8.5000     8.8284     8.8284   136.9312    -999.25    -999.25    75.2097  1293.1130     0.5009     5.8004    -999.25    -999.25    -999.25    -999.25 15753.8965     2.1572     0.9798     0.9798     0.9600     0.5944   -69.9375    -999.25    -999.25    -999.25 -1201.9735   153.5401    -999.25    -999.25    -999.25
  1293.2654  4827.1636 4827163.5000    -999.25     8.5000     8.8184     8.8184   136.9312    -999.25    -999.25    73.5070  1293.2654     0.4957     5.6365    -999.25    -999.25    -999.25    -999.25 15837.1514     2.1686     0.9712     0.9712     0.9432     0.6459   -70.0625    -999.25    -999.25    -999.25 -1202.1233   153.5487    -999.25    -999.25    -999.25
  1293.4178  4815.5884 4815588.5000    -999.25     8.5000     8.8322     8.8322   136.9312    -999.25    -999.25    71.9597  1293.4178     0.5231     5.6220    -999.25    -999.25    -999.25    -999.25 15799.1748     2.1634     0.9644     0.9644     0.9300     0.5175   -70.5625    -999.25    -999.25    -999.25 -1202.2731   153.5574    -999.25    -999.25    -999.25
  1293.5702  4818.9272 4818927.0000    -999.25     8.5000     8.8184     8.8184   136.9312    -999.25    -999.25    74.4998  1293.5702     0.4643     5.6782    -999.25    -999.25    -999.25    -999.25 15810.1279     2.1649     0.9562     0.9562     0.9144     0.6030   -70.6250    -999.25    -999.25    -999.25 -1202.4229   153.5661    -999.25    -999.25    -999.25
