~Version ---------------------------------------------------
VERS. 2.0 : CWLS log ASCII Standard -VERSION 2.0
WRAP.  NO : 
~Well ------------------------------------------------------
STRT.m                                                1171.1084 : 
STOP.m                                                  1705.88 : 
STEP.m                                                   0.1524 : 
NULL.                                                   -999.25 : 
COMP.                                                           : COMPANY
WELL.                                                   Well-12 : WELL
FLD .                                                           : FIELD
LOC .                                                           : LOCATION
SRVC.                                                           : SERVICE COMPANY
DATE. 2021-01-20 14:34:05   : Log Export Date {yyyy-MM-dd HH:mm : ss}
PROV.                                                           : PROVINCE
UWI .                                                   Well-12 : UNIQUE WELL ID
API .                                                           : API NUMBER
~Curve Information -----------------------------------------
DEPTH             .m        : DEPTH
ACOUSTICIMPEDANCE1.kPa.s/m  : ACOUSTICIMPEDANCE1
AI                .kPa.s/m  : AI
AVG_PIGN          .m3/m3    : AVG_PIGN
DT                .us/ft    : DT
FACIES            ._        : FACIES
FLD1              ._        : FLD1
GR                .gAPI     : GR
HDRS              .ohm.m    : HDRS
HMRS              .ohm.m    : HMRS
DEPTH_1           .m        : DEPTH_1
NPHI              .m3/m3    : NPHI
ONE-WAYTIME1      .ms       : ONE-WAYTIME1
PERF_INT          ._        : PERF_INT
PERMEABILITY      .mD       : PERMEABILITY
PIGN              .m3/m3    : PIGN
PIGN_MODELLING    .m3/m3    : PIGN_MODELLING
PIMP              .kPa.s/m  : PIMP
RHOB              .g/cm3    : RHOB
RT_MODELLING      .ohm.m    : RT_MODELLING
RT_POWER          .ohm.m    : RT_POWER
SP                .mV       : SP
SUWI              ._        : SUWI
SUWI_MODELLING    ._        : SUWI_MODELLING
SXWI              ._        : SXWI
TDVSS             .m        : TDVSS
TEMP              .K        : TEMP
VCL               .%        : VCL
WATER_VOL         ._        : WATER_VOL
ZLT               ._        : ZLT
~Params ----------------------------------------------------
~Other -----------------------------------------------------
~ASCII -----------------------------------------------------
# ...
  1662.5984  7279.0884 7279088.5000    -999.25   114.1217     0.0000    -999.25   169.8537     4.1172     4.1121  1662.5984     0.5552  -770.6420    -999.25     0.0708     0.0349     0.0349 23881.5234     2.7254     4.1172    16.9513    87.0645     1.0000     1.0000     1.0000 -1580.1184   172.5731    68.5860     0.0349    22.0000
  1662.7508  7852.4351 7852435.0000    -999.25   107.0506     0.0000    -999.25   176.4916     3.8525     3.8774  1662.7507     0.5555  -770.7164    -999.25     0.0574     0.0301     0.0301 25762.5820     2.7579     3.8525    14.8418    86.7800     1.0000     1.0000     1.0000 -1580.2708   172.5816    74.8580     0.0301    22.0000
  1662.9032  8361.4883 8361488.0000    -999.25   100.4130     0.0000    -999.25   182.5817     3.7537     3.8601  1662.9032     0.5797  -770.7907    -999.25     0.0226     0.0353     0.0353 27432.7031     2.7546     3.7537    14.0903    86.4170     1.0000     1.0000     1.0000 -1580.4232   172.5901    77.3920     0.0353    22.0000
  1663.0556  7989.1064 7989106.5000    -999.25   100.1298     0.0000    -999.25   186.8141     3.8156     3.9685  1663.0555     0.5903  -770.8651    -999.25     0.0053     0.0492     0.0492 26210.9785     2.6245     3.8156    14.5588    85.9923     1.0000     1.0000     1.0000 -1580.5756   172.5986    73.0040     0.0492    22.0000
  1663.2080  7240.5801 7240580.5000    -999.25   104.9792     0.0000    -999.25   188.6813     3.8923     3.9795  1663.2080     0.6003  -770.9393    -999.25     0.0101     0.0647     0.0647 23755.1855     2.4938     3.8923    15.1500    85.7415     1.0000     1.0000     1.0000 -1580.7280   172.6071    63.4830     0.0647    22.0000
  1663.3604  6604.2852 6604285.0000    -999.25   110.2337     0.0000    -999.25   188.5695     3.7256     3.6890  1663.3604     0.5946  -771.0137    -999.25     0.0513     0.0833     0.0833 21667.6016     2.3885     3.7256    13.8801    85.7127     1.0000     1.0000     1.0000 -1580.8804   172.6155    56.8650     0.0833    22.0000
  1663.5128  6353.1943 6353194.0000    -999.25   112.3355     0.0000    -999.25   187.3147     3.4365     3.4327  1663.5128     0.5938  -771.0880    -999.25     0.0861     0.0865     0.0865 20843.8125     2.3415     3.4365    11.8095    85.9828     1.0000     1.0000     1.0000 -1581.0327   172.6240    56.7560     0.0865    22.0000
  1663.6652  6616.4951 6616587.0000    -999.25   109.8368     0.0000    -999.25   185.0171     3.4357     3.4317  1663.6652     0.5949  -771.1624    -999.25     0.0382     0.0766     0.0766 21707.9629     2.3843     3.4357    11.8040    86.3186     1.0000     1.0000     1.0000 -1581.1852   172.6325    61.6970     0.0766    22.0000
  1663.8176  7194.4438 7194444.0000    -999.25   104.6822     0.0000    -999.25   181.5130     3.7968     3.8589  1663.8176     0.6056  -771.2366    -999.25     0.0190     0.0633     0.0633 23603.8184     2.4709     3.7968    14.4157    86.7431     1.0000     1.0000     1.0000 -1581.3375   172.6410    68.3440     0.0633    22.0000
  1663.9700  7958.3296 7958240.5000    -999.25    99.4140     0.0000    -999.25   178.1506     4.2699     4.3909  1663.9700     0.6029  -771.3110    -999.25     0.0012     0.0508     0.0508 26109.7148     2.5957     4.2699    18.2320    86.9341     1.0000     1.0000     1.0000 -1581.4900   172.6495    72.8740     0.0508    22.0000
  1664.1224  8413.3203 8413320.0000    -999.25    96.6389     0.0000    -999.25   177.4364     4.3576     4.2843  1664.1223     0.5963  -771.3853    -999.25     0.0063     0.0450     0.0450 27602.7559     2.6675     4.3576    18.9887    87.0163     1.0000     1.0000     1.0000 -1581.6423   172.6580    71.8520     0.0450    22.0000
  1664.2747  8321.3945 8321394.5000    -999.25    97.2928     0.0000    -999.25   180.0340     3.8225     3.7632  1664.2747     0.5519  -771.4596    -999.25     0.0610     0.0523     0.0523 27301.1621     2.6562     3.8225    14.6118    86.9486     1.0000     1.0000     1.0000 -1581.7947   172.6665    65.4878     0.0523    22.0000
  1664.4272  7699.2700 7699270.0000    -999.25   101.0963     0.0000    -999.25   183.5041     3.4924     3.6042  1664.4271     0.5286  -771.5340    -999.25     0.1936     0.0647     0.0647 25260.0723     2.5537     3.4924    12.1969    87.0198     1.0000     1.0000     1.0000 -1581.9471   172.6749    57.4100     0.0647    22.0000
  1664.5796  7014.8574 7014857.5000    -999.25   106.0152     0.0000    -999.25   184.7742     3.5420     3.7290  1664.5796     0.5232  -771.6083    -999.25     0.3916     0.0717     0.0717 23014.6250     2.4399     3.5420    12.5458    87.1217     1.0000     1.0000     1.0000 -1582.0996   172.6834    51.9960     0.0717    22.0000
  1664.7320  6893.0205 6893020.5000    -999.25   107.5309     0.0000    -999.25   182.9705     3.8310     3.9507  1664.7319     0.5191  -771.6826    -999.25     0.3221     0.0696     0.0696 22614.8965     2.4318     3.8310    14.6766    87.3451     1.0000     1.0000     1.0000 -1582.2520   172.6919    52.6380     0.0696    22.0000
  1664.8844  7239.1411 7239141.5000    -999.25   104.8948     0.0000    -999.25   179.8898     4.1834     4.1940  1664.8844     0.5202  -771.7570    -999.25     0.1494     0.0605     0.0605 23750.4629     2.4913     4.1834    17.5008    87.4524     1.0000     1.0000     1.0000 -1582.4044   172.7004    58.1290     0.0605    22.0000
  1665.0368  7543.3276 7543327.5000    -999.25   103.9661     0.0000    -999.25   177.8278     4.3213     4.3014  1665.0367     0.5452  -771.8313    -999.25     0.0566     0.0505     0.0505 24748.4512     2.5730     4.3213    18.6736    87.4691     1.0000     1.0000     1.0000 -1582.5568   172.7089    65.2040     0.0505    22.0000
  1665.1892  7414.3301 7414330.0000    -999.25   108.6444     0.0000    -999.25   177.5804     4.1713     4.2609  1665.1892     0.5724  -771.9056    -999.25     0.0258     0.0432     0.0432 24325.2305     2.6428     4.1713    17.3997    87.3913     1.0000     1.0000     1.0000 -1582.7092   172.7174    70.3920     0.0432    22.0000
  1665.3416  7084.3550 7084355.0000    -999.25   115.4086     0.0000    -999.25   178.9251     4.0523     4.1455  1665.3416     0.5927  -771.9799    -999.25     0.0058     0.0359     0.0359 23242.6348     2.6824     4.0523    16.4211    87.3634     1.0000     1.0000     1.0000 -1582.8616   172.7259    74.2400     0.0359    22.0000
  1665.4940  6993.7759 6993775.5000    -999.25   118.2587     0.0000    -999.25   182.3296     4.0680     4.1134  1665.4940     0.6036  -772.0543    -999.25     0.0009     0.0257     0.0257 22945.4590     2.7135     4.0680    16.5486    87.4917     1.0000     1.0000     1.0000 -1583.0139   172.7343    78.0200     0.0257    22.0000
  1665.6464  7098.3594 7098248.0000    -999.25   116.3446     0.0000    -999.25   189.2714     3.9797     4.0682  1665.6464     0.5905  -772.1286    -999.25     0.0026     0.0193     0.0193 23288.2148     2.7095     3.9797    15.8380    87.6358     1.0000     1.0000     1.0000 -1583.1664   172.7428    78.4200     0.0193    22.0000
  1665.7988  7089.8931 7089893.5000    -999.25   113.7450     0.0000    -999.25   199.8531     3.6711     3.7153  1665.7988     0.5220  -772.2029    -999.25     0.0078     0.0194     0.0194 23260.8047     2.6458     3.6711    13.4770    87.7242     1.0000     1.0000     1.0000 -1583.3187   172.7513    73.2770     0.0194    22.0000
  1665.9512  6939.0806 6939105.0000    -999.25   113.4586     0.0000    -999.25   211.2914     3.2547     3.2075  1665.9512     0.4346  -772.2772    -999.25     0.0301     0.0263     0.0263 22766.0918     2.5830     3.2547    10.5931    87.7468     1.0000     1.0000     1.0000 -1583.4712   172.7598    67.6870     0.0263    22.0000
  1666.1036  6733.4658 6733466.0000    -999.25   114.6463     0.0000    -999.25   219.2401     2.9412     2.8903  1666.1035     0.4176  -772.3516    -999.25     0.1419     0.0401     0.0401 22091.4238     2.5327     2.9412     8.6507    87.7390     1.0000     1.0000     1.0000 -1583.6235   172.7683    64.0150     0.0401    22.0000
  1666.2560  6491.4087 6491408.5000    -999.25   117.4094     0.0000    -999.25   220.8032     2.8203     2.9102  1666.2560     0.4090  -772.4259    -999.25     0.2273     0.0476     0.0476 21297.2715     2.5005     2.8203     7.9541    87.7758     1.0000     1.0000     1.0000 -1583.7760   172.7768    61.4520     0.0476    22.0000
