~Version ---------------------------------------------------
VERS. 2.0 : CWLS log ASCII Standard -VERSION 2.0
WRAP.  NO : 
~Well ------------------------------------------------------
STRT.m                                                1290.3698 : 
STOP.m                                                1526.7422 : 
STEP.m                                                   0.1524 : 
NULL.                                                   -999.25 : 
COMP.                                                           : COMPANY
WELL.                                                   Well-18 : WELL
FLD .                                                           : FIELD
LOC .                                                           : LOCATION
SRVC.                                                           : SERVICE COMPANY
DATE. 2021-01-20 14:34:10   : Log Export Date {yyyy-MM-dd HH:mm : ss}
PROV.                                                           : PROVINCE
UWI .                                                   Well-18 : UNIQUE WELL ID
API .                                                           : API NUMBER
~Curve Information -----------------------------------------
DEPTH             .m        : DEPTH
ACOUSTICIMPEDANCE1.kPa.s/m  : ACOUSTICIMPEDANCE1
AI                .kPa.s/m  : AI
AVG_PIGN          .m3/m3    : AVG_PIGN
BS                .in       : BS
CALI              .in       : CALI
CALI[DERIVED]1    .in       : CALI[DERIVED]1
DT                .us/ft    : DT
FACIES            ._        : FACIES
FLD1              ._        : FLD1
GR                .gAPI     : GR
DEPTH_1           .m        : DEPTH_1
NPHI              .m3/m3    : NPHI
PEF               .b/e      : PEF
PERF_INT          ._        : PERF_INT
PHIT              .m3/m3    : PHIT
PIGN              .m3/m3    : PIGN
PIGN_MODELLING    .m3/m3    : PIGN_MODELLING
PIMP              .kPa.s/m  : PIMP
RHOB              .g/cm3    : RHOB
LLD               .ohm.m    : LLD
RT_MODELLING      .ohm.m    : RT_MODELLING
RT_POWER          .ohm.m    : RT_POWER
RXO               .ohm.m    : RXO
SP                .mV       : SP
SUWI              ._        : SUWI
SUWI_MODELLING    ._        : SUWI_MODELLING
SXWI              ._        : SXWI
TDVSS             .m        : TDVSS
TEMP              .K        : TEMP
VCL               .%        : VCL
WATER_VOL         ._        : WATER_VOL
ZLT               ._        : ZLT
~Params ----------------------------------------------------
~Other -----------------------------------------------------
~ASCII -----------------------------------------------------
# ...
  1525.0658  6242.8984 6242898.5000    -999.25     8.5000     1.7755     1.7755   113.3730     0.0000    -999.25    63.3097  1525.0658     0.9876     4.6228    -999.25    -999.25    -999.25    -999.25 20481.9512     2.3221    82.1182    82.1182  6743.4043     0.0965   -61.3750    -999.25    -999.25    -999.25 -1430.8040   166.7314    -999.25    -999.25    24.0000
  1525.2182  6305.0020 6305002.0000    -999.25     8.5000     1.7755     1.7755   113.3730     0.0000    -999.25    63.3097  1525.2183     0.9884     4.5669    -999.25    -999.25    -999.25    -999.25 20685.7012     2.3452    82.1181    82.1181  6743.3804     0.0966   -61.3750    -999.25    -999.25    -999.25 -1430.9550   166.7400    -999.25    -999.25    24.0000
  1525.3706  6457.1694 6457169.5000    -999.25     8.5000     1.7755     1.7755   113.3730     0.0000    -999.25    63.3097  1525.3706     0.9879     4.9316    -999.25    -999.25    -999.25    -999.25 21184.9395     2.4018    82.1180    82.1180  6743.3579     0.0966   -61.3750    -999.25    -999.25    -999.25 -1431.1061   166.7487    -999.25    -999.25    24.0000
  1525.5230  6514.9712 6514971.5000    -999.25     8.5000     1.7755     1.7755   113.3730     0.0000    -999.25    63.3097  1525.5231     0.9874     5.2136    -999.25    -999.25    -999.25    -999.25 21374.5781     2.4233    82.1178    82.1178  6743.3354     0.0966   -61.3750    -999.25    -999.25    -999.25 -1431.2571   166.7574    -999.25    -999.25    24.0000
  1525.6754  6395.6025 6395602.5000    -999.25     8.5000     1.7755     1.7755   113.3730     0.0000    -999.25    63.3097  1525.6754     0.9883     6.0816    -999.25    -999.25    -999.25    -999.25 20982.9473     2.3789    82.1177    82.1177  6743.3140     0.0966   -61.3750    -999.25    -999.25    -999.25 -1431.4082   166.7660    -999.25    -999.25    24.0000
  1525.8278  6216.0137 6216013.5000    -999.25     8.5000     1.7755     1.7755   113.3730     0.0000    -999.25    63.3097  1525.8279     0.9897     5.9051    -999.25    -999.25    -999.25    -999.25 20393.7461     2.3121    82.1175    82.1175  6743.2900     0.0966   -61.3750    -999.25    -999.25    -999.25 -1431.5592   166.7747    -999.25    -999.25    24.0000
  1525.9802  6241.5542 6241554.5000    -999.25     8.5000     1.7755     1.7755   113.3730     0.0000    -999.25    63.3097  1525.9802     0.9885     6.1776    -999.25    -999.25    -999.25    -999.25 20477.5410     2.3216    82.1174    82.1174  6743.2661     0.0966   -61.3750    -999.25    -999.25    -999.25 -1431.7103   166.7834    -999.25    -999.25    24.0000
  1526.1326  6380.2788 6380278.5000    -999.25     8.5000     1.7755     1.7755   113.3730     0.0000    -999.25    63.3097  1526.1326     0.9874     5.6190    -999.25    -999.25    -999.25    -999.25 20932.6719     2.3732    82.1173    82.1173  6743.2451     0.0966   -61.3750    -999.25    -999.25    -999.25 -1431.8613   166.7920    -999.25    -999.25    24.0000
  1526.2850  6688.3779 6688378.0000    -999.25     8.5000     1.7755     1.7755   113.3730     0.0000    -999.25    63.3097  1526.2850     0.9888     6.0762    -999.25    -999.25    -999.25    -999.25 21943.4980     2.4878    82.1171    82.1171  6743.2227     0.0966   -61.3750    -999.25    -999.25    -999.25 -1432.0125   166.8007    -999.25    -999.25    24.0000
  1526.4374  6931.9526 6931953.0000    -999.25     8.5000     1.7755     1.7755   113.3730     0.0000    -999.25    63.3097  1526.4374     0.9949     7.1301    -999.25    -999.25    -999.25    -999.25 22742.6270     2.5784    82.1170    82.1170  6743.1997     0.0966   -61.3750    -999.25    -999.25    -999.25 -1432.1635   166.8094    -999.25    -999.25    -999.25
  1526.5898  7029.8135 7029813.5000    -999.25     8.5000     1.7755     1.7755   113.3730     0.0000    -999.25    63.3097  1526.5898     0.9980     8.6485    -999.25    -999.25    -999.25    -999.25 23063.6914     2.6148    82.1168    82.1168  6743.1748     0.0966   -61.3750    -999.25    -999.25    -999.25 -1432.3146   166.8180    -999.25    -999.25    -999.25
  1526.7422  7065.5703 7065570.5000    -999.25     8.5000     1.7755     1.7755   113.3730    -999.25    -999.25    63.3097  1526.7422     0.9951     9.2753    -999.25    -999.25    -999.25    -999.25 23181.0059     2.6281    82.1167    82.1167  6743.1533     0.0966   -61.3750    -999.25    -999.25    -999.25 -1432.4656   166.8267    -999.25    -999.25    -999.25
