~Version ---------------------------------------------------
VERS. 2.0 : CWLS log ASCII Standard -VERSION 2.0
WRAP.  NO : 
~Well ------------------------------------------------------
STRT.m                                                1171.1084 : 
STOP.m                                                  1705.88 : 
STEP.m                                                   0.1524 : 
NULL.                                                   -999.25 : 
COMP.                                                           : COMPANY
WELL.                                                   Well-12 : WELL
FLD .                                                           : FIELD
LOC .                                                           : LOCATION
SRVC.                                                           : SERVICE COMPANY
DATE. 2021-01-20 14:34:05   : Log Export Date {yyyy-MM-dd HH:mm : ss}
PROV.                                                           : PROVINCE
UWI .                                                   Well-12 : UNIQUE WELL ID
API .                                                           : API NUMBER
~Curve Information -----------------------------------------
DEPTH             .m        : DEPTH
ACOUSTICIMPEDANCE1.kPa.s/m  : ACOUSTICIMPEDANCE1
AI                .kPa.s/m  : AI
AVG_PIGN          .m3/m3    : AVG_PIGN
DT                .us/ft    : DT
FACIES            ._        : FACIES
FLD1              ._        : FLD1
GR                .gAPI     : GR
HDRS              .ohm.m    : HDRS
HMRS              .ohm.m    : HMRS
DEPTH_1           .m        : DEPTH_1
NPHI              .m3/m3    : NPHI
ONE-WAYTIME1      .ms       : ONE-WAYTIME1
PERF_INT          ._        : PERF_INT
PERMEABILITY      .mD       : PERMEABILITY
PIGN              .m3/m3    : PIGN
PIGN_MODELLING    .m3/m3    : PIGN_MODELLING
PIMP              .kPa.s/m  : PIMP
RHOB              .g/cm3    : RHOB
RT_MODELLING      .ohm.m    : RT_MODELLING
RT_POWER          .ohm.m    : RT_POWER
SP                .mV       : SP
SUWI              ._        : SUWI
SUWI_MODELLING    ._        : SUWI_MODELLING
SXWI              ._        : SXWI
TDVSS             .m        : TDVSS
TEMP              .K        : TEMP
VCL               .%        : VCL
WATER_VOL         ._        : WATER_VOL
ZLT               ._        : ZLT
~Params ----------------------------------------------------
~Other -----------------------------------------------------
~ASCII -----------------------------------------------------
# ...
  1239.6884  4980.9941 4980994.0000    -999.25   136.8389    -999.25    -999.25   143.5601     1.0358     1.1222  1239.6884     0.6713  -564.3839    -999.25    -999.25    -999.25    -999.25 16341.8438     2.2362     1.0358     1.0729    89.9574    -999.25    -999.25    -999.25 -1157.2084   149.0256    -999.25    -999.25    -999.25
  1239.8408  4966.7363 4966736.5000    -999.25   137.3606    -999.25    -999.25   144.5044     1.0361     1.1219  1239.8408     0.6691  -564.4583    -999.25    -999.25    -999.25    -999.25 16295.0664     2.2383     1.0361     1.0735    90.0889    -999.25    -999.25    -999.25 -1157.3607   149.0341    -999.25    -999.25    -999.25
  1239.9932  4955.2866 4955286.5000    -999.25   137.8256    -999.25    -999.25   145.2192     1.0317     1.1162  1239.9932     0.6598  -564.5326    -999.25    -999.25    -999.25    -999.25 16257.5010     2.2407     1.0317     1.0644    90.0309    -999.25    -999.25    -999.25 -1157.5132   149.0425    -999.25    -999.25    -999.25
  1240.1456  4951.5679 4951567.5000    -999.25   138.1938    -999.25    -999.25   145.6495     1.0224     1.1057  1240.1456     0.6474  -564.6069    -999.25    -999.25    -999.25    -999.25 16245.3008     2.2450     1.0224     1.0453    89.9249    -999.25    -999.25    -999.25 -1157.6655   149.0510    -999.25    -999.25    -999.25
  1240.2980  4934.2383 4934238.5000    -999.25   138.7780    -999.25    -999.25   145.4523     1.0172     1.1003  1240.2980     0.6378  -564.6813    -999.25    -999.25    -999.25    -999.25 16188.4463     2.2466     1.0172     1.0347    89.7630    -999.25    -999.25    -999.25 -1157.8180   149.0595    -999.25    -999.25    -999.25
  1240.4504  4879.5186 4879518.5000    -999.25   139.4910    -999.25    -999.25   144.4704     1.0129     1.0967  1240.4503     0.6287  -564.7556    -999.25    -999.25    -999.25    -999.25 16008.9199     2.2331     1.0129     1.0260    89.6246    -999.25    -999.25    -999.25 -1157.9703   149.0680    -999.25    -999.25    -999.25
  1240.6028  4831.6353 4831635.5000    -999.25   139.8956    -999.25    -999.25   143.4938     0.9999     1.0823  1240.6028     0.6214  -564.8299    -999.25    -999.25    -999.25    -999.25 15851.8213     2.2176     0.9999     0.9998    89.5982    -999.25    -999.25    -999.25 -1158.1228   149.0765    -999.25    -999.25    -999.25
  1240.7552  4809.5503 4809550.5000    -999.25   139.9993    -999.25    -999.25   143.7540     0.9781     1.0559  1240.7551     0.6182  -564.9042    -999.25    -999.25    -999.25    -999.25 15779.3652     2.2091     0.9781     0.9567    89.6428    -999.25    -999.25    -999.25 -1158.2751   149.0849    -999.25    -999.25    -999.25
  1240.9076  4803.7905 4803790.5000    -999.25   140.1164    -999.25    -999.25   145.4255     0.9599     1.0333  1240.9076     0.6225  -564.9786    -999.25    -999.25    -999.25    -999.25 15760.4678     2.2083     0.9599     0.9214    89.7307    -999.25    -999.25    -999.25 -1158.4276   149.0934    -999.25    -999.25    -999.25
  1241.0600  4821.5557 4821555.5000    -999.25   140.2070    -999.25    -999.25   147.4792     0.9520     1.0230  1241.0599     0.6347  -565.0529    -999.25    -999.25    -999.25    -999.25 15818.7520     2.2179     0.9520     0.9063    89.7215    -999.25    -999.25    -999.25 -1158.5800   149.1019    -999.25    -999.25    -999.25
  1241.2124  4848.5713 4848571.0000    -999.25   140.1236    -999.25    -999.25   148.8252     0.9481     1.0195  1241.2124     0.6393  -565.1272    -999.25    -999.25    -999.25    -999.25 15907.3857     2.2290     0.9481     0.8989    89.6658    -999.25    -999.25    -999.25 -1158.7324   149.1104    -999.25    -999.25    -999.25
  1241.3648  4877.2681 4877268.0000    -999.25   139.8491    -999.25    -999.25   149.4450     0.9449     1.0179  1241.3647     0.6523  -565.2015    -999.25    -999.25    -999.25    -999.25 16001.5352     2.2378     0.9449     0.8928    89.3094    -999.25    -999.25    -999.25 -1158.8848   149.1189    -999.25    -999.25    -999.25
  1241.5172  4886.1567 4886157.0000    -999.25   139.6009    -999.25    -999.25   150.2285     0.9439     1.0169  1241.5172     0.6769  -565.2759    -999.25    -999.25    -999.25    -999.25 16030.6982     2.2379     0.9439     0.8909    88.6798    -999.25    -999.25    -999.25 -1159.0372   149.1274    -999.25    -999.25    -999.25
  1241.6696  4862.3984 4862398.0000    -999.25   139.5747    -999.25    -999.25   151.6965     0.9456     1.0186  1241.6696     0.6722  -565.3502    -999.25    -999.25    -999.25    -999.25 15952.7500     2.2266     0.9456     0.8942    87.5414    -999.25    -999.25    -999.25 -1159.1896   149.1359    -999.25    -999.25    -999.25
  1241.8220  4841.9346 4841934.5000    -999.25   139.6169    -999.25    -999.25   153.6852     0.9520     1.0269  1241.8220     0.6506  -565.4245    -999.25    -999.25    -999.25    -999.25 15885.6113     2.2179     0.9520     0.9063    85.9883    -999.25    -999.25    -999.25 -1159.3419   149.1444    -999.25    -999.25    -999.25
  1241.9744  4812.9639 4812964.0000    -999.25   139.5137    -999.25    -999.25   156.1122     0.9695     1.0476  1241.9744     0.6410  -565.4988    -999.25    -999.25    -999.25    -999.25 15790.5645     2.2030     0.9695     0.9399    83.9736    -999.25    -999.25    -999.25 -1159.4944   149.1528    -999.25    -999.25    -999.25
  1242.1268  4779.4819 4779482.0000    -999.25   138.6225    -999.25    -999.25   158.6806     1.0007     1.0825  1242.1268     0.6551  -565.5732    -999.25    -999.25    -999.25    -999.25 15680.7148     2.1737     1.0007     1.0014    82.0287    -999.25    -999.25    -999.25 -1159.6467   149.1613    -999.25    -999.25    -999.25
  1242.2792  4848.8960 4848896.0000    -999.25   136.2232    -999.25    -999.25   159.7682     1.0409     1.1259  1242.2792     0.6807  -565.6475    -999.25    -999.25    -999.25    -999.25 15908.4512     2.1671     1.0409     1.0835    80.5976    -999.25    -999.25    -999.25 -1159.7992   149.1698    -999.25    -999.25    -999.25
  1242.4316  5029.7295 5029729.5000    -999.25   132.7739    -999.25    -999.25   157.2275     1.0910     1.1792  1242.4315     0.6714  -565.7218    -999.25    -999.25    -999.25    -999.25 16501.7383     2.1910     1.0910     1.1903    80.1646    -999.25    -999.25    -999.25 -1159.9515   149.1783    -999.25    -999.25    -999.25
  1242.5840  5200.7261 5200726.0000    -999.25   129.9556    -999.25    -999.25   151.4316     1.1520     1.2486  1242.5840     0.6054  -565.7961    -999.25    -999.25    -999.25    -999.25 17062.7500     2.2174     1.1520     1.3271    80.8692    -999.25    -999.25    -999.25 -1160.1040   149.1868    -999.25    -999.25    -999.25
  1242.7364  5262.4512 5262451.5000    -999.25   129.7345    -999.25    -999.25   146.6886     1.2072     1.3125  1242.7363     0.5351  -565.8705    -999.25    -999.25    -999.25    -999.25 17265.2598     2.2399     1.2072     1.4573    82.4311    -999.25    -999.25    -999.25 -1160.2563   149.1953    -999.25    -999.25    -999.25
  1242.8888  5174.8975 5174897.5000    -999.25   132.2004    -999.25    -999.25   148.0174     1.1946     1.2962  1242.8888     0.5361  -565.9448    -999.25    -999.25    -999.25    -999.25 16978.0098     2.2445     1.1946     1.4271    84.5275    -999.25    -999.25    -999.25 -1160.4088   149.2038    -999.25    -999.25    -999.25
  1243.0412  4912.1362 4912136.0000    -999.25   136.5419    -999.25    -999.25   156.2837     1.0450     1.1286  1243.0411     0.6018  -566.0192    -999.25    -999.25    -999.25    -999.25 16115.9326     2.2005     1.0450     1.0920    86.3522    -999.25    -999.25    -999.25 -1160.5612   149.2122    -999.25    -999.25    -999.25
  1243.1936  4639.9429 4639943.0000    -999.25   140.9783    -999.25    -999.25   167.0216     0.8597     0.9265  1243.1936     0.6865  -566.0934    -999.25    -999.25    -999.25    -999.25 15222.9102     2.1461     0.8597     0.7391    87.8217    -999.25    -999.25    -999.25 -1160.7136   149.2207    -999.25    -999.25    -999.25
  1243.3460  4485.1738 4485174.0000    -999.25   143.9470    -999.25    -999.25   175.0155     0.7596     0.8117  1243.3459     0.7314  -566.1678    -999.25    -999.25    -999.25    -999.25 14715.1377     2.1182     0.7596     0.5770    88.7030    -999.25    -999.25    -999.25 -1160.8660   149.2292    -999.25    -999.25    -999.25
