~Version ---------------------------------------------------
VERS. 2.0 : CWLS log ASCII Standard -VERSION 2.0
WRAP.  NO : 
~Well ------------------------------------------------------
STRT.m                                                1249.0292 : 
STOP.m                                                1575.3176 : 
STEP.m                                                   0.1524 : 
NULL.                                                   -999.25 : 
COMP.                                                           : COMPANY
WELL.                                                   Well-10 : WELL
FLD .                                                           : FIELD
LOC .                                                           : LOCATION
SRVC.                                                           : SERVICE COMPANY
DATE. 2021-01-20 14:34:04   : Log Export Date {yyyy-MM-dd HH:mm : ss}
PROV.                                                           : PROVINCE
UWI .                                                   Well-10 : UNIQUE WELL ID
API .                                                           : API NUMBER
~Curve Information -----------------------------------------
DEPTH             .m        : DEPTH
ACOUSTICIMPEDANCE1.kPa.s/m  : ACOUSTICIMPEDANCE1
AI                .kPa.s/m  : AI
AVG_PIGN          .m3/m3    : AVG_PIGN
CALI              .in       : CALI
CALI[DERIVED]1    .in       : CALI[DERIVED]1
DFL               .ohm.m    : DFL
DT                .us/ft    : DT
FACIES            ._        : FACIES
FLD1              ._        : FLD1
GR                .gAPI     : GR
HDRS              .ohm.m    : HDRS
HMRS              .ohm.m    : HMRS
DEPTH_1           .m        : DEPTH_1
NPHI              .m3/m3    : NPHI
PEF               .b/e      : PEF
PERF_INT          ._        : PERF_INT
PERMEABILITY      .mD       : PERMEABILITY
PHIT              .m3/m3    : PHIT
PIGN              .m3/m3    : PIGN
PIGN_MODELLING    .m3/m3    : PIGN_MODELLING
PIMP              .kPa.s/m  : PIMP
RHOB              .g/cm3    : RHOB
RT_MODELLING      .ohm.m    : RT_MODELLING
RT_POWER          .ohm.m    : RT_POWER
SP                .mV       : SP
SUWI              ._        : SUWI
SUWI_MODELLING    ._        : SUWI_MODELLING
SXWI              ._        : SXWI
TDVSS             .m        : TDVSS
TEMP              .K        : TEMP
VCL               .%        : VCL
WATER_VOL         ._        : WATER_VOL
ZLT               ._        : ZLT
~Params ----------------------------------------------------
~Other -----------------------------------------------------
~ASCII -----------------------------------------------------
# ...
  1527.3116  6251.6333 6251633.5000    -999.25     8.2440     8.2440     5.2098   115.2721     0.0000    -999.25    83.4366     3.5918     3.6258  1527.3116     0.4539     5.3827    -999.25     1.9247     0.0311     0.0311     0.0311 20510.6094     2.3643     5.2098    27.1420   106.3970     1.0000     1.0000     1.0000 -1447.3116   175.5294    59.2350     0.0311    25.0000
  1527.4640  6634.3306 6634330.5000    -999.25     8.2260     8.2260     5.5409   112.9183     0.0000    -999.25    81.8607     3.5036     3.4843  1527.4640     0.4795     6.3154    -999.25     1.9294     0.0257     0.0257     0.0257 21766.1758     2.4578     5.5409    30.7016   106.3566     1.0000     1.0000     1.0000 -1447.4640   175.5389    56.4280     0.0257    25.0000
  1527.6164  6913.7983 6913798.5000    -999.25     8.2350     8.2350     4.8651   111.5458     0.0000    -999.25    79.6378     3.3061     3.2580  1527.6165     0.4765     7.0174    -999.25     1.9341     0.0259     0.0259     0.0259 22683.0664     2.5302     4.8651    23.6692   106.5734     1.0000     1.0000     1.0000 -1447.6165   175.5484    55.8010     0.0259    25.0000
  1527.7688  7045.3159 7045315.5000    -999.25     8.2463     8.2463     4.4325   111.0253     0.0000    -999.25    77.4183     3.2378     3.2117  1527.7688     0.4808     7.3441    -999.25     1.9387     0.0271     0.0271     0.0271 23114.5527     2.5663     4.4325    19.6471   106.9576     1.0000     1.0000     1.0000 -1447.7688   175.5580    57.9640     0.0271    25.0000
  1527.9212  6797.7095 6797709.5000    -999.25     8.3172     8.3172     4.2049   115.1322     0.0000    -999.25    76.5097     3.2947     3.3208  1527.9213     0.4603     7.4050    -999.25     1.9434     0.0285     0.0285     0.0285 22302.1953     2.5677     4.2049    17.6812   107.1628     1.0000     1.0000     1.0000 -1447.9213   175.5675    64.1480     0.0285    25.0000
  1528.0736  6248.5146 6248515.0000    -999.25     8.2737     8.2737     4.8664   123.3880     0.0000    -999.25    78.5990     3.2721     3.3499  1528.0736     0.4871     7.1387    -999.25     1.9480     0.0293     0.0293     0.0293 20500.3770     2.5295     4.8664    23.6818   107.4158     1.0000     1.0000     1.0000 -1448.0736   175.5770    72.2820     0.0293    25.0000
  1528.2260  5827.3730 5827373.0000    -999.25     8.3146     8.3146     4.8979   130.3647     0.0000    -999.25    84.0192     2.9730     3.0801  1528.2260     0.4998     6.8580    -999.25     1.9527     0.0292     0.0292     0.0292 19118.6777     2.4924     4.8979    23.9894   107.5518     1.0000     1.0000     1.0000 -1448.2260   175.5866    78.2940     0.0292    25.0000
  1528.3784  5653.7686 5653769.0000    -999.25     8.2846     8.2846     4.0200   133.5428     0.0000    -999.25    90.3716     2.5929     2.6746  1528.3784     0.5293     6.7520    -999.25     1.9574     0.0286     0.0286     0.0286 18549.1094     2.4771     4.0200    16.1604   107.6327     1.0000     1.0000     1.0000 -1448.3784   175.5961    80.8250     0.0286    25.0000
  1528.5308  5516.8711 5516871.0000    -999.25     8.3027     8.3027     3.3425   137.7350     0.0000    -999.25    95.2735     2.4008     2.4532  1528.5308     0.5275     6.7237    -999.25     1.9620     0.0280     0.0280     0.0280 18099.9707     2.4930     3.3425    11.1723   107.8765     1.0000     1.0000     1.0000 -1448.5308   175.6057    81.4270     0.0280    25.0000
  1528.6832  5381.1938 5381194.0000    -999.25     8.2825     8.2825     3.2350   143.6037     0.0000    -999.25    97.2177     2.4385     2.4745  1528.6832     0.5127     6.8908    -999.25     1.9667     0.0282     0.0282     0.0282 17654.8359     2.5353     3.2350    10.4652   108.0348     1.0000     1.0000     1.0000 -1448.6832   175.6152    81.3090     0.0282    25.0000
  1528.8356  5366.9150 5366915.0000    -999.25     8.2658     8.2658     3.6066   145.6328     0.0000    -999.25    95.7663     2.5329     2.5554  1528.8356     0.5021     7.1443    -999.25     1.9713     0.0290     0.0290     0.0290 17607.9883     2.5643     3.6066    13.0076   108.3089     1.0000     1.0000     1.0000 -1448.8356   175.6247    80.9020     0.0290    25.0000
  1528.9880  5499.8599 5499860.0000    -999.25     8.3576     8.3576     3.6981   142.1734     0.0000    -999.25    92.3528     2.5282     2.5365  1528.9880     0.5216     7.2576    -999.25     1.9760     0.0297     0.0297     0.0297 18044.1602     2.5654     3.6981    13.6759   108.5882     1.0000     1.0000     1.0000 -1448.9880   175.6342    80.5230     0.0297    25.0000
  1529.1404  5648.0664 5648066.5000    -999.25     8.3512     8.3512     3.6078   136.0197     0.0000    -999.25    88.8138     2.4174     2.4202  1529.1404     0.5459     7.1843    -999.25     1.9806     0.0298     0.0298     0.0298 18530.4023     2.5205     3.6078    13.0162   108.6348     1.0000     1.0000     1.0000 -1449.1404   175.6438    79.4940     0.0298    25.0000
  1529.2928  5698.6509 5698651.0000    -999.25     8.2396     8.2396     3.1906   130.6618     0.0000    -999.25    85.3940     2.2999     2.3077  1529.2928     0.5406     6.8130    -999.25     1.9853     0.0292     0.0292     0.0292 18696.3613     2.4429     3.1906    10.1799   108.6440     1.0000     1.0000     1.0000 -1449.2928   175.6533    77.6450     0.0292    25.0000
  1529.4452  5676.6509 5676651.0000    -999.25     8.2356     8.2356     3.0592   127.4633     0.0000    -999.25    82.4399     2.3037     2.3204  1529.4452     0.5282     6.1751    -999.25     1.9900     0.0291     0.0291     0.0291 18624.1816     2.3739     3.0592     9.3587   108.4620     1.0000     1.0000     1.0000 -1449.4452   175.6628    76.3320     0.0291    25.0000
  1529.5976  5637.0928 5637092.5000    -999.25     8.2357     8.2357     3.3477   125.9138     0.0000    -999.25    80.3535     2.4890     2.5237  1529.5977     0.5173     5.5312    -999.25     1.9946     0.0296     0.0296     0.0296 18494.3984     2.3287     3.3477    11.2071   108.2121     1.0000     1.0000     1.0000 -1449.5977   175.6724    74.4250     0.0296    25.0000
  1529.7500  5678.2061 5678206.5000    -999.25     8.2302     8.2302     4.1464   124.9860     0.0000    -999.25    78.5839     2.7301     2.7874  1529.7500     0.5336     5.1539    -999.25     1.9993     0.0297     0.0297     0.0297 18629.2852     2.3284     4.1464    17.1926   108.1233     1.0000     1.0000     1.0000 -1449.7500   175.6819    72.9500     0.0297    25.0000
  1529.9024  5756.0039 5756004.0000    -999.25     8.3296     8.3296     4.9685   124.8165     0.0000    -999.25    77.5092     2.7684     2.8323  1529.9025     0.5486     5.1434    -999.25     2.0039     0.0291     0.0291     0.0291 18884.5273     2.3571     4.9685    24.6860   107.9558     1.0000     1.0000     1.0000 -1449.9025   175.6914    72.1220     0.0291    25.0000
  1530.0548  5790.5610 5790561.0000    -999.25     8.3269     8.3269     4.5033   125.4454     0.0000    -999.25    78.4318     2.5993     2.6503  1530.0548     0.5328     5.5501    -999.25     2.0086     0.0284     0.0284     0.0284 18997.9043     2.3832     4.5033    20.2797   107.9241     1.0000     1.0000     1.0000 -1450.0548   175.7010    73.1590     0.0284    25.0000
  1530.2072  5788.8374 5788837.5000    -999.25     8.7743     8.7743     3.6676   125.7302     0.0000    -999.25    80.7185     2.4593     2.4972  1530.2072     0.5168     6.1777    -999.25     2.0132     0.0340     0.0340     0.0340 18992.2480     2.3879     3.6676    13.4513   107.9345     1.0000     1.0000     1.0000 -1450.2072   175.7105    73.6300     0.0340    25.0000
  1530.3596  5787.2402 5787240.0000    -999.25     8.7719     8.7719     3.3995   124.0901     0.0000    -999.25    80.4858     2.4550     2.4901  1530.3596     0.5069     6.7839    -999.25     2.0179     0.0458     0.0458     0.0458 18987.0078     2.3561     3.3995    11.5566   107.8303     1.0000     1.0000     1.0000 -1450.3596   175.7200    68.8140     0.0458    25.0000
  1530.5120  5881.3872 5881387.5000    -999.25     8.7137     8.7137     3.5133   119.9271     0.0000    -999.25    76.9932     2.5445     2.5906  1530.5120     0.5016     7.2526    -999.25     2.0226     0.0612     0.0612     0.0612 19295.8906     2.3141     3.5133    12.3433   107.9430     1.0000     1.0000     1.0000 -1450.5120   175.7296    59.1210     0.0612    25.0000
