~Version ---------------------------------------------------
VERS. 2.0 : CWLS log ASCII Standard -VERSION 2.0
WRAP.  NO : 
~Well ------------------------------------------------------
STRT.m                                                   1260.0 : 
STOP.m                                                1587.9648 : 
STEP.m                                                   0.1524 : 
NULL.                                                   -999.25 : 
COMP.                                                           : COMPANY
WELL.                                                    Well-5 : WELL
FLD .                                                           : FIELD
LOC .                                                           : LOCATION
SRVC.                                                           : SERVICE COMPANY
DATE. 2021-01-20 14:34:00   : Log Export Date {yyyy-MM-dd HH:mm : ss}
PROV.                                                           : PROVINCE
UWI .                                                    Well-5 : UNIQUE WELL ID
API .                                                           : API NUMBER
~Curve Information -----------------------------------------
DEPTH             .m        : DEPTH
ACOUSTICIMPEDANCE1.kPa.s/m  : ACOUSTICIMPEDANCE1
AI                .kPa.s/m  : AI
AVG_PIGN          .m3/m3    : AVG_PIGN
CALI              .in       : CALI
CALI[DERIVED]1    .in       : CALI[DERIVED]1
DT                .us/ft    : DT
FACIES            ._        : FACIES
FLD1              ._        : FLD1
GR                .gAPI     : GR
LLD               .ohm.m    : LLD
LLS               .ohm.m    : LLS
LL3               .ohm.m    : LL3
DEPTH_1           .m        : DEPTH_1
NPHI              .m3/m3    : NPHI
PERF_INT          ._        : PERF_INT
PERMEABILITY      .mD       : PERMEABILITY
PIGN              .m3/m3    : PIGN
PIGN_MODELLING    .m3/m3    : PIGN_MODELLING
PIMP              .kPa.s/m  : PIMP
RHOB              .g/cm3    : RHOB
RT_MODELLING      .ohm.m    : RT_MODELLING
RT_POWER          .ohm.m    : RT_POWER
SP                .mV       : SP
SUWI              ._        : SUWI
SUWI_MODELLING    ._        : SUWI_MODELLING
TDVSS             .m        : TDVSS
VCL               .%        : VCL
WATER_VOL         ._        : WATER_VOL
ZLT               ._        : ZLT
~Params ----------------------------------------------------
~Other -----------------------------------------------------
~ASCII -----------------------------------------------------
# ...
  1303.7818  4857.9873 4857987.5000    -999.25    10.7109    10.7109   138.9015     0.0000    -999.25    52.1384     0.8529     0.8427     1.1063  1303.7817     0.5678    -999.25    -999.25     0.0179     0.0179 15938.2793     2.2139     0.8529     0.7275    22.3642     1.0000     1.0000 -1232.1918    80.2656     0.0179    -999.25
  1303.8912  4916.1636 4917954.0000    -999.25    10.7118    10.7118   137.2484     0.0000    -999.25    52.1121     0.8590     0.8431     1.1017  1303.8912     0.5650    -999.25    -999.25     0.0183     0.0183 16135.0205     2.2137     0.8590     0.7379    22.3248     1.0000     1.0000 -1232.3011    79.8780     0.0183    -999.25
  1303.9342  4941.5239 4941524.0000    -999.25    10.7060    10.7060   136.5987     0.0000    -999.25    51.8227     0.8626     0.8459     1.0975  1303.9342     0.5628    -999.25    -999.25     0.0186     0.0186 16212.3496     2.2146     0.8626     0.7442    22.3085     1.0000     1.0000 -1232.3441    79.5626     0.0186    -999.25
  1304.0436  5077.9009 5078645.0000    -999.25    10.6912    10.6912   133.0654     0.0000    -999.25    51.0864     0.8719     0.8532     1.0870  1304.0436     0.5572    -999.25    -999.25     0.0193     0.0193 16662.2207     2.2168     0.8719     0.7603    22.2668     1.0000     1.0000 -1232.4536    78.7600     0.0193    -999.25
  1304.0866  5132.5410 5132541.0000    -999.25    10.6795    10.6795   131.6766     0.0000    -999.25    50.8098     0.8755     0.8591     1.0829  1304.0865     0.5558    -999.25    -999.25     0.0195     0.0195 16839.0449     2.2173     0.8755     0.7666    22.2510     1.0000     1.0000 -1232.4966    78.5597     0.0195    -999.25
  1304.1960  5304.2119 5302187.5000    -999.25    10.6498    10.6498   127.4834     0.0000    -999.25    50.1060     0.8846     0.8743     1.0726  1304.1960     0.5522    -999.25    -999.25     0.0200     0.0200 17395.6270     2.2185     0.8846     0.7825    22.2108     1.0000     1.0000 -1232.6060    78.0500     0.0200    -999.25
  1304.2390  5368.8672 5368867.5000    -999.25    10.6256    10.6256   125.8352     0.0000    -999.25    50.1753     0.8868     0.8817     1.0871  1304.2390     0.5519    -999.25    -999.25     0.0199     0.0199 17614.3945     2.2165     0.8868     0.7864    22.1872     1.0000     1.0000 -1232.6489    78.0813     0.0199    -999.25
  1304.3484  5501.4521 5496826.0000    -999.25    10.5640    10.5640   122.5222     0.0000    -999.25    50.3517     0.8923     0.9005     1.1238  1304.3484     0.5511    -999.25    -999.25     0.0199     0.0199 18034.2070     2.2114     0.8923     0.7962    22.1270     1.0000     1.0000 -1232.7584    78.1610     0.0199    -999.25
  1304.3914  5547.1206 5547120.5000    -999.25    10.5515    10.5515   121.2200     0.0000    -999.25    50.2774     0.8927     0.9057     1.1376  1304.3914     0.5517    -999.25    -999.25     0.0196     0.0196 18199.2148     2.2061     0.8927     0.7969    22.1113     1.0000     1.0000 -1232.8014    78.4285     0.0196    -999.25
  1304.5008  5507.4146 5504170.0000    -999.25    10.5197    10.5197   121.3419     0.0000    -999.25    50.0883     0.8936     0.9191     1.1726  1304.5007     0.5534    -999.25    -999.25     0.0190     0.0190 18058.3008     2.1925     0.8936     0.7985    22.0713     1.0000     1.0000 -1232.9108    79.1090     0.0190    -999.25
  1304.5438  5487.2886 5487288.5000    -999.25    10.5191    10.5191   121.3898     0.0000    -999.25    49.9436     0.8928     0.9194     1.1775  1304.5437     0.5566    -999.25    -999.25     0.0184     0.0184 18002.9141     2.1854     0.8928     0.7970    22.0620     1.0000     1.0000 -1232.9537    79.7565     0.0184    -999.25
  1304.6532  5292.2803 5297904.5000    -999.25    10.5174    10.5174   124.8151     0.0000    -999.25    49.5753     0.8907     0.9203     1.1898  1304.6532     0.5648    -999.25    -999.25     0.0169     0.0169 17381.5762     2.1672     0.8907     0.7933    22.0382     1.0000     1.0000 -1233.0632    81.4040     0.0169    -999.25
  1304.6962  5223.4663 5223466.5000    -999.25    10.5241    10.5241   126.1614     0.0000    -999.25    49.1908     0.8898     0.9160     1.1891  1304.6962     0.5703    -999.25    -999.25     0.0161     0.0161 17137.3574     2.1621     0.8898     0.7917    22.0311     1.0000     1.0000 -1233.1062    82.2417     0.0161    -999.25
  1304.8056  4988.9058 5000863.5000    -999.25    10.5410    10.5410   131.2993     0.0000    -999.25    48.2127     0.8874     0.9049     1.1872  1304.8055     0.5841    -999.25    -999.25     0.0142     0.0142 16407.0312     2.1491     0.8874     0.7876    22.0131     1.0000     1.0000 -1233.2156    84.3730     0.0142    -999.25
  1304.8486  4913.3687 4913368.5000    -999.25    10.5490    10.5490   133.3187     0.0000    -999.25    47.9294     0.8869     0.8986     1.1810  1304.8485     0.5897    -999.25    -999.25     0.0136     0.0136 16119.9756     2.1491     0.8869     0.7866    22.0177     1.0000     1.0000 -1233.2585    85.0454     0.0136    -999.25
  1304.9580  4751.1582 4760584.0000    -999.25    10.5694    10.5694   137.8727     0.0000    -999.25    47.2084     0.8855     0.8824     1.1654  1304.9580     0.6040    -999.25    -999.25     0.0120     0.0120 15618.7129     2.1491     0.8855     0.7840    22.0295     1.0000     1.0000 -1233.3680    86.7560     0.0120    -999.25
  1305.0010  4700.5312 4700531.5000    -999.25    10.5915    10.5915   139.6626     0.0000    -999.25    47.3126     0.8848     0.8768     1.1532  1305.0010     0.6058    -999.25    -999.25     0.0120     0.0120 15421.6904     2.1538     0.8848     0.7828    22.0436     1.0000     1.0000 -1233.4110    86.7879     0.0120    -999.25
  1305.1104  4638.1245 4641052.5000    -999.25    10.6477    10.6477   142.3282     0.0000    -999.25    47.5779     0.8831     0.8626     1.1224  1305.1104     0.6103    -999.25    -999.25     0.0119     0.0119 15226.5498     2.1658     0.8831     0.7798    22.0794     1.0000     1.0000 -1233.5204    86.8690     0.0119    -999.25
  1305.1534  4617.6738 4617674.0000    -999.25    10.6609    10.6609   143.3759     0.0000    -999.25    48.0717     0.8817     0.8590     1.1167  1305.1533     0.6058    -999.25    -999.25     0.0126     0.0126 15149.8486     2.1721     0.8817     0.7774    22.0978     1.0000     1.0000 -1233.5634    86.0908     0.0126    -999.25
  1305.2628  4662.3140 4660280.0000    -999.25    10.6944    10.6944   143.0548     0.0000    -999.25    49.3279     0.8783     0.8499     1.1023  1305.2628     0.5943    -999.25    -999.25     0.0144     0.0144 15289.6328     2.1882     0.8783     0.7714    22.1447     1.0000     1.0000 -1233.6727    84.1110     0.0144    -999.25
  1305.3058  4677.0264 4677026.5000    -999.25    10.6936    10.6936   142.9286     0.0000    -999.25    49.8736     0.8762     0.8487     1.1047  1305.3058     0.5862    -999.25    -999.25     0.0155     0.0155 15344.5752     2.1932     0.8762     0.7678    22.1619     1.0000     1.0000 -1233.7157    82.9646     0.0155    -999.25
  1305.4152  4777.9263 4774836.5000    -999.25    10.6915    10.6915   140.7167     0.0000    -999.25    51.2620     0.8710     0.8454     1.1107  1305.4152     0.5656    -999.25    -999.25     0.0181     0.0181 15665.4746     2.2058     0.8710     0.7586    22.2057     1.0000     1.0000 -1233.8252    80.0480     0.0181    -999.25
  1305.4582  4813.2812 4813281.0000    -999.25    10.6737    10.6737   139.8473     0.0000    -999.25    51.7100     0.8686     0.8464     1.1180  1305.4581     0.5593    -999.25    -999.25     0.0189     0.0189 15791.6045     2.2084     0.8686     0.7545    22.2074     1.0000     1.0000 -1233.8682    79.2097     0.0189    -999.25
  1305.5676  4933.2676 4931737.5000    -999.25    10.6287    10.6287   136.8535     0.0000    -999.25    52.8496     0.8626     0.8489     1.1365  1305.5676     0.5432    -999.25    -999.25     0.0208     0.0208 16180.2412     2.2150     0.8626     0.7441    22.2119     1.0000     1.0000 -1233.9775    77.0770     0.0208    -999.25
  1305.6106  4978.2974 4978297.0000    -999.25    10.5987    10.5987   135.6768     0.0000    -999.25    53.0934     0.8607     0.8513     1.1463  1305.6106     0.5400    -999.25    -999.25     0.0212     0.0212 16332.9961     2.2160     0.8607     0.7408    22.1968     1.0000     1.0000 -1234.0205    76.6730     0.0212    -999.25
