~Version ---------------------------------------------------
VERS. 2.0 : CWLS log ASCII Standard -VERSION 2.0
WRAP.  NO : 
~Well ------------------------------------------------------
STRT.m                                                   1260.0 : 
STOP.m                                                1659.7452 : 
STEP.m                                                   0.1524 : 
NULL.                                                   -999.25 : 
COMP.                                                           : COMPANY
WELL.                                                    Well-6 : WELL
FLD .                                                           : FIELD
LOC .                                                           : LOCATION
SRVC.                                                           : SERVICE COMPANY
DATE. 2021-01-20 14:34:00   : Log Export Date {yyyy-MM-dd HH:mm : ss}
PROV.                                                           : PROVINCE
UWI .                                                    Well-6 : UNIQUE WELL ID
API .                                                           : API NUMBER
~Curve Information -----------------------------------------
DEPTH             .m        : DEPTH
ACOUSTICIMPEDANCE1.kPa.s/m  : ACOUSTICIMPEDANCE1
AI                .kPa.s/m  : AI
AVG_PIGN          .m3/m3    : AVG_PIGN
CALI              .in       : CALI
CALI[DERIVED]1    .in       : CALI[DERIVED]1
DT                .us/ft    : DT
FACIES            ._        : FACIES
FLD1              ._        : FLD1
GR                .gAPI     : GR
LLD               .ohm.m    : LLD
LLS               .ohm.m    : LLS
LL3               .ohm.m    : LL3
DEPTH_1           .m        : DEPTH_1
NPHI              .m3/m3    : NPHI
ONE-WAYTIME1      .ms       : ONE-WAYTIME1
PERF_INT          ._        : PERF_INT
PERMEABILITY      .mD       : PERMEABILITY
PHIT              .m3/m3    : PHIT
PIGE              .m3/m3    : PIGE
PIGN              .m3/m3    : PIGN
PIGN_MODELLING    .m3/m3    : PIGN_MODELLING
PIMP              .kPa.s/m  : PIMP
RHOB              .g/cm3    : RHOB
LLD_1             .ohm.m    : LLD_1
RT_MODELLING      .ohm.m    : RT_MODELLING
RT_POWER          .ohm.m    : RT_POWER
SP                .mV       : SP
SUWI              ._        : SUWI
SUWI_MODELLING    ._        : SUWI_MODELLING
SXWI              ._        : SXWI
TDVSS             .m        : TDVSS
VCL               .%        : VCL
WATER_VOL         ._        : WATER_VOL
ZLT               ._        : ZLT
~Params ----------------------------------------------------
~Other -----------------------------------------------------
~ASCII -----------------------------------------------------
# ...
  1340.0100  5793.3354 5794758.0000    -999.25     9.6085     9.6085   121.4810     0.0000    -999.25    56.5167     1.4420     1.4624     1.5477  1340.0100     0.5343  -609.0457    -999.25    -999.25     0.2933     0.0668     0.0668     0.0668 19011.6738     2.3090     1.4420     1.4420     2.0793    36.4666     1.0000     1.0000     1.0000 -1262.3099    74.2360     0.0668     0.0000
  1340.0537  5863.3848 5863384.5000    -999.25     9.6006     9.6006   120.4150     0.0000    -999.25    56.0956     1.4472     1.4716     1.5635  1340.0537     0.5280  -609.0668    -999.25    -999.25     0.2928     0.0697     0.0697     0.0697 19236.8262     2.3164     1.4473     1.4472     2.0946    36.4402     1.0000     1.0000     1.0000 -1262.3536    73.1200     0.0697     0.0000
  1340.1624  6069.4595 6067812.0000    -999.25     9.5811     9.5811   117.2525     0.0000    -999.25    55.0484     1.4603     1.4945     1.6028  1340.1624     0.5124  -609.1193    -999.25    -999.25     0.2916     0.0769     0.0769     0.0769 19907.5195     2.3348     1.4603     1.4603     2.1324    36.3745     1.0000     1.0000     1.0000 -1262.4624    70.3440     0.0769     0.0000
  1340.2060  6149.8086 6149809.0000    -999.25     9.5630     9.5630   115.9840     0.0000    -999.25    55.3760     1.4662     1.5046     1.6215  1340.2059     0.5101  -609.1403    -999.25    -999.25     0.2916     0.0774     0.0774     0.0774 20176.5371     2.3402     1.4663     1.4662     2.1498    36.3237     1.0000     1.0000     1.0000 -1262.5060    70.1417     0.0774     0.0000
  1340.3148  6355.2617 6351345.5000    -999.25     9.5178     9.5178   112.8706     0.0000    -999.25    56.1936     1.4810     1.5297     1.6681  1340.3148     0.5041  -609.1928    -999.25    -999.25     0.2919     0.0787     0.0787     0.0787 20837.7461     2.3534     1.4811     1.4810     2.1933    36.1968     1.0000     1.0000     1.0000 -1262.6147    69.6370     0.0787     0.0000
  1340.3584  6432.1084 6432108.0000    -999.25     9.4961     9.4961   111.6230     0.0000    -999.25    56.9888     1.4858     1.5398     1.6941  1340.3584     0.5044  -609.2138    -999.25    -999.25     0.2920     0.0782     0.0782     0.0782 21102.7168     2.3555     1.4858     1.4858     2.2076    36.1253     1.0000     1.0000     1.0000 -1262.6583    69.8490     0.0782     0.0000
  1340.4672  6545.6626 6541147.0000    -999.25     9.4420     9.4420   109.9339     0.0000    -999.25    58.9732     1.4977     1.5650     1.7589  1340.4672     0.5051  -609.2663    -999.25    -999.25     0.2925     0.0768     0.0768     0.0768 21460.4551     2.3609     1.4978     1.4977     2.2431    35.9470     1.0000     1.0000     1.0000 -1262.7672    70.3780     0.0768     0.0000
  1340.5108  6584.8428 6584842.5000    -999.25     9.4328     9.4328   109.2570     0.0000    -999.25    59.4950     1.4991     1.5721     1.7950  1340.5107     0.5062  -609.2874    -999.25    -999.25     0.2923     0.0766     0.0766     0.0766 21603.8145     2.3604     1.4992     1.4991     2.2474    35.8845     1.0000     1.0000     1.0000 -1262.8108    70.4721     0.0766     0.0000
  1340.6196  6527.1235 6521209.0000    -999.25     9.4099     9.4099   110.1658     0.0000    -999.25    60.7973     1.5027     1.5900     1.8848  1340.6196     0.5089  -609.3398    -999.25    -999.25     0.2920     0.0759     0.0759     0.0759 21395.0410     2.3591     1.5027     1.5027     2.2581    35.7287     1.0000     1.0000     1.0000 -1262.9196    70.7070     0.0759     0.0000
  1340.6632  6495.7085 6495708.5000    -999.25     9.4316     9.4316   110.5300     0.0000    -999.25    60.6365     1.5001     1.5886     1.9013  1340.6632     0.5104  -609.3609    -999.25    -999.25     0.2920     0.0756     0.0756     0.0756 21311.3789     2.3555     1.5001     1.5001     2.2504    35.6896     1.0000     1.0000     1.0000 -1262.9631    70.8335     0.0756     0.0000
  1340.7720  6259.2974 6258586.5000    -999.25     9.4857     9.4857   114.2680     0.0000    -999.25    60.2354     1.4937     1.5853     1.9426  1340.7720     0.5143  -609.4134    -999.25    -999.25     0.2919     0.0748     0.0748     0.0748 20533.4199     2.3466     1.4937     1.4937     2.2312    35.5921     1.0000     1.0000     1.0000 -1263.0720    71.1490     0.0748     0.0000
  1340.8156  6163.5635 6163563.5000    -999.25     9.5249     9.5249   115.7660     0.0000    -999.25    59.6148     1.4884     1.5730     1.9377  1340.8156     0.5174  -609.4344    -999.25    -999.25     0.2921     0.0738     0.0738     0.0738 20221.6641     2.3410     1.4883     1.4884     2.2153    35.5868     1.0000     1.0000     1.0000 -1263.1156    71.5518     0.0738     0.0000
  1340.9244  5856.3477 5861323.5000    -999.25     9.6229     9.6229   121.1118     0.0000    -999.25    58.0663     1.4750     1.5425     1.9257  1340.9244     0.5253  -609.4869    -999.25    -999.25     0.2926     0.0711     0.0711     0.0711 19230.0645     2.3270     1.4749     1.4750     2.1757    35.5736     1.0000     1.0000     1.0000 -1263.2244    72.5570     0.0711     0.0000
  1340.9680  5740.2056 5740205.5000    -999.25     9.6778     9.6778   123.2540     0.0000    -999.25    57.0455     1.4696     1.5239     1.9025  1340.9680     0.5304  -609.5079    -999.25    -999.25     0.2929     0.0692     0.0692     0.0692 18832.6953     2.3212     1.4696     1.4696     2.1598    35.5935     1.0000     1.0000     1.0000 -1263.2679    73.3143     0.0692     0.0000
  1341.0768  5518.0435 5523132.5000    -999.25     9.8149     9.8149   127.4162     0.0000    -999.25    54.4982     1.4562     1.4777     1.8446  1341.0768     0.5433  -609.5604    -999.25    -999.25     0.2938     0.0643     0.0643     0.0643 18120.5137     2.3067     1.4561     1.4562     2.1204    35.6432     1.0000     1.0000     1.0000 -1263.3768    75.2040     0.0643     0.0000
  1341.1205  5435.9443 5435944.5000    -999.25     9.8671     9.8671   129.0880     0.0000    -999.25    53.5885     1.4520     1.4610     1.8073  1341.1205     0.5476  -609.5815    -999.25    -999.25     0.2941     0.0626     0.0626     0.0626 17834.4629     2.3022     1.4520     1.4520     2.1084    35.6824     1.0000     1.0000     1.0000 -1263.4205    75.8629     0.0626     0.0000
  1341.2292  5347.4575 5351720.0000    -999.25     9.9970     9.9970   130.5854     0.0000    -999.25    51.3257     1.4417     1.4195     1.7146  1341.2292     0.5583  -609.6340    -999.25    -999.25     0.2948     0.0583     0.0583     0.0583 17558.1348     2.2910     1.4417     1.4417     2.0786    35.7796     1.0000     1.0000     1.0000 -1263.5292    77.5020     0.0583     0.0000
  1341.2728  5317.9370 5317937.0000    -999.25    10.0239    10.0239   131.1860     0.0000    -999.25    50.9402     1.4384     1.4105     1.6669  1341.2728     0.5593  -609.6550    -999.25    -999.25     0.2949     0.0579     0.0579     0.0579 17447.2988     2.2888     1.4384     1.4384     2.0691    35.8417     1.0000     1.0000     1.0000 -1263.5728    77.6837     0.0579     0.0000
  1341.3816  5356.8701 5362737.5000    -999.25    10.0910    10.0910   129.9246     0.0000    -999.25    49.9781     1.4302     1.3883     1.5477  1341.3816     0.5620  -609.7075    -999.25    -999.25     0.2951     0.0567     0.0567     0.0567 17594.2812     2.2834     1.4301     1.4302     2.0453    35.9967     1.0000     1.0000     1.0000 -1263.6816    78.1370     0.0567     0.0000
  1341.4253  5380.7314 5380731.5000    -999.25    10.0824    10.0824   129.4180     0.0000    -999.25    50.0195     1.4266     1.3885     1.5204  1341.4253     0.5593  -609.7286    -999.25    -999.25     0.2949     0.0578     0.0578     0.0578 17653.3184     2.2847     1.4266     1.4266     2.0352    36.0751     1.0000     1.0000     1.0000 -1263.7253    77.7092     0.0578     0.0000
  1341.5340  5500.2134 5504829.5000    -999.25    10.0612    10.0612   126.7758     0.0000    -999.25    50.1223     1.4177     1.3891     1.4527  1341.5339     0.5527  -609.7810    -999.25    -999.25     0.2944     0.0606     0.0606     0.0606 18060.4648     2.2877     1.4177     1.4177     2.0099    36.2701     1.0000     1.0000     1.0000 -1263.8340    76.6450     0.0606     0.0000
