~Version ---------------------------------------------------
VERS. 2.0 : CWLS log ASCII Standard -VERSION 2.0
WRAP.  NO : 
~Well ------------------------------------------------------
STRT.m                                                1290.3698 : 
STOP.m                                                1526.7422 : 
STEP.m                                                   0.1524 : 
NULL.                                                   -999.25 : 
COMP.                                                           : COMPANY
WELL.                                                   Well-18 : WELL
FLD .                                                           : FIELD
LOC .                                                           : LOCATION
SRVC.                                                           : SERVICE COMPANY
DATE. 2021-01-20 14:34:10   : Log Export Date {yyyy-MM-dd HH:mm : ss}
PROV.                                                           : PROVINCE
UWI .                                                   Well-18 : UNIQUE WELL ID
API .                                                           : API NUMBER
~Curve Information -----------------------------------------
DEPTH             .m        : DEPTH
ACOUSTICIMPEDANCE1.kPa.s/m  : ACOUSTICIMPEDANCE1
AI                .kPa.s/m  : AI
AVG_PIGN          .m3/m3    : AVG_PIGN
BS                .in       : BS
CALI              .in       : CALI
CALI[DERIVED]1    .in       : CALI[DERIVED]1
DT                .us/ft    : DT
FACIES            ._        : FACIES
FLD1              ._        : FLD1
GR                .gAPI     : GR
DEPTH_1           .m        : DEPTH_1
NPHI              .m3/m3    : NPHI
PEF               .b/e      : PEF
PERF_INT          ._        : PERF_INT
PHIT              .m3/m3    : PHIT
PIGN              .m3/m3    : PIGN
PIGN_MODELLING    .m3/m3    : PIGN_MODELLING
PIMP              .kPa.s/m  : PIMP
RHOB              .g/cm3    : RHOB
LLD               .ohm.m    : LLD
RT_MODELLING      .ohm.m    : RT_MODELLING
RT_POWER          .ohm.m    : RT_POWER
RXO               .ohm.m    : RXO
SP                .mV       : SP
SUWI              ._        : SUWI
SUWI_MODELLING    ._        : SUWI_MODELLING
SXWI              ._        : SXWI
TDVSS             .m        : TDVSS
TEMP              .K        : TEMP
VCL               .%        : VCL
WATER_VOL         ._        : WATER_VOL
ZLT               ._        : ZLT
~Params ----------------------------------------------------
~Other -----------------------------------------------------
~ASCII -----------------------------------------------------
# ...
  1320.5450  5405.3589 5405359.0000    -999.25     8.5000     8.8397     8.8397   130.0358    -999.25    -999.25    68.6872  1320.5450     0.4390     5.7431    -999.25     0.1910     0.0419     0.0419 17734.1172     2.3061     1.1533     1.1533     1.3300     0.8375   -69.9375     1.0000     1.0000     1.0000 -1228.9354   155.1001    74.5130     0.0419    -999.25
  1320.6974  5241.6611 5241661.0000    -999.25     8.5000     8.8460     8.8460   133.5479    -999.25    -999.25    69.5655  1320.6974     0.4242     5.8793    -999.25     0.1896     0.0446     0.0446 17197.0508     2.2966     1.2108     1.2108     1.4660     1.0969   -69.0000     1.0000     1.0000     1.0000 -1229.0852   155.1088    72.5440     0.0446    -999.25
  1320.8498  5101.8271 5101827.0000    -999.25     8.5000     8.8528     8.8528   135.2881    -999.25    -999.25    67.1929  1320.8499     0.3977     6.2825    -999.25     0.1905     0.0388     0.0388 16738.2773     2.2645     1.2390     1.2390     1.5350     0.8914   -68.6875     1.0000     1.0000     1.0000 -1229.2350   155.1175    75.8380     0.0388    -999.25
  1321.0022  4984.8257 4984825.5000    -999.25     8.5000     8.9584     8.9584   137.2180    -999.25    -999.25    69.5367  1321.0022     0.4618     6.6014    -999.25     0.1925     0.0293     0.0293 16354.4150     2.2441     1.1521     1.1521     1.3272     0.8294   -69.1875     1.0000     1.0000     1.0000 -1229.3848   155.1261    81.6230     0.0293    -999.25
  1321.1546  4916.7134 4916713.5000    -999.25     8.5000     8.9492     8.9492   138.4903    -999.25    -999.25    72.2132  1321.1547     0.4626     6.5509    -999.25     0.1933     0.0255     0.0255 16130.9492     2.2340     1.0758     1.0758     1.1574     0.7150   -67.4375     1.0000     1.0000     1.0000 -1229.5345   155.1348    83.9030     0.0255    -999.25
  1321.3070  4920.2520 4920252.0000    -999.25     8.5000     8.8589     8.8589   138.2637    -999.25    -999.25    76.8195  1321.3070     0.4884     6.2460    -999.25     0.1938     0.0244     0.0244 16142.5596     2.2319     1.0474     1.0474     1.0971     0.6229   -67.8750     1.0000     1.0000     1.0000 -1229.6843   155.1435    84.6850     0.0244    -999.25
  1321.4594  4977.4551 4977455.0000    -999.25     8.5000     8.9652     8.9652   137.0801    -999.25    -999.25    75.5878  1321.4595     0.4714     6.0030    -999.25     0.1938     0.0273     0.0273 16330.2334     2.2385     1.0381     1.0381     1.0777     0.6641   -69.3750     1.0000     1.0000     1.0000 -1229.8341   155.1521    83.2430     0.0273    -999.25
  1321.6118  5141.5508 5141551.0000    -999.25     8.5000     8.8459     8.8459   133.9352    -999.25    -999.25    71.7746  1321.6118     0.5140     5.8624    -999.25     0.1939     0.0297     0.0297 16868.6055     2.2593     1.0556     1.0556     1.1142     0.6601   -69.2500     1.0000     1.0000     1.0000 -1229.9839   155.1608    82.1420     0.0297    -999.25
  1321.7642  5301.9297 5301929.5000    -999.25     8.5000     8.7955     8.7955   130.4644    -999.25    -999.25    67.9482  1321.7643     0.5081     5.8400    -999.25     0.1939     0.0302     0.0302 17394.7832     2.2694     1.0838     1.0838     1.1745     0.6654   -69.1875     1.0000     1.0000     1.0000 -1230.1337   155.1695    81.8490     0.0302    -999.25
  1321.9166  5309.2720 5309272.0000    -999.25     8.5000     8.7843     8.7843   130.3701    -999.25    -999.25    70.1495  1321.9166     0.4974     5.8732    -999.25     0.1921     0.0362     0.0362 17418.8711     2.2709     1.0984     1.0984     1.2065     0.6922   -69.9375     1.0000     1.0000     1.0000 -1230.2834   155.1781    77.9630     0.0362    -999.25
  1322.0690  5569.4858 5569486.0000    -999.25     8.5000     8.8941     8.8941   124.9352    -999.25    -999.25    74.0840  1322.0690     0.4385     5.8696    -999.25     0.1902     0.0433     0.0433 18272.5918     2.2829     1.1211     1.1211     1.2568     0.7871   -69.6875     1.0000     1.0000     1.0000 -1230.4332   155.1868    73.4530     0.0433    -999.25
  1322.2214  5631.4243 5631424.5000    -999.25     8.5000     8.9377     8.9377   124.6111    -999.25    -999.25    75.3852  1322.2214     0.4355     5.9463    -999.25     0.1897     0.0460     0.0460 18475.8008     2.3023     1.1394     1.1394     1.2982     0.7547   -68.8125     1.0000     1.0000     1.0000 -1230.5830   155.1955    71.8180     0.0460    -999.25
  1322.3738  5632.5327 5632532.5000    -999.25     8.5000     8.9423     8.9423   124.6407    -999.25    -999.25    72.3523  1322.3738     0.4216     6.0011    -999.25     0.1887     0.0493     0.0493 18479.4375     2.3033     1.2452     1.2452     1.5505     0.8890   -69.8750     1.0000     1.0000     1.0000 -1230.7328   155.2041    69.7120     0.0493    -999.25
  1322.5262  5522.4810 5522481.0000    -999.25     8.5000     8.9462     8.9462   126.3888    -999.25    -999.25    71.6345  1322.5262     0.4077     5.9923    -999.25     0.1876     0.0531     0.0531 18118.3770     2.2900     1.2970     1.2970     1.6823     0.9293   -69.8750     1.0000     1.0000     1.0000 -1230.8826   155.2128    67.2240     0.0531    -999.25
  1322.6786  5369.2163 5369216.0000    -999.25     8.5000     8.9125     8.9125   127.6782    -999.25    -999.25    73.1105  1322.6786     0.3734     6.1402    -999.25     0.1870     0.0547     0.0547 17615.5391     2.2491     1.2797     1.2797     1.6376     1.4356   -68.5000     1.0000     1.0000     1.0000 -1231.0323   155.2215    66.1480     0.0547    -999.25
  1322.8310  5020.1694 5020169.5000    -999.25     8.5000     8.9629     8.9629   135.0947    -999.25    -999.25    78.2300  1322.8311     0.3493     6.2358    -999.25     0.1886     0.0473     0.0473 16470.3730     2.2251     1.2456     1.2456     1.5514     0.8563   -67.9375     1.0000     1.0000     1.0000 -1231.1821   155.2301    70.6490     0.0473    -999.25
  1322.9834  5054.8887 5054888.5000    -999.25     8.5000     9.0685     9.0685   135.1135    -999.25    -999.25    78.1481  1322.9834     0.4048     6.1082    -999.25     0.1915     0.0351     0.0351 16584.2812     2.2408     1.1314     1.1314     1.2800     0.7018   -67.8750     1.0000     1.0000     1.0000 -1231.3320   155.2388    78.1950     0.0351    -999.25
  1323.1358  5076.9956 5076995.5000    -999.25     8.5000     9.0960     9.0960   136.7795    -999.25    -999.25    81.0779  1323.1359     0.4533     5.8647    -999.25     0.1935     0.0285     0.0285 16656.8105     2.2783     1.0636     1.0636     1.1312     0.6658   -67.8125     1.0000     1.0000     1.0000 -1231.4818   155.2475    82.5050     0.0285    -999.25
  1323.2882  5182.9253 5182925.5000    -999.25     8.5000     9.0868     9.0868   134.9202    -999.25    -999.25    79.6774  1323.2882     0.5122     5.9308    -999.25     0.1940     0.0268     0.0268 17004.3477     2.2942     1.0711     1.0711     1.1473     0.7235   -67.6250     1.0000     1.0000     1.0000 -1231.6316   155.2561    83.6090     0.0268    -999.25
  1323.4406  5238.0498 5238049.5000    -999.25     8.5000     9.1103     9.1103   132.4529    -999.25    -999.25    81.7830  1323.4407     0.5311     6.4627    -999.25     0.1939     0.0256     0.0256 17185.2031     2.2762     1.0978     1.0978     1.2052     0.6853   -67.8125     1.0000     1.0000     1.0000 -1231.7814   155.2648    84.1300     0.0256    -999.25
  1323.5930  5273.7559 5273756.0000    -999.25     8.5000     9.1189     9.1189   131.4226    -999.25    -999.25    79.5282  1323.5930     0.5151     6.7740    -999.25     0.1934     0.0272     0.0272 17302.3496     2.2739     1.1284     1.1284     1.2733     0.7583   -67.6250     1.0000     1.0000     1.0000 -1231.9312   155.2735    83.0980     0.0272    -999.25
  1323.7454  5244.3135 5244313.5000    -999.25     8.5000     9.0272     9.0272   132.3569    -999.25    -999.25    77.4485  1323.7455     0.4776     6.7021    -999.25     0.1920     0.0325     0.0325 17205.7520     2.2773     1.1803     1.1803     1.3930     0.7757   -67.5625     1.0000     1.0000     1.0000 -1232.0809   155.2822    79.7510     0.0325    -999.25
