~Version ---------------------------------------------------
VERS. 2.0 : CWLS log ASCII Standard -VERSION 2.0
WRAP.  NO : 
~Well ------------------------------------------------------
STRT.m                                                1249.0292 : 
STOP.m                                                1575.3176 : 
STEP.m                                                   0.1524 : 
NULL.                                                   -999.25 : 
COMP.                                                           : COMPANY
WELL.                                                   Well-10 : WELL
FLD .                                                           : FIELD
LOC .                                                           : LOCATION
SRVC.                                                           : SERVICE COMPANY
DATE. 2021-01-20 14:34:04   : Log Export Date {yyyy-MM-dd HH:mm : ss}
PROV.                                                           : PROVINCE
UWI .                                                   Well-10 : UNIQUE WELL ID
API .                                                           : API NUMBER
~Curve Information -----------------------------------------
DEPTH             .m        : DEPTH
ACOUSTICIMPEDANCE1.kPa.s/m  : ACOUSTICIMPEDANCE1
AI                .kPa.s/m  : AI
AVG_PIGN          .m3/m3    : AVG_PIGN
CALI              .in       : CALI
CALI[DERIVED]1    .in       : CALI[DERIVED]1
DFL               .ohm.m    : DFL
DT                .us/ft    : DT
FACIES            ._        : FACIES
FLD1              ._        : FLD1
GR                .gAPI     : GR
HDRS              .ohm.m    : HDRS
HMRS              .ohm.m    : HMRS
DEPTH_1           .m        : DEPTH_1
NPHI              .m3/m3    : NPHI
PEF               .b/e      : PEF
PERF_INT          ._        : PERF_INT
PERMEABILITY      .mD       : PERMEABILITY
PHIT              .m3/m3    : PHIT
PIGN              .m3/m3    : PIGN
PIGN_MODELLING    .m3/m3    : PIGN_MODELLING
PIMP              .kPa.s/m  : PIMP
RHOB              .g/cm3    : RHOB
RT_MODELLING      .ohm.m    : RT_MODELLING
RT_POWER          .ohm.m    : RT_POWER
SP                .mV       : SP
SUWI              ._        : SUWI
SUWI_MODELLING    ._        : SUWI_MODELLING
SXWI              ._        : SXWI
TDVSS             .m        : TDVSS
TEMP              .K        : TEMP
VCL               .%        : VCL
WATER_VOL         ._        : WATER_VOL
ZLT               ._        : ZLT
~Params ----------------------------------------------------
~Other -----------------------------------------------------
~ASCII -----------------------------------------------------
# ...
  1399.9052  3561.7126 3561712.7500    -999.25     8.2795     8.2795     4.6535   140.3887     0.0000    -999.25    41.0737     4.4089     4.8459  1399.9052     0.8642     3.5374    -999.25     0.0000     0.0001     0.0001     0.0100 11685.4092     1.6405     4.6535    21.6551   135.2070     1.0000     1.0000     1.0000 -1319.9052   167.5605    11.9930     0.0001     2.0000
  1400.0576  3058.5188 3058518.7500    -999.25     8.2814     8.2814     7.5208   144.3319     0.0000    -999.25    32.0029     7.6053     8.7488  1400.0576     0.9011     2.3793    -999.25     0.0000     0.0001     0.0001     0.0100 10034.5098     1.4483     7.5208    56.5624   135.1723     1.0000     1.0000     1.0000 -1320.0576   167.5700     1.5570     0.0001     3.0000
  1400.2100  2721.2581 2721258.0000    -999.25     8.2917     8.2917    16.0811   147.0428     3.0000    -999.25    24.8118    14.9474    18.1537  1400.2100     0.9576     1.5826    -999.25     0.0000     0.0001     0.0001     0.0100  8928.0117     1.3128    16.0811   258.6018   135.3544     1.0000     1.0000     1.0000 -1320.2100   167.5795     0.0000     0.0001     3.0000
  1400.3624  2522.0359 2522036.0000    -999.25     8.3153     8.3153    44.0601   148.9293     3.0000    -999.25    20.6705    26.7011    32.1487  1400.3624     1.1014     1.4557    -999.25     0.0000     0.0001     0.0001     0.0100  8274.3955     1.2323    44.0601  1941.2925   135.6600     1.0000     1.0000     1.0000 -1320.3624   167.5891     0.0000     0.0001     3.0000
  1400.5148  2413.5715 2413571.5000    -999.25     8.3222     8.3222    63.9331   149.9771     3.0000    -999.25    18.5060    37.0736    42.5482  1400.5148     1.0292     1.9652    -999.25     0.0000     0.0001     0.0001     0.0100  7918.5415     1.1876    63.9331  4087.4414   136.0560     1.0000     1.0000     1.0000 -1320.5148   167.5986     0.0000     0.0001     3.0000
  1400.6672  2341.2058 2341205.7500    -999.25     8.3546     8.3546    67.5268   150.4338     3.0000    -999.25    17.3618    44.5705    50.7322  1400.6672     1.0404     3.0114    -999.25     0.0000     0.0001     0.0001     0.0100  7681.1211     1.1555    67.5268  4559.8691   136.3332     1.0000     1.0000     1.0000 -1320.6672   167.6081     0.0000     0.0001     3.0000
  1400.8196  2292.8435 2292843.5000    -999.25     8.6122     8.6122    63.8168   150.6423     3.0000    -999.25    16.8133    55.0281    62.5347  1400.8196     1.0081     4.3023    -999.25     0.0000     0.0001     0.0001     0.0100  7522.4526     1.1332    63.8168  4072.5837   136.4780     1.0000     1.0000     1.0000 -1320.8196   167.6176     0.0000     0.0001     3.0000
  1400.9720  2266.6011 2266601.0000    -999.25     9.0999     9.0999    71.9034   150.8938     3.0000    -999.25    16.2644    62.0783    66.5354  1400.9720     0.9722     5.4963    -999.25     0.0000     0.0001     0.0001     0.0100  7436.3550     1.1221    71.9034  5170.0986   136.6153     1.0000     1.0000     1.0000 -1320.9720   167.6272     0.0000     0.0001     3.0000
  1401.1244  2272.6863 2272686.5000    -999.25     8.8383     8.8383    78.3915   151.1738     3.0000    -999.25    15.6654    48.8972    49.1195  1401.1244     0.9155     6.3987    -999.25     0.0000     0.0001     0.0001     0.0100  7456.3203     1.1272    78.3915  6145.2275   136.8009     1.0000     1.0000     1.0000 -1321.1244   167.6367     0.0000     0.0001     3.0000
  1401.2768  2319.8687 2319868.5000    -999.25     8.5917     8.5917    58.1460   151.2130     3.0000    -999.25    15.9294    34.7311    33.8581  1401.2769     0.8971     6.6984    -999.25     0.0000     0.0001     0.0001     0.0100  7611.1177     1.1509    58.1460  3380.9573   136.9875     1.0000     1.0000     1.0000 -1321.2769   167.6462     0.0000     0.0001     3.0000
  1401.4292  2368.4595 2368459.2500    -999.25     8.6876     8.6876    43.2324   150.9291     3.0000    -999.25    16.8876    30.7746    29.4182  1401.4292     0.9257     6.4519    -999.25     0.0000     0.0001     0.0001     0.0100  7770.5361     1.1728    43.2324  1869.0403   137.2038     1.0000     1.0000     1.0000 -1321.4292   167.6558     0.0000     0.0001     3.0000
  1401.5816  2413.8174 2413817.2500    -999.25     8.3642     8.3642    42.3905   150.5174     3.0000    -999.25    17.7381    35.3108    33.6648  1401.5817     0.9003     5.6726    -999.25     0.0000     0.0001     0.0001     0.0100  7919.3481     1.1920    42.3905  1796.9545   137.5550     1.0000     1.0000     1.0000 -1321.5817   167.6653     0.0000     0.0001     3.0000
  1401.7340  2442.8716 2442871.5000    -999.25     8.2740     8.2740    46.3243   150.2744     3.0000    -999.25    18.3624    43.6495    41.6278  1401.7340     0.8772     4.5787    -999.25     0.0000     0.0001     0.0001     0.0100  8014.6709     1.2044    46.3243  2145.9407   137.9638     1.0000     1.0000     1.0000 -1321.7340   167.6748     0.0000     0.0001     3.0000
  1401.8864  2446.9138 2446913.7500    -999.25     8.2181     8.2181    54.9198   150.3127     3.0000    -999.25    18.3977    53.3549    50.1093  1401.8864     0.9961     3.4047    -999.25     0.0000     0.0001     0.0001     0.0100  8027.9326     1.2067    54.9198  3016.1843   138.3049     1.0000     1.0000     1.0000 -1321.8864   167.6844     0.0000     0.0001     3.0000
  1402.0388  2443.9626 2443962.7500    -999.25     8.2129     8.2129    64.8644   150.4817     3.0000    -999.25    17.8021    62.7335    57.5892  1402.0388     1.0089     2.3835    -999.25     0.0000     0.0001     0.0001     0.0100  8018.2500     1.2066    64.8644  4207.3906   138.5426     1.0000     1.0000     1.0000 -1322.0388   167.6939     0.0000     0.0001     3.0000
  1402.1912  2427.4202 2427420.2500    -999.25     8.2136     8.2136    68.0434   150.7162     3.0000    -999.25    17.0557    67.5744    60.4289  1402.1912     1.0802     1.7638    -999.25     0.0000     0.0001     0.0001     0.0100  7963.9771     1.2003    68.0434  4629.9048   138.6804     1.0000     1.0000     1.0000 -1322.1912   167.7034     0.0000     0.0001     3.0000
  1402.3436  2403.9036 2403903.5000    -999.25     8.2374     8.2374    67.6075   150.9987     3.0000    -999.25    16.4551    69.6120    59.4892  1402.3436     1.0301     1.5383    -999.25     0.0000     0.0001     0.0001     0.0100  7886.8223     1.1909    67.6075  4570.7739   138.9050     1.0000     1.0000     1.0000 -1322.3436   167.7130     0.0000     0.0001     3.0000
  1402.4960  2379.1243 2379124.2500    -999.25     8.2128     8.2128    69.2248   151.1493     3.0000    -999.25    15.8982    73.8038    59.0812  1402.4960     0.9591     1.6044    -999.25     0.0000     0.0001     0.0001     0.0100  7805.5259     1.1798    69.2248  4792.0728   139.2736     1.0000     1.0000     1.0000 -1322.4960   167.7225     0.0000     0.0001     3.0000
  1402.6484  2360.9128 2360912.7500    -999.25     8.2010     8.2010    74.1542   151.0759     3.0000    -999.25    15.4142    72.2231    55.8547  1402.6484     0.9293     1.9171    -999.25     0.0000     0.0001     0.0001     0.0100  7745.7773     1.1702    74.1542  5498.8452   139.7093     1.0000     1.0000     1.0000 -1322.6484   167.7320     0.0000     0.0001     3.0000
  1402.8008  2358.6797 2358679.7500    -999.25     8.2381     8.2381    70.3170   150.9088     3.0000    -999.25    15.1884    65.6545    51.9311  1402.8008     0.9312     2.2824    -999.25     0.0000     0.0001     0.0001     0.0100  7738.4507     1.1678    70.3170  4944.4805   140.1321     1.0000     1.0000     1.0000 -1322.8008   167.7416     0.0000     0.0001     3.0000
  1402.9532  2355.2908 2355290.7500    -999.25     8.2947     8.2947    61.1230   150.7894     3.0000    -999.25    15.2884    63.4330    54.3382  1402.9532     0.8817     2.6800    -999.25     0.0000     0.0001     0.0001     0.0100  7727.3320     1.1652    61.1230  3736.0212   140.5710     1.0000     1.0000     1.0000 -1322.9532   167.7511     0.0000     0.0001     3.0000
  1403.1056  2349.6370 2349637.0000    -999.25     8.5207     8.5207    55.9599   150.7501     3.0000    -999.25    15.8553    62.3888    58.2671  1403.1056     0.8848     3.1866    -999.25     0.0000     0.0001     0.0001     0.0100  7708.7827     1.1621    55.9599  3131.5105   141.0021     1.0000     1.0000     1.0000 -1323.1056   167.7606     0.0000     0.0001     3.0000
