~Version ---------------------------------------------------
VERS. 2.0 : CWLS log ASCII Standard -VERSION 2.0
WRAP.  NO : 
~Well ------------------------------------------------------
STRT.m                                                   1260.0 : 
STOP.m                                                1659.7452 : 
STEP.m                                                   0.1524 : 
NULL.                                                   -999.25 : 
COMP.                                                           : COMPANY
WELL.                                                    Well-6 : WELL
FLD .                                                           : FIELD
LOC .                                                           : LOCATION
SRVC.                                                           : SERVICE COMPANY
DATE. 2021-01-20 14:34:00   : Log Export Date {yyyy-MM-dd HH:mm : ss}
PROV.                                                           : PROVINCE
UWI .                                                    Well-6 : UNIQUE WELL ID
API .                                                           : API NUMBER
~Curve Information -----------------------------------------
DEPTH             .m        : DEPTH
ACOUSTICIMPEDANCE1.kPa.s/m  : ACOUSTICIMPEDANCE1
AI                .kPa.s/m  : AI
AVG_PIGN          .m3/m3    : AVG_PIGN
CALI              .in       : CALI
CALI[DERIVED]1    .in       : CALI[DERIVED]1
DT                .us/ft    : DT
FACIES            ._        : FACIES
FLD1              ._        : FLD1
GR                .gAPI     : GR
LLD               .ohm.m    : LLD
LLS               .ohm.m    : LLS
LL3               .ohm.m    : LL3
DEPTH_1           .m        : DEPTH_1
NPHI              .m3/m3    : NPHI
ONE-WAYTIME1      .ms       : ONE-WAYTIME1
PERF_INT          ._        : PERF_INT
PERMEABILITY      .mD       : PERMEABILITY
PHIT              .m3/m3    : PHIT
PIGE              .m3/m3    : PIGE
PIGN              .m3/m3    : PIGN
PIGN_MODELLING    .m3/m3    : PIGN_MODELLING
PIMP              .kPa.s/m  : PIMP
RHOB              .g/cm3    : RHOB
LLD_1             .ohm.m    : LLD_1
RT_MODELLING      .ohm.m    : RT_MODELLING
RT_POWER          .ohm.m    : RT_POWER
SP                .mV       : SP
SUWI              ._        : SUWI
SUWI_MODELLING    ._        : SUWI_MODELLING
SXWI              ._        : SXWI
TDVSS             .m        : TDVSS
VCL               .%        : VCL
WATER_VOL         ._        : WATER_VOL
ZLT               ._        : ZLT
~Params ----------------------------------------------------
~Other -----------------------------------------------------
~ASCII -----------------------------------------------------
# ...
  1498.3972  5538.9741 5538974.5000    -999.25     9.3698     9.3698   128.9110     0.0000    -999.25    86.7928     1.2838     1.2785     1.6021  1498.3972     0.6040  -685.4652    -999.25     0.1619     0.3001     0.0348     0.0348     0.0348 18172.4883     2.3426     1.2839     1.2838     1.6482    42.7849     1.0000     1.0000     1.0000 -1420.6971    86.5955     0.0348    13.0000
  1498.5060  5659.0322 5658668.5000    -999.25     9.3333     9.3333   127.2801     0.0000    -999.25    86.3906     1.2944     1.2843     1.5756  1498.5060     0.6073  -685.5177    -999.25     0.1557     0.3006     0.0322     0.0322     0.0322 18565.1836     2.3631     1.2945     1.2944     1.6755    42.8064     1.0000     1.0000     1.0000 -1420.8060    87.6000     0.0322    13.0000
  1498.5497  5706.7437 5706744.0000    -999.25     9.3158     9.3158   126.6250     0.0000    -999.25    86.2739     1.2990     1.2913     1.5824  1498.5497     0.6092  -685.5388    -999.25     0.1532     0.3006     0.0318     0.0318     0.0318 18722.9121     2.3708     1.2990     1.2990     1.6875    42.8088     1.0000     1.0000     1.0000 -1420.8497    87.7417     0.0318    13.0000
  1498.6584  5806.0107 5800202.0000    -999.25     9.2722     9.2722   125.4602     0.0000    -999.25    85.9836     1.3104     1.3087     1.5994  1498.6584     0.6140  -685.5912    -999.25     0.1471     0.3008     0.0309     0.0309     0.0309 19029.5332     2.3898     1.3105     1.3104     1.7172    42.8149     1.0000     1.0000     1.0000 -1420.9584    88.0940     0.0309    13.0000
  1498.7020  5837.6885 5837688.5000    -999.25     9.2483     9.2483   124.9930     0.0000    -999.25    85.5840     1.3150     1.3188     1.6162  1498.7020     0.6146  -685.6122    -999.25     0.1446     0.3008     0.0309     0.0309     0.0309 19152.5215     2.3939     1.3150     1.3150     1.7293    42.8146     1.0000     1.0000     1.0000 -1421.0020    88.0974     0.0309    13.0000
  1498.8108  5891.2329 5885592.0000    -999.25     9.1886     9.1886   124.3851     0.0000    -999.25    84.5869     1.3264     1.3441     1.6582  1498.8108     0.6160  -685.6647    -999.25     0.1385     0.3008     0.0308     0.0308     0.0308 19309.6855     2.4041     1.3265     1.3264     1.7594    42.8140     1.0000     1.0000     1.0000 -1421.1108    88.1060     0.0308    13.0000
  1498.8545  5904.8330 5904833.0000    -999.25     9.1581     9.1581   124.1410     0.0000    -999.25    83.1623     1.3314     1.3552     1.6779  1498.8545     0.6146  -685.6858    -999.25     0.1360     0.3008     0.0310     0.0310     0.0310 19372.8105     2.4050     1.3315     1.3314     1.7727    42.8066     1.0000     1.0000     1.0000 -1421.1545    88.0246     0.0310    13.0000
  1498.9632  5932.3179 5930197.5000    -999.25     9.0821     9.0821   123.6707     0.0000    -999.25    79.6187     1.3439     1.3828     1.7267  1498.9631     0.6110  -685.7383    -999.25     0.1299     0.3007     0.0316     0.0316     0.0316 19456.0273     2.4070     1.3439     1.3439     1.8059    42.7883     1.0000     1.0000     1.0000 -1421.2632    87.8220     0.0316    14.0000
  1499.0068  5940.3711 5940371.0000    -999.25     9.0682     9.0682   123.4820     0.0000    -999.25    77.3859     1.3504     1.3930     1.7533  1499.0067     0.6065  -685.7593    -999.25     0.1525     0.3002     0.0341     0.0341     0.0341 19489.4062     2.4066     1.3505     1.3504     1.8238    42.7758     1.0000     1.0000     1.0000 -1421.3068    86.8393     0.0341    14.0000
  1499.1156  5925.9019 5927066.5000    -999.25     9.0336     9.0336   123.7310     0.0000    -999.25    71.8140     1.3668     1.4183     1.8198  1499.1156     0.5954  -685.8118    -999.25     0.2091     0.2991     0.0405     0.0405     0.0405 19445.7559     2.4056     1.3669     1.3668     1.8683    42.7444     1.0000     1.0000     1.0000 -1421.4155    84.3870     0.0405    14.0000
  1499.1593  5921.7231 5921723.0000    -999.25     9.0292     9.0292   123.8310     0.0000    -999.25    69.7530     1.3744     1.4266     1.8384  1499.1593     0.5900  -685.8329    -999.25     0.2413     0.2985     0.0438     0.0438     0.0438 19428.2246     2.4058     1.3745     1.3744     1.8892    42.7330     1.0000     1.0000     1.0000 -1421.4592    83.1250     0.0438    14.0000
  1499.2680  5912.0220 5913673.5000    -999.25     9.0184     9.0184   124.0658     0.0000    -999.25    64.6264     1.3933     1.4473     1.8847  1499.2679     0.5764  -685.8853    -999.25     0.3214     0.2970     0.0519     0.0519     0.0519 19401.8164     2.4064     1.3934     1.3933     1.9412    42.7046     1.0000     1.0000     1.0000 -1421.5680    79.9860     0.0519    14.0000
  1499.3116  5910.4453 5910445.0000    -999.25     9.0152     9.0152   124.1600     0.0000    -999.25    63.9972     1.4006     1.4525     1.8949  1499.3115     0.5735  -685.9064    -999.25     0.3322     0.2969     0.0531     0.0531     0.0531 19391.2246     2.4076     1.4007     1.4006     1.9618    42.6969     1.0000     1.0000     1.0000 -1421.6116    79.5077     0.0531    14.0000
  1499.4204  5896.6934 5895714.0000    -999.25     9.0071     9.0071   124.6023     0.0000    -999.25    62.4271     1.4188     1.4657     1.9204  1499.4204     0.5660  -685.9589    -999.25     0.3593     0.2967     0.0562     0.0562     0.0562 19342.8926     2.4106     1.4189     1.4188     2.0131    42.6776     1.0000     1.0000     1.0000 -1421.7203    78.3140     0.0562    14.0000
  1499.4641  5889.7969 5889797.0000    -999.25     9.0038     9.0038   124.7800     0.0000    -999.25    63.2797     1.4244     1.4676     1.9227  1499.4641     0.5662  -685.9799    -999.25     0.3591     0.2969     0.0557     0.0557     0.0557 19323.4805     2.4112     1.4244     1.4244     2.0289    42.6761     1.0000     1.0000     1.0000 -1421.7640    78.5279     0.0557    14.0000
  1499.5728  5863.9414 5860249.0000    -999.25     8.9954     8.9954   125.4095     0.0000    -999.25    65.4004     1.4381     1.4721     1.9283  1499.5728     0.5669  -686.0324    -999.25     0.3588     0.2973     0.0543     0.0543     0.0543 19226.5391     2.4127     1.4382     1.4381     2.0682    42.6724     1.0000     1.0000     1.0000 -1421.8728    79.0600     0.0543    14.0000
  1499.6164  5848.3975 5848397.5000    -999.25     8.9957     8.9957   125.6620     0.0000    -999.25    66.9501     1.4410     1.4705     1.9294  1499.6163     0.5680  -686.0534    -999.25     0.3620     0.2972     0.0536     0.0536     0.0536 19187.6562     2.4112     1.4410     1.4410     2.0764    42.6773     1.0000     1.0000     1.0000 -1421.9164    79.3120     0.0536    14.0000
  1499.7252  5814.9292 5810197.0000    -999.25     8.9963     8.9963   126.1824     0.0000    -999.25    70.8173     1.4480     1.4666     1.9323  1499.7252     0.5709  -686.1059    -999.25     0.3700     0.2972     0.0520     0.0520     0.0520 19062.3281     2.4073     1.4480     1.4480     2.0967    42.6894     1.0000     1.0000     1.0000 -1422.0251    79.9410     0.0520    14.0000
  1499.7688  5794.8887 5794889.0000    -999.25     9.0002     9.0002   126.3910     0.0000    -999.25    71.8080     1.4488     1.4630     1.9275  1499.7688     0.5716  -686.1270    -999.25     0.3696     0.2972     0.0517     0.0517     0.0517 19012.1035     2.4030     1.4488     1.4488     2.0990    42.7056     1.0000     1.0000     1.0000 -1422.0687    80.0543     0.0517    14.0000
  1499.8776  5743.2598 5742999.0000    -999.25     9.0101     9.0101   126.9536     0.0000    -999.25    74.2803     1.4507     1.4540     1.9154  1499.8776     0.5734  -686.1794    -999.25     0.3687     0.2971     0.0510     0.0510     0.0510 18841.8613     2.3921     1.4507     1.4507     2.1046    42.7460     1.0000     1.0000     1.0000 -1422.1776    80.3370     0.0510    14.0000
  1499.9212  5722.2051 5722205.0000    -999.25     9.0150     9.0150   127.1790     0.0000    -999.25    74.4481     1.4514     1.4502     1.9119  1499.9211     0.5748  -686.2005    -999.25     0.3593     0.2972     0.0506     0.0506     0.0506 18773.6387     2.3876     1.4514     1.4514     2.1066    42.7641     1.0000     1.0000     1.0000 -1422.2212    80.5009     0.0506    14.0000
