~Version ---------------------------------------------------
VERS. 2.0 : CWLS log ASCII Standard -VERSION 2.0
WRAP.  NO : 
~Well ------------------------------------------------------
STRT.m                                                1171.1084 : 
STOP.m                                                  1705.88 : 
STEP.m                                                   0.1524 : 
NULL.                                                   -999.25 : 
COMP.                                                           : COMPANY
WELL.                                                   Well-12 : WELL
FLD .                                                           : FIELD
LOC .                                                           : LOCATION
SRVC.                                                           : SERVICE COMPANY
DATE. 2021-01-20 14:34:05   : Log Export Date {yyyy-MM-dd HH:mm : ss}
PROV.                                                           : PROVINCE
UWI .                                                   Well-12 : UNIQUE WELL ID
API .                                                           : API NUMBER
~Curve Information -----------------------------------------
DEPTH             .m        : DEPTH
ACOUSTICIMPEDANCE1.kPa.s/m  : ACOUSTICIMPEDANCE1
AI                .kPa.s/m  : AI
AVG_PIGN          .m3/m3    : AVG_PIGN
DT                .us/ft    : DT
FACIES            ._        : FACIES
FLD1              ._        : FLD1
GR                .gAPI     : GR
HDRS              .ohm.m    : HDRS
HMRS              .ohm.m    : HMRS
DEPTH_1           .m        : DEPTH_1
NPHI              .m3/m3    : NPHI
ONE-WAYTIME1      .ms       : ONE-WAYTIME1
PERF_INT          ._        : PERF_INT
PERMEABILITY      .mD       : PERMEABILITY
PIGN              .m3/m3    : PIGN
PIGN_MODELLING    .m3/m3    : PIGN_MODELLING
PIMP              .kPa.s/m  : PIMP
RHOB              .g/cm3    : RHOB
RT_MODELLING      .ohm.m    : RT_MODELLING
RT_POWER          .ohm.m    : RT_POWER
SP                .mV       : SP
SUWI              ._        : SUWI
SUWI_MODELLING    ._        : SUWI_MODELLING
SXWI              ._        : SXWI
TDVSS             .m        : TDVSS
TEMP              .K        : TEMP
VCL               .%        : VCL
WATER_VOL         ._        : WATER_VOL
ZLT               ._        : ZLT
~Params ----------------------------------------------------
~Other -----------------------------------------------------
~ASCII -----------------------------------------------------
# ...
  1696.8884  6136.1880 6136188.0000    -999.25   125.9000     0.0000    -999.25   204.7348     1.4294     1.5449  1696.8884    -999.25  -787.3657    -999.25    -999.25    -999.25    -999.25 20131.8496     2.5346     1.4294     2.0432    92.5911    -999.25    -999.25    -999.25 -1614.4083   174.4824    -999.25    -999.25    25.0000
  1697.0408  6148.7773 6148781.5000    -999.25   125.9000     0.0000    -999.25   204.7348     1.3678     1.4944  1697.0408    -999.25  -787.4400    -999.25    -999.25    -999.25    -999.25 20173.1680     2.5398     1.3678     1.8709    92.6284    -999.25    -999.25    -999.25 -1614.5608   174.4909    -999.25    -999.25    25.0000
  1697.1932  6167.1763 6167176.5000    -999.25   125.9000     0.0000    -999.25   204.7348     1.3581     1.5017  1697.1931    -999.25  -787.5143    -999.25    -999.25    -999.25    -999.25 20233.5176     2.5474     1.3581     1.8444    92.6750    -999.25    -999.25    -999.25 -1614.7131   174.4993    -999.25    -999.25    25.0000
  1697.3456  6186.0596 6186058.0000    -999.25   125.9000     0.0000    -999.25   204.7348     1.3651     1.5200  1697.3456    -999.25  -787.5886    -999.25    -999.25    -999.25    -999.25 20295.4648     2.5552     1.3651     1.8635    92.6470    -999.25    -999.25    -999.25 -1614.8656   174.5078    -999.25    -999.25    25.0000
  1697.4980  6180.2495 6180249.5000    -999.25   125.9000     0.0000    -999.25   204.7348     1.3821     1.5441  1697.4979    -999.25  -787.6630    -999.25    -999.25    -999.25    -999.25 20276.4082     2.5528     1.3821     1.9102    92.5268    -999.25    -999.25    -999.25 -1615.0179   174.5163    -999.25    -999.25    25.0000
  1697.6504  6126.2617 6126262.0000    -999.25   125.9000     0.0000    -999.25   204.7348     1.3934     1.5692  1697.6504    -999.25  -787.7373    -999.25    -999.25    -999.25    -999.25 20099.2852     2.5305     1.3934     1.9416    92.2272    -999.25    -999.25    -999.25 -1615.1704   174.5248    -999.25    -999.25    25.0000
  1697.8028  6064.0435 6064043.5000    -999.25   125.9000     0.0000    -999.25   204.7348     1.3713     1.5559  1697.8027    -999.25  -787.8116    -999.25    -999.25    -999.25    -999.25 19895.1562     2.5048     1.3713     1.8805    91.9593    -999.25    -999.25    -999.25 -1615.3228   174.5333    -999.25    -999.25    25.0000
  1697.9552  6010.5396 6010540.0000    -999.25   125.9000     0.0000    -999.25   204.7348     1.2985     1.4799  1697.9552    -999.25  -787.8860    -999.25    -999.25    -999.25    -999.25 19719.6191     2.4827     1.2985     1.6861    91.9365    -999.25    -999.25    -999.25 -1615.4752   174.5418    -999.25    -999.25    25.0000
  1698.1076  5965.7520 5965752.0000    -999.25   125.9000     0.0000    -999.25   204.7348     1.2214     1.3995  1698.1075    -999.25  -787.9603    -999.25    -999.25    -999.25    -999.25 19572.6758     2.4642     1.2214     1.4918    91.8292    -999.25    -999.25    -999.25 -1615.6276   174.5503    -999.25    -999.25    25.0000
  1698.2600  5957.5205 5957520.5000    -999.25   125.9000     0.0000    -999.25   204.7348     1.1912     1.3701  1698.2600    -999.25  -788.0346    -999.25    -999.25    -999.25    -999.25 19545.6699     2.4608     1.1912     1.4190    91.7566    -999.25    -999.25    -999.25 -1615.7800   174.5587    -999.25    -999.25    25.0000
  1698.4124  5975.9199 5975920.0000    -999.25   125.9000     0.0000    -999.25   204.7348     1.2111     1.3894  1698.4124    -999.25  -788.1089    -999.25    -999.25    -999.25    -999.25 19606.0371     2.4684     1.2111     1.4668    91.9558    -999.25    -999.25    -999.25 -1615.9324   174.5672    -999.25    -999.25    25.0000
  1698.5648  5997.9507 5997952.0000    -999.25   125.9000     0.0000    -999.25   204.7348     1.2824     1.4472  1698.5648    -999.25  -788.1833    -999.25    -999.25    -999.25    -999.25 19678.3203     2.4775     1.2824     1.6445    92.0022    -999.25    -999.25    -999.25 -1616.0847   174.5757    -999.25    -999.25    25.0000
  1698.7172  6038.6230 6038624.5000    -999.25   125.9000     0.0000    -999.25   204.7348     1.3713     1.5160  1698.7172    -999.25  -788.2576    -999.25    -999.25    -999.25    -999.25 19811.7617     2.4943     1.3713     1.8805    92.0239    -999.25    -999.25    -999.25 -1616.2372   174.5842    -999.25    -999.25    25.0000
  1698.8696  6080.9902 6080990.0000    -999.25   125.9000     0.0000    -999.25   204.7348     1.4675     1.5826  1698.8696    -999.25  -788.3319    -999.25    -999.25    -999.25    -999.25 19950.7539     2.5118     1.4675     2.1536    92.0852    -999.25    -999.25    -999.25 -1616.3895   174.5927    -999.25    -999.25    25.0000
  1699.0220  6093.8213 6093803.5000    -999.25   125.9000     0.0000    -999.25   204.7348     1.5547     1.6447  1699.0220    -999.25  -788.4062    -999.25    -999.25    -999.25    -999.25 19992.7930     2.5171     1.5547     2.4171    92.1098    -999.25    -999.25    -999.25 -1616.5420   174.6012    -999.25    -999.25    25.0000
  1699.1744  6081.9580 6081956.0000    -999.25   125.9000     0.0000    -999.25   204.7348     1.6166     1.6898  1699.1743    -999.25  -788.4806    -999.25    -999.25    -999.25    -999.25 19953.9238     2.5122     1.6166     2.6134    92.0697    -999.25    -999.25    -999.25 -1616.6943   174.6097    -999.25    -999.25    25.0000
  1699.3268  6040.5596 6040560.0000    -999.25   125.9000     0.0000    -999.25   204.7348     1.6681     1.7048  1699.3268    -999.25  -788.5549    -999.25    -999.25    -999.25    -999.25 19818.1094     2.4951     1.6681     2.7826    91.8922    -999.25    -999.25    -999.25 -1616.8468   174.6181    -999.25    -999.25    25.0000
  1699.4792  6008.1187 6008118.5000    -999.25   125.9000     0.0000    -999.25   204.7348     1.7261     1.7141  1699.4791    -999.25  -788.6292    -999.25    -999.25    -999.25    -999.25 19711.6758     2.4817     1.7261     2.9794    91.7743    -999.25    -999.25    -999.25 -1616.9991   174.6266    -999.25    -999.25    25.0000
  1699.6316  6001.5825 6001582.5000    -999.25   125.9000     0.0000    -999.25   204.7348     1.8008     1.7346  1699.6316    -999.25  -788.7036    -999.25    -999.25    -999.25    -999.25 19690.2305     2.4790     1.8008     3.2429    91.7659    -999.25    -999.25    -999.25 -1617.1516   174.6351    -999.25    -999.25    25.0000
  1699.7840  6016.8345 6016834.0000    -999.25   125.9000    -999.25    -999.25   204.7348     1.8760     1.7558  1699.7839    -999.25  -788.7779    -999.25    -999.25    -999.25    -999.25 19740.2676     2.4853     1.8760     3.5194    91.8157    -999.25    -999.25    -999.25 -1617.3040   174.6436    -999.25    -999.25    25.0000
  1699.9364  6024.5815 6024581.5000    -999.25   125.9000    -999.25    -999.25   204.7348     1.9337     1.7703  1699.9364    -999.25  -788.8522    -999.25    -999.25    -999.25    -999.25 19765.6875     2.4885     1.9337     3.7392    92.2395    -999.25    -999.25    -999.25    -999.25   174.6521    -999.25    -999.25    25.0000
  1700.0888  6019.9819 6019982.0000    -999.25   125.9000    -999.25    -999.25   204.7348     1.9834     1.7770    -999.25    -999.25    -999.25    -999.25    -999.25    -999.25    -999.25 19750.5977     2.4866     1.9834     3.9339    92.8638    -999.25    -999.25    -999.25    -999.25   174.6606    -999.25    -999.25    25.0000
  1700.2412  6012.4766 6012476.5000    -999.25   125.9000    -999.25    -999.25   204.7348     1.9815     1.7694    -999.25    -999.25    -999.25    -999.25    -999.25    -999.25    -999.25 19725.9727     2.4835     1.9815     3.9263    93.3617    -999.25    -999.25    -999.25    -999.25   174.6691    -999.25    -999.25    25.0000
  1700.3936  5977.8564 5977858.5000    -999.25   125.9000    -999.25    -999.25   204.7348     1.9068     1.7404    -999.25    -999.25    -999.25    -999.25    -999.25    -999.25    -999.25 19612.3965     2.4692     1.9068     3.6359    93.8853    -999.25    -999.25    -999.25    -999.25   174.6776    -999.25    -999.25    25.0000
  1700.5460  5972.0464 5972046.5000    -999.25   125.9000    -999.25    -999.25   204.7348     1.7393     1.6925    -999.25    -999.25    -999.25    -999.25    -999.25    -999.25    -999.25 19593.3281     2.4668     1.7393     3.0252    94.2394    -999.25    -999.25    -999.25    -999.25   174.6860    -999.25    -999.25    25.0000
