~Version ---------------------------------------------------
VERS. 2.0 : CWLS log ASCII Standard -VERSION 2.0
WRAP.  NO : 
~Well ------------------------------------------------------
STRT.m                                                   1260.0 : 
STOP.m                                                1587.9648 : 
STEP.m                                                   0.1524 : 
NULL.                                                   -999.25 : 
COMP.                                                           : COMPANY
WELL.                                                    Well-5 : WELL
FLD .                                                           : FIELD
LOC .                                                           : LOCATION
SRVC.                                                           : SERVICE COMPANY
DATE. 2021-01-20 14:34:00   : Log Export Date {yyyy-MM-dd HH:mm : ss}
PROV.                                                           : PROVINCE
UWI .                                                    Well-5 : UNIQUE WELL ID
API .                                                           : API NUMBER
~Curve Information -----------------------------------------
DEPTH             .m        : DEPTH
ACOUSTICIMPEDANCE1.kPa.s/m  : ACOUSTICIMPEDANCE1
AI                .kPa.s/m  : AI
AVG_PIGN          .m3/m3    : AVG_PIGN
CALI              .in       : CALI
CALI[DERIVED]1    .in       : CALI[DERIVED]1
DT                .us/ft    : DT
FACIES            ._        : FACIES
FLD1              ._        : FLD1
GR                .gAPI     : GR
LLD               .ohm.m    : LLD
LLS               .ohm.m    : LLS
LL3               .ohm.m    : LL3
DEPTH_1           .m        : DEPTH_1
NPHI              .m3/m3    : NPHI
PERF_INT          ._        : PERF_INT
PERMEABILITY      .mD       : PERMEABILITY
PIGN              .m3/m3    : PIGN
PIGN_MODELLING    .m3/m3    : PIGN_MODELLING
PIMP              .kPa.s/m  : PIMP
RHOB              .g/cm3    : RHOB
RT_MODELLING      .ohm.m    : RT_MODELLING
RT_POWER          .ohm.m    : RT_POWER
SP                .mV       : SP
SUWI              ._        : SUWI
SUWI_MODELLING    ._        : SUWI_MODELLING
TDVSS             .m        : TDVSS
VCL               .%        : VCL
WATER_VOL         ._        : WATER_VOL
ZLT               ._        : ZLT
~Params ----------------------------------------------------
~Other -----------------------------------------------------
~ASCII -----------------------------------------------------
# ...
  1456.1819  5275.9248 5275924.5000    -999.25    10.1928    10.1928   129.7083     0.0000    -999.25    76.6688     1.4720     1.5399     2.0373  1456.1819     0.6069    -999.25     0.0181     0.0196     0.0196 17309.4629     2.2452     1.4720     2.1672    26.5626     1.0000     1.0000 -1384.5919    78.4116     0.0196    12.0000
  1456.2912  5269.2295 5267384.5000    -999.25    10.3159    10.3159   128.7746     0.0000    -999.25    75.5003     1.4394     1.5117     2.0222  1456.2911     0.6155    -999.25     0.0147     0.0186     0.0186 17281.4453     2.2262     1.4394     2.0719    26.5990     1.0000     1.0000 -1384.7012    79.5770     0.0186    12.0000
  1456.3342  5264.0244 5264024.5000    -999.25    10.3637    10.3637   128.4072     0.0000    -999.25    74.9224     1.4273     1.4959     2.0085  1456.3341     0.6200    -999.25     0.0134     0.0180     0.0180 17270.4219     2.2176     1.4273     2.0375    26.6172     1.0000     1.0000 -1384.7441    80.1726     0.0180    12.0000
  1456.4436  5067.3682 5075409.5000    -999.25    10.4854    10.4854   132.0830     0.0000    -999.25    73.4521     1.3964     1.4558     1.9737  1456.4436     0.6314    -999.25     0.0100     0.0167     0.0167 16651.6074     2.1959     1.3964     1.9500    26.6637     1.0000     1.0000 -1384.8536    81.6880     0.0167    12.0000
  1456.4867  5001.1016 5001101.5000    -999.25    10.5394    10.5394   133.5312     0.0000    -999.25    73.0871     1.3860     1.4396     1.9503  1456.4867     0.6363    -999.25     0.0091     0.0161     0.0161 16407.8145     2.1910     1.3860     1.9212    26.6885     1.0000     1.0000 -1384.8967    82.3147     0.0161    12.0000
  1456.5960  4805.6489 4816046.5000    -999.25    10.6764    10.6764   138.1651     0.0000    -999.25    72.1615     1.3594     1.3985     1.8911  1456.5959     0.6489    -999.25     0.0070     0.0146     0.0146 15800.6777     2.1784     1.3594     1.8480    26.7513     1.0000     1.0000 -1385.0060    83.9040     0.0146    12.0000
  1456.6390  4743.2437 4743243.5000    -999.25    10.7235    10.7235   139.9882     0.0000    -999.25    72.2224     1.3507     1.3851     1.8477  1456.6389     0.6505    -999.25     0.0068     0.0145     0.0145 15561.8223     2.1785     1.3507     1.8245    26.7864     1.0000     1.0000 -1385.0490    84.0815     0.0145    12.0000
  1456.7484  4625.2012 4631990.0000    -999.25    10.8431    10.8431   143.5746     0.0000    -999.25    72.3774     1.3284     1.3512     1.7373  1456.7484     0.6545    -999.25     0.0064     0.0141     0.0141 15196.8164     2.1787     1.3284     1.7646    26.8755     1.0000     1.0000 -1385.1584    84.5330     0.0141    12.0000
  1456.7915  4588.1592 4588159.5000    -999.25    10.8565    10.8565   144.9876     0.0000    -999.25    72.9012     1.3212     1.3413     1.7112  1456.7915     0.6506    -999.25     0.0071     0.0145     0.0145 15053.0166     2.1825     1.3212     1.7457    26.9162     1.0000     1.0000 -1385.2015    84.0183     0.0145    12.0000
  1456.9008  4576.9180 4579229.5000    -999.25    10.8905    10.8905   145.9890     0.0000    -999.25    74.2296     1.3030     1.3161     1.6450  1456.9008     0.6407    -999.25     0.0088     0.0157     0.0157 15023.7188     2.1922     1.3030     1.6977    27.0193     1.0000     1.0000 -1385.3108    82.7130     0.0157    12.0000
  1456.9438  4575.7163 4575716.5000    -999.25    10.8748    10.8748   146.3829     0.0000    -999.25    74.7781     1.2977     1.3091     1.6365  1456.9437     0.6334    -999.25     0.0102     0.0166     0.0166 15012.1924     2.1975     1.2977     1.6842    27.0607     1.0000     1.0000 -1385.3538    81.7816     0.0166    12.0000
  1457.0532  4664.7007 4665696.5000    -999.25    10.8349    10.8349   144.4780     0.0000    -999.25    76.1734     1.2844     1.2913     1.6149  1457.0532     0.6147    -999.25     0.0136     0.0187     0.0187 15307.4033     2.2111     1.2844     1.6498    27.1661     1.0000     1.0000 -1385.4631    79.4120     0.0187    12.0000
  1457.0962  4701.0635 4701063.5000    -999.25    10.8112    10.8112   143.7292     0.0000    -999.25    76.5213     1.2821     1.2873     1.6120  1457.0962     0.6082    -999.25     0.0149     0.0195     0.0195 15423.4375     2.2168     1.2821     1.6438    27.2034     1.0000     1.0000 -1385.5061    78.6056     0.0195    12.0000
  1457.2056  4798.2114 4799188.5000    -999.25    10.7508    10.7508   141.7385     0.0000    -999.25    77.4064     1.2762     1.2771     1.6046  1457.2056     0.5918    -999.25     0.0184     0.0213     0.0213 15745.3682     2.2313     1.2762     1.6287    27.2982     1.0000     1.0000 -1385.6156    76.5540     0.0213    12.0000
  1457.2486  4837.7563 4837756.5000    -999.25    10.7226    10.7226   140.9560     0.0000    -999.25    77.7503     1.2776     1.2776     1.6051  1457.2485     0.5884    -999.25     0.0196     0.0217     0.0217 15871.9043     2.2372     1.2776     1.6321    27.3251     1.0000     1.0000 -1385.6586    76.1271     0.0217    12.0000
  1457.3580  4971.3076 4973330.0000    -999.25    10.6507    10.6507   138.1006     0.0000    -999.25    78.6252     1.2810     1.2789     1.6065  1457.3580     0.5797    -999.25     0.0226     0.0227     0.0227 16316.6992     2.2524     1.2810     1.6409    27.3935     1.0000     1.0000 -1385.7679    75.0410     0.0227    12.0000
  1457.4010  5026.6177 5026617.5000    -999.25    10.6249    10.6249   136.9783     0.0000    -999.25    79.1983     1.2862     1.2855     1.6124  1457.4010     0.5788    -999.25     0.0238     0.0228     0.0228 16491.5273     2.2590     1.2862     1.6545    27.3937     1.0000     1.0000 -1385.8109    74.9264     0.0228    12.0000
  1457.5104  5182.1357 5184030.0000    -999.25    10.5592    10.5592   133.8479     0.0000    -999.25    80.6564     1.2996     1.3021     1.6272  1457.5104     0.5767    -999.25     0.0270     0.0231     0.0231 17007.9727     2.2756     1.2996     1.6890    27.3941     1.0000     1.0000 -1385.9204    74.6350     0.0231    12.0000
  1457.5534  5245.9014 5245901.5000    -999.25    10.5207    10.5207   132.6175     0.0000    -999.25    81.2382     1.3084     1.3145     1.6476  1457.5533     0.5766    -999.25     0.0283     0.0231     0.0231 17210.9629     2.2825     1.3084     1.7122    27.3806     1.0000     1.0000 -1385.9634    74.5994     0.0231    12.0000
  1457.6628  5419.4810 5420794.5000    -999.25    10.4228    10.4228   129.3466     0.0000    -999.25    82.7183     1.3309     1.3460     1.6994  1457.6628     0.5762    -999.25     0.0318     0.0232     0.0232 17784.7598     2.2998     1.3309     1.7713    27.3464     1.0000     1.0000 -1386.0728    74.5090     0.0232    12.0000
  1457.7058  5489.5371 5489537.0000    -999.25    10.3793    10.3793   128.0609     0.0000    -999.25    83.1361     1.3431     1.3623     1.7251  1457.7058     0.5757    -999.25     0.0332     0.0232     0.0232 18010.2910     2.3064     1.3431     1.8042    27.3200     1.0000     1.0000 -1386.1157    74.4249     0.0232    12.0000
  1457.8152  5626.4136 5625818.5000    -999.25    10.2686    10.2686   125.8516     0.0000    -999.25    84.1988     1.3741     1.4039     1.7902  1457.8152     0.5745    -999.25     0.0369     0.0234     0.0234 18457.4102     2.3231     1.3741     1.8881    27.2530     1.0000     1.0000 -1386.2252    74.2110     0.0234    12.0000
  1457.8582  5679.3848 5679384.5000    -999.25    10.2271    10.2271   124.9832     0.0000    -999.25    84.4963     1.3899     1.4217     1.8174  1457.8582     0.5738    -999.25     0.0384     0.0235     0.0235 18633.1523     2.3288     1.3899     1.9325    27.2130     1.0000     1.0000 -1386.2682    74.1083     0.0235    12.0000
  1457.9676  5799.9243 5799878.5000    -999.25    10.1214    10.1214   123.1466     0.0000    -999.25    85.2530     1.4303     1.4669     1.8867  1457.9675     0.5721    -999.25     0.0420     0.0238     0.0238 19028.4727     2.3433     1.4303     2.0456    27.1115     1.0000     1.0000 -1386.3776    73.8470     0.0238    12.0000
  1458.0106  5847.2388 5847239.0000    -999.25    10.0857    10.0857   122.4247     0.0000    -999.25    85.3741     1.4514     1.4844     1.9145  1458.0105     0.5719    -999.25     0.0428     0.0238     0.0238 19183.8555     2.3486     1.4514     2.1076    27.0617     1.0000     1.0000 -1386.4205    73.7971     0.0238    12.0000
