~Version ---------------------------------------------------
VERS. 2.0 : CWLS log ASCII Standard -VERSION 2.0
WRAP.  NO : 
~Well ------------------------------------------------------
STRT.m                                                1236.0668 : 
STOP.m                                                1579.8812 : 
STEP.m                                                   0.1524 : 
NULL.                                                   -999.25 : 
COMP.                                                           : COMPANY
WELL.                                                   Well-17 : WELL
FLD .                                                           : FIELD
LOC .                                                           : LOCATION
SRVC.                                                           : SERVICE COMPANY
DATE. 2021-01-20 14:34:08   : Log Export Date {yyyy-MM-dd HH:mm : ss}
PROV.                                                           : PROVINCE
UWI .                                                   Well-17 : UNIQUE WELL ID
API .                                                           : API NUMBER
~Curve Information -----------------------------------------
DEPTH             .m        : DEPTH
ACOUSTICIMPEDANCE1.kPa.s/m  : ACOUSTICIMPEDANCE1
AI                .kPa.s/m  : AI
AVG_PIGN          .m3/m3    : AVG_PIGN
CALI              .in       : CALI
NPHI              .m3/m3    : NPHI
DT                .us/ft    : DT
FACIES            ._        : FACIES
FLD1              ._        : FLD1
GR                .gAPI     : GR
M2R2              .ohm.m    : M2R2
LLS               .ohm.m    : LLS
LLD               .ohm.m    : LLD
DEPTH_1           .m        : DEPTH_1
NPHI_1            .m3/m3    : NPHI_1
PERF_INT          ._        : PERF_INT
PERMEABILITY      .mD       : PERMEABILITY
PHIT              .m3/m3    : PHIT
PIGN              .m3/m3    : PIGN
PIGN_MODELLING    .m3/m3    : PIGN_MODELLING
PIMP              .kPa.s/m  : PIMP
RHOB              .g/cm3    : RHOB
RT_MODELLING      .ohm.m    : RT_MODELLING
RT_POWER          .ohm.m    : RT_POWER
SP                .mV       : SP
SUWI              ._        : SUWI
SUWI_MODELLING    ._        : SUWI_MODELLING
SXWI              ._        : SXWI
TDVSS             .m        : TDVSS
VCL               .%        : VCL
WATER_VOL         ._        : WATER_VOL
RHOB_1            .g/cm3    : RHOB_1
ZLT               ._        : ZLT
~Params ----------------------------------------------------
~Other -----------------------------------------------------
~ASCII -----------------------------------------------------
# ...
  1326.5924  6061.7744 6061774.5000    -999.25     9.4166     0.5066   108.7073     0.0000    -999.25    61.6692     0.7900     0.7990     0.7950  1326.5924     0.5066    -999.25    -999.25     0.2182     0.0342     0.0342 19887.7109     2.1619     0.7950     0.6319   231.1024     1.0000     1.0000     1.0000 -1253.1024    82.9270     0.0342     2.1619    -999.25
  1326.7448  5836.1328 5836132.5000    -999.25     9.4054     0.4816   112.2131     0.0000    -999.25    60.3591     0.7803     0.7900     0.7860  1326.7449     0.4816    -999.25    -999.25     0.2189     0.0352     0.0352 19147.4180     2.1486     0.7860     0.6177   231.1255     1.0000     1.0000     1.0000 -1253.2549    82.4090     0.0352     2.1486    -999.25
  1326.8972  5519.1079 5519107.5000    -999.25     9.3003     0.4822   117.5890     0.0000    -999.25    59.8609     0.7683     0.7776     0.7736  1326.8972     0.4822    -999.25    -999.25     0.2185     0.0347     0.0347 18107.3086     2.1292     0.7736     0.5984   231.1975     1.0000     1.0000     1.0000 -1253.4072    82.6770     0.0347     2.1292    -999.25
  1327.0496  5166.7671 5166767.5000    -999.25     9.1949     0.5093   124.5477     0.0000    -999.25    61.7238     0.7606     0.7690     0.7650  1327.0497     0.5093    -999.25    -999.25     0.2221     0.0390     0.0390 16951.3359     2.1112     0.7650     0.5852   231.4705     1.0000     1.0000     1.0000 -1253.5597    82.5120     0.0390     2.1112    -999.25
  1327.2020  5045.0259 5045026.0000    -999.25     9.1690     0.5415   127.1955     0.0000    -999.25    64.8148     0.7677     0.7751     0.7704  1327.2020     0.5415    -999.25    -999.25     0.2348     0.0547     0.0547 16551.9219     2.1053     0.7704     0.5935   231.9511     1.0000     1.0000     1.0000 -1253.7120    81.1660     0.0547     2.1053    -999.25
  1327.3544  5139.1328 5139133.0000    -999.25     9.1811     0.5588   125.2850     0.0000    -999.25    66.1232     0.7861     0.7924     0.7874  1327.3545     0.5588    -999.25    -999.25     0.2413     0.0627     0.0627 16860.6719     2.1124     0.7874     0.6201   232.1670     1.0000     1.0000     1.0000 -1253.8644    80.4740     0.0627     2.1124    -999.25
  1327.5068  5166.1680 5166168.0000    -999.25     9.1920     0.5548   125.0011     0.0000    -999.25    64.8267     0.7950     0.7990     0.7940  1327.5068     0.5548    -999.25    -999.25     0.2374     0.0579     0.0579 16949.3691     2.1187     0.7940     0.6304   231.7809     1.0000     1.0000     1.0000 -1254.0168    80.8860     0.0579     2.1187    -999.25
  1327.6592  5081.8994 5081899.5000    -999.25     9.2286     0.5453   127.1123     0.0000    -999.25    63.1554     0.7853     0.7876     0.7819  1327.6592     0.5453    -999.25    -999.25     0.2323     0.0516     0.0516 16672.8984     2.1193     0.7819     0.6114   231.1967     1.0000     1.0000     1.0000 -1254.1692    81.4300     0.0516     2.1193    -999.25
  1327.8116  5115.3721 5115372.0000    -999.25     9.2631     0.5438   127.3018     0.0000    -999.25    62.6159     0.7753     0.7773     0.7713  1327.8116     0.5438    -999.25    -999.25     0.2245     0.0419     0.0419 16782.7168     2.1365     0.7713     0.5949   230.9395     1.0000     1.0000     1.0000 -1254.3217    82.2620     0.0419     2.1365    -999.25
  1327.9640  5213.3120 5213312.0000    -999.25     9.2189     0.5347   127.6482     0.0000    -999.25    62.0452     0.7797     0.7811     0.7744  1327.9640     0.5347    -999.25    -999.25     0.2192     0.0354     0.0354 17104.0410     2.1833     0.7744     0.5996   230.9221     1.0000     1.0000     1.0000 -1254.4740    82.8170     0.0354     2.1833    -999.25
  1328.1164  5227.8247 5227825.0000    -999.25     9.1359     0.5159   129.8726     0.0000    -999.25    60.5367     0.7870     0.7880     0.7804  1328.1165     0.5159    -999.25    -999.25     0.2194     0.0360     0.0360 17151.6562     2.2275     0.7804     0.6090   230.8144     1.0000     1.0000     1.0000 -1254.6265    82.0260     0.0360     2.2275    -999.25
  1328.2688  5112.3174 5112317.5000    -999.25     9.1376     0.5109   132.4689     0.0000    -999.25    59.2766     0.7829     0.7833     0.7753  1328.2688     0.5109    -999.25    -999.25     0.2191     0.0354     0.0354 16772.6953     2.2219     0.7753     0.6011   230.5396     1.0000     1.0000     1.0000 -1254.7788    82.2790     0.0354     2.2219    -999.25
  1328.4212  4786.1924 4786192.5000    -999.25     9.2367     0.5181   138.8345     0.0000    -999.25    59.4081     0.7726     0.7726     0.7646  1328.4213     0.5181    -999.25    -999.25     0.2183     0.0344     0.0344 15702.7314     2.1801     0.7646     0.5846   230.2630     1.0000     1.0000     1.0000 -1254.9313    82.8240     0.0344     2.1801    -999.25
  1328.5736  4475.2949 4475295.0000    -999.25     9.3250     0.5151   146.2399     0.0000    -999.25    60.4013     0.7717     0.7717     0.7637  1328.5736     0.5151    -999.25    -999.25     0.2182     0.0342     0.0342 14682.7256     2.1472     0.7637     0.5832   230.1249     1.0000     1.0000     1.0000 -1255.0836    82.9270     0.0342     2.1472    -999.25
  1328.7260  4354.9785 4354978.5000    -999.25     9.3393     0.5013   149.7531     0.0000    -999.25    60.4007     0.7864     0.7864     0.7784  1328.7261     0.5013    -999.25    -999.25     0.2182     0.0342     0.0342 14287.9873     2.1397     0.7784     0.6060   230.1040     1.0000     1.0000     1.0000 -1255.2361    82.9270     0.0342     2.1397    -999.25
  1328.8784  4365.0527 4365053.0000    -999.25     9.3095     0.4922   149.8055     0.0000    -999.25    58.7124     0.8031     0.8031     0.7944  1328.8784     0.4922    -999.25    -999.25     0.2182     0.0342     0.0342 14321.0400     2.1454     0.7944     0.6311   230.1171     1.0000     1.0000     1.0000 -1255.3884    82.9270     0.0342     2.1454    -999.25
  1329.0308  4457.5718 4457572.0000    -999.25     9.2903     0.4999   147.1516     0.0000    -999.25    57.1012     0.7999     0.7999     0.7909  1329.0309     0.4999    -999.25    -999.25     0.2182     0.0342     0.0342 14624.5791     2.1520     0.7909     0.6256   230.1267     1.0000     1.0000     1.0000 -1255.5409    82.9270     0.0342     2.1520    -999.25
  1329.1832  4575.4370 4575437.0000    -999.25     9.2917     0.5176   143.8499     0.0000    -999.25    57.2098     0.7799     0.7785     0.7702  1329.1832     0.5176    -999.25    -999.25     0.2182     0.0342     0.0342 15011.2764     2.1594     0.7702     0.5932   230.1505     1.0000     1.0000     1.0000 -1255.6932    82.9270     0.0342     2.1594    -999.25
  1329.3356  4679.1050 4679105.0000    -999.25     9.2987     0.5148   141.3155     0.0000    -999.25    58.9595     0.7626     0.7599     0.7519  1329.3357     0.5148    -999.25    -999.25     0.2182     0.0342     0.0342 15351.3936     2.1694     0.7519     0.5654   230.1926     1.0000     1.0000     1.0000 -1255.8456    82.9270     0.0342     2.1694    -999.25
  1329.4880  4884.8691 4884869.5000    -999.25     9.3050     0.4852   136.4686     0.0000    -999.25    60.8369     0.7600     0.7563     0.7483  1329.4880     0.4852    -999.25    -999.25     0.2203     0.0373     0.0373 16026.4736     2.1871     0.7483     0.5600   230.2255     1.0000     1.0000     1.0000 -1255.9980    81.3740     0.0373     2.1871    -999.25
  1329.6404  5225.6885 5225688.5000    -999.25     9.3050     0.4713   128.1269     0.0000    -999.25    60.6828     0.7738     0.7684     0.7604  1329.6404     0.4713    -999.25    -999.25     0.2217     0.0391     0.0391 17144.6465     2.1967     0.7604     0.5782   230.2212     1.0000     1.0000     1.0000 -1256.1504    80.4410     0.0391     2.1967    -999.25
  1329.7928  5605.3154 5605315.5000    -999.25     9.2758     0.4961   119.1187     0.0000    -999.25    58.9127     0.7995     0.7921     0.7835  1329.7928     0.4961    -999.25    -999.25     0.2193     0.0358     0.0358 18390.1426     2.1906     0.7835     0.6138   230.2009     1.0000     1.0000     1.0000 -1256.3029    82.0890     0.0358     2.1906    -999.25
