~Version ---------------------------------------------------
VERS. 2.0 : CWLS log ASCII Standard -VERSION 2.0
WRAP.  NO : 
~Well ------------------------------------------------------
STRT.m                                                1249.0292 : 
STOP.m                                                1575.3176 : 
STEP.m                                                   0.1524 : 
NULL.                                                   -999.25 : 
COMP.                                                           : COMPANY
WELL.                                                   Well-10 : WELL
FLD .                                                           : FIELD
LOC .                                                           : LOCATION
SRVC.                                                           : SERVICE COMPANY
DATE. 2021-01-20 14:34:04   : Log Export Date {yyyy-MM-dd HH:mm : ss}
PROV.                                                           : PROVINCE
UWI .                                                   Well-10 : UNIQUE WELL ID
API .                                                           : API NUMBER
~Curve Information -----------------------------------------
DEPTH             .m        : DEPTH
ACOUSTICIMPEDANCE1.kPa.s/m  : ACOUSTICIMPEDANCE1
AI                .kPa.s/m  : AI
AVG_PIGN          .m3/m3    : AVG_PIGN
CALI              .in       : CALI
CALI[DERIVED]1    .in       : CALI[DERIVED]1
DFL               .ohm.m    : DFL
DT                .us/ft    : DT
FACIES            ._        : FACIES
FLD1              ._        : FLD1
GR                .gAPI     : GR
HDRS              .ohm.m    : HDRS
HMRS              .ohm.m    : HMRS
DEPTH_1           .m        : DEPTH_1
NPHI              .m3/m3    : NPHI
PEF               .b/e      : PEF
PERF_INT          ._        : PERF_INT
PERMEABILITY      .mD       : PERMEABILITY
PHIT              .m3/m3    : PHIT
PIGN              .m3/m3    : PIGN
PIGN_MODELLING    .m3/m3    : PIGN_MODELLING
PIMP              .kPa.s/m  : PIMP
RHOB              .g/cm3    : RHOB
RT_MODELLING      .ohm.m    : RT_MODELLING
RT_POWER          .ohm.m    : RT_POWER
SP                .mV       : SP
SUWI              ._        : SUWI
SUWI_MODELLING    ._        : SUWI_MODELLING
SXWI              ._        : SXWI
TDVSS             .m        : TDVSS
TEMP              .K        : TEMP
VCL               .%        : VCL
WATER_VOL         ._        : WATER_VOL
ZLT               ._        : ZLT
~Params ----------------------------------------------------
~Other -----------------------------------------------------
~ASCII -----------------------------------------------------
# ...
  1292.6156  4261.5591 4261559.0000    -999.25     9.9720     9.9720     1.4762   152.9093    -999.25    -999.25    51.4827     1.0496     1.0258  1292.6156     0.5635     8.8013    -999.25    -999.25    -999.25    -999.25    -999.25 13981.4932     2.1379     1.4762     2.1792   142.3224    -999.25    -999.25    -999.25 -1212.6156   160.8498    -999.25    -999.25    -999.25
  1292.7680  4250.7793 4250779.5000    -999.25    10.0436    10.0436     1.4457   152.4724    -999.25    -999.25    54.0994     0.9789     0.9573  1292.7681     0.6004     9.0398    -999.25    -999.25    -999.25    -999.25    -999.25 13946.1270     2.1264     1.4457     2.0900   142.2578    -999.25    -999.25    -999.25 -1212.7681   160.8593    -999.25    -999.25    -999.25
  1292.9204  4163.9258 4163926.0000    -999.25    10.0837    10.0837     1.1733   154.3938    -999.25    -999.25    56.4606     0.9002     0.8797  1292.9204     0.6219     9.0296    -999.25    -999.25    -999.25    -999.25    -999.25 13661.1748     2.1092     1.1733     1.3766   142.2142    -999.25    -999.25    -999.25 -1212.9204   160.8688    -999.25    -999.25    -999.25
  1293.0728  4035.6470 4035647.0000    -999.25    10.0679    10.0679     1.0117   157.1111    -999.25    -999.25    58.4334     0.8680     0.8453  1293.0728     0.6336     8.9034    -999.25    -999.25    -999.25    -999.25    -999.25 13240.3115     2.0802     1.0117     1.0235   142.2581    -999.25    -999.25    -999.25 -1213.0728   160.8784    -999.25    -999.25    -999.25
  1293.2252  3948.7979 3948797.7500    -999.25     9.9819     9.9819     1.0045   158.9996    -999.25    -999.25    59.5032     0.8678     0.8431  1293.2252     0.6354     8.7815    -999.25    -999.25    -999.25    -999.25    -999.25 12955.3730     2.0599     1.0045     1.0090   142.4271    -999.25    -999.25    -999.25 -1213.2252   160.8879    -999.25    -999.25    -999.25
  1293.3776  3907.9861 3907986.0000    -999.25     9.7823     9.7823     1.0294   159.6384    -999.25    -999.25    59.1552     0.8807     0.8581  1293.3776     0.5991     8.7533    -999.25    -999.25    -999.25    -999.25    -999.25 12821.4766     2.0468     1.0294     1.0597   142.6068    -999.25    -999.25    -999.25 -1213.3776   160.8974    -999.25    -999.25    -999.25
  1293.5300  3885.2188 3885218.7500    -999.25     9.8496     9.8496     1.0375   159.6482    -999.25    -999.25    58.3533     0.8913     0.8721  1293.5300     0.6128     8.9277    -999.25    -999.25    -999.25    -999.25    -999.25 12746.7803     2.0350     1.0375     1.0764   142.7025    -999.25    -999.25    -999.25 -1213.5300   160.9070    -999.25    -999.25    -999.25
  1293.6824  3871.0117 3871011.7500    -999.25    10.1053    10.1053     1.0248   159.7065    -999.25    -999.25    57.3031     0.8956     0.8797  1293.6824     0.6091     9.2172    -999.25    -999.25    -999.25    -999.25    -999.25 12700.1699     2.0283     1.0248     1.0502   142.7604    -999.25    -999.25    -999.25 -1213.6824   160.9165    -999.25    -999.25    -999.25
  1293.8348  3886.9573 3886957.2500    -999.25    10.5852    10.5852     1.0558   159.3807    -999.25    -999.25    55.0892     0.9044     0.8906  1293.8348     0.6466     9.5059    -999.25    -999.25    -999.25    -999.25    -999.25 12752.4844     2.0325     1.0558     1.1147   142.8466    -999.25    -999.25    -999.25 -1213.8348   160.9260    -999.25    -999.25    -999.25
  1293.9872  3972.8806 3972880.5000    -999.25    10.3911    10.3911     1.0867   157.8440    -999.25    -999.25    50.9526     0.9337     0.9208  1293.9872     0.7460     9.7482    -999.25    -999.25    -999.25    -999.25    -999.25 13034.3848     2.0574     1.0867     1.1809   142.9416    -999.25    -999.25    -999.25 -1213.9872   160.9356    -999.25    -999.25    -999.25
  1294.1396  4115.3799 4115379.7500    -999.25    10.1660    10.1660     1.2139   155.6077    -999.25    -999.25    47.2142     0.9737     0.9641  1294.1396     0.7383     9.8446    -999.25    -999.25    -999.25    -999.25    -999.25 13501.9023     2.1010     1.2139     1.4736   143.0083    -999.25    -999.25    -999.25 -1214.1396   160.9451    -999.25    -999.25    -999.25
  1294.2920  4252.6753 4252675.0000    -999.25    10.0732    10.0732     1.3091   154.0888    -999.25    -999.25    45.6568     0.9887     0.9847  1294.2920     0.6636     9.7681    -999.25    -999.25    -999.25    -999.25    -999.25 13952.3467     2.1499     1.3091     1.7137   143.0794    -999.25    -999.25    -999.25 -1214.2920   160.9546    -999.25    -999.25    -999.25
  1294.4444  4309.3931 4309393.0000    -999.25    10.2937    10.2937     1.3547   154.0977    -999.25    -999.25    45.5424     0.9578     0.9584  1294.4445     0.6428     9.5382    -999.25    -999.25    -999.25    -999.25    -999.25 14138.4287     2.1787     1.3547     1.8352   143.1250    -999.25    -999.25    -999.25 -1214.4445   160.9642    -999.25    -999.25    -999.25
  1294.5968  4248.4141 4248414.0000    -999.25    10.6532    10.6532     1.2402   155.6208    -999.25    -999.25    45.9931     0.9059     0.9060  1294.5968     0.6729     9.2360    -999.25    -999.25    -999.25    -999.25    -999.25 13938.3672     2.1691     1.2402     1.5381   143.1945    -999.25    -999.25    -999.25 -1214.5968   160.9737    -999.25    -999.25    -999.25
  1294.7492  4117.4326 4117432.5000    -999.25    11.3547    11.3547     1.0979   158.0322    -999.25    -999.25    47.1883     0.8635     0.8590  1294.7491     0.7156     9.0537    -999.25    -999.25    -999.25    -999.25    -999.25 13508.6367     2.1348     1.0979     1.2054   143.3053    -999.25    -999.25    -999.25 -1214.7491   160.9832    -999.25    -999.25    -999.25
  1294.9016  3972.2891 3972289.2500    -999.25    11.7870    11.7870     1.0301   160.4918    -999.25    -999.25    48.2748     0.8347     0.8247  1294.9016     0.7245     9.0145    -999.25    -999.25    -999.25    -999.25    -999.25 13032.4443     2.0916     1.0301     1.0611   143.3979    -999.25    -999.25    -999.25 -1214.9016   160.9928    -999.25    -999.25    -999.25
  1295.0540  3873.0718 3873071.7500    -999.25    11.7045    11.7045     1.0134   162.1792    -999.25    -999.25    49.0964     0.8174     0.8049  1295.0540     0.7383     9.1266    -999.25    -999.25    -999.25    -999.25    -999.25 12706.9287     2.0608     1.0134     1.0270   143.4119    -999.25    -999.25    -999.25 -1215.0540   161.0023    -999.25    -999.25    -999.25
  1295.2064  3860.5432 3860543.2500    -999.25    11.3863    11.3863     1.0345   162.5082    -999.25    -999.25    50.4207     0.8122     0.8017  1295.2064     0.7187     9.2259    -999.25    -999.25    -999.25    -999.25    -999.25 12665.8242     2.0583     1.0345     1.0702   143.4408    -999.25    -999.25    -999.25 -1215.2064   161.0118    -999.25    -999.25    -999.25
  1295.3588  3895.6646 3895664.5000    -999.25    10.5204    10.5204     1.0172   161.7316    -999.25    -999.25    52.0516     0.8192     0.8136  1295.3588     0.7413     9.1962    -999.25    -999.25    -999.25    -999.25    -999.25 12781.0518     2.0671     1.0172     1.0347   143.4986    -999.25    -999.25    -999.25 -1215.3588   161.0213    -999.25    -999.25    -999.25
  1295.5112  3938.9480 3938948.0000    -999.25    10.4923    10.4923     1.0048   160.6431    -999.25    -999.25    53.8443     0.8344     0.8332  1295.5112     0.6704     9.2077    -999.25    -999.25    -999.25    -999.25    -999.25 12923.0576     2.0760     1.0048     1.0096   143.5095    -999.25    -999.25    -999.25 -1215.5112   161.0309    -999.25    -999.25    -999.25
  1295.6636  3965.0488 3965049.0000    -999.25    10.6094    10.6094     1.0394   159.4934    -999.25    -999.25    54.2027     0.8523     0.8521  1295.6636     0.6497     9.2724    -999.25    -999.25    -999.25    -999.25    -999.25 13008.6904     2.0748     1.0394     1.0804   143.4949    -999.25    -999.25    -999.25 -1215.6636   161.0404    -999.25    -999.25    -999.25
  1295.8160  3956.7373 3956737.2500    -999.25    10.3387    10.3387     1.1021   158.1953    -999.25    -999.25    52.7311     0.8647     0.8637  1295.8160     0.5903     9.5121    -999.25    -999.25    -999.25    -999.25    -999.25 12981.4219     2.0536     1.1021     1.2146   143.4896    -999.25    -999.25    -999.25 -1215.8160   161.0499    -999.25    -999.25    -999.25
