~Version ---------------------------------------------------
VERS. 2.0 : CWLS log ASCII Standard -VERSION 2.0
WRAP.  NO : 
~Well ------------------------------------------------------
STRT.m                                                1249.0292 : 
STOP.m                                                1575.3176 : 
STEP.m                                                   0.1524 : 
NULL.                                                   -999.25 : 
COMP.                                                           : COMPANY
WELL.                                                   Well-10 : WELL
FLD .                                                           : FIELD
LOC .                                                           : LOCATION
SRVC.                                                           : SERVICE COMPANY
DATE. 2021-01-20 14:34:04   : Log Export Date {yyyy-MM-dd HH:mm : ss}
PROV.                                                           : PROVINCE
UWI .                                                   Well-10 : UNIQUE WELL ID
API .                                                           : API NUMBER
~Curve Information -----------------------------------------
DEPTH             .m        : DEPTH
ACOUSTICIMPEDANCE1.kPa.s/m  : ACOUSTICIMPEDANCE1
AI                .kPa.s/m  : AI
AVG_PIGN          .m3/m3    : AVG_PIGN
CALI              .in       : CALI
CALI[DERIVED]1    .in       : CALI[DERIVED]1
DFL               .ohm.m    : DFL
DT                .us/ft    : DT
FACIES            ._        : FACIES
FLD1              ._        : FLD1
GR                .gAPI     : GR
HDRS              .ohm.m    : HDRS
HMRS              .ohm.m    : HMRS
DEPTH_1           .m        : DEPTH_1
NPHI              .m3/m3    : NPHI
PEF               .b/e      : PEF
PERF_INT          ._        : PERF_INT
PERMEABILITY      .mD       : PERMEABILITY
PHIT              .m3/m3    : PHIT
PIGN              .m3/m3    : PIGN
PIGN_MODELLING    .m3/m3    : PIGN_MODELLING
PIMP              .kPa.s/m  : PIMP
RHOB              .g/cm3    : RHOB
RT_MODELLING      .ohm.m    : RT_MODELLING
RT_POWER          .ohm.m    : RT_POWER
SP                .mV       : SP
SUWI              ._        : SUWI
SUWI_MODELLING    ._        : SUWI_MODELLING
SXWI              ._        : SXWI
TDVSS             .m        : TDVSS
TEMP              .K        : TEMP
VCL               .%        : VCL
WATER_VOL         ._        : WATER_VOL
ZLT               ._        : ZLT
~Params ----------------------------------------------------
~Other -----------------------------------------------------
~ASCII -----------------------------------------------------
  1249.0292  4402.4502 4402450.0000    -999.25    10.1490    10.1490     1.3917   151.0759    -999.25    -999.25    51.0436     1.1006     1.1129  1249.0292     0.6836     9.0027    -999.25    -999.25    -999.25    -999.25    -999.25 14443.7344     2.1821     1.3917     1.9368   143.3967    -999.25    -999.25    -999.25 -1169.0292   158.1236    -999.25    -999.25    -999.25
  1249.1816  4416.1851 4416185.0000    -999.25    10.3512    10.3512     1.4173   151.1582    -999.25    -999.25    51.7978     1.0938     1.1048  1249.1816     0.6715     8.7161    -999.25    -999.25    -999.25    -999.25    -999.25 14488.7959     2.1901     1.4173     2.0087   143.2784    -999.25    -999.25    -999.25 -1169.1816   158.1331    -999.25    -999.25    -999.25
  1249.3340  4383.2979 4383297.5000    -999.25    10.3983    10.3983     1.4361   152.0976    -999.25    -999.25    52.4647     1.0924     1.0974  1249.3340     0.7205     8.2547    -999.25    -999.25    -999.25    -999.25    -999.25 14380.8975     2.1873     1.4361     2.0624   142.9098    -999.25    -999.25    -999.25 -1169.3340   158.1426    -999.25    -999.25    -999.25
  1249.4864  4308.4629 4308463.0000    -999.25    10.0659    10.0659     1.4470   153.1901    -999.25    -999.25    53.0609     1.0981     1.0965  1249.4865     0.7472     7.8370    -999.25    -999.25    -999.25    -999.25    -999.25 14135.3770     2.1654     1.4470     2.0938   142.2860    -999.25    -999.25    -999.25 -1169.4865   158.1521    -999.25    -999.25    -999.25
  1249.6388  4249.8911 4249891.0000    -999.25     9.7859     9.7859     1.4020   153.8885    -999.25    -999.25    53.7058     1.1189     1.1168  1249.6388     0.7388     7.6451    -999.25    -999.25    -999.25    -999.25    -999.25 13943.2119     2.1457     1.4020     1.9656   141.6599    -999.25    -999.25    -999.25 -1169.6388   158.1617    -999.25    -999.25    -999.25
  1249.7912  4284.7622 4284762.5000    -999.25     9.7947     9.7947     1.4677   152.2235    -999.25    -999.25    53.8149     1.1938     1.2018  1249.7913     0.7188     7.7443    -999.25    -999.25    -999.25    -999.25    -999.25 14057.6191     2.1399     1.4677     2.1541   141.2851    -999.25    -999.25    -999.25 -1169.7913   158.1712    -999.25    -999.25    -999.25
  1249.9436  4447.6826 4447682.5000    -999.25     8.8972     8.8972     1.7537   147.1135    -999.25    -999.25    52.8373     1.3310     1.3578  1249.9436     0.6383     8.0602    -999.25    -999.25    -999.25    -999.25    -999.25 14592.1348     2.1467     1.7537     3.0755   141.3120    -999.25    -999.25    -999.25 -1169.9436   158.1807    -999.25    -999.25    -999.25
  1250.0960  4644.0850 4644085.0000    -999.25     8.5874     8.5874     2.2313   141.9683    -999.25    -999.25    53.2874     1.4031     1.4449  1250.0959     0.6499     8.4990    -999.25    -999.25    -999.25    -999.25    -999.25 15236.4990     2.1631     2.2313     4.9787   141.8033    -999.25    -999.25    -999.25 -1170.0959   158.1903    -999.25    -999.25    -999.25
  1250.2484  4713.3325 4713332.5000    -999.25     9.0096     9.0096     2.2777   140.6844    -999.25    -999.25    55.3876     1.2797     1.3154  1250.2484     0.6438     8.8685    -999.25    -999.25    -999.25    -999.25    -999.25 15463.6895     2.1755     2.2777     5.1879   142.6213    -999.25    -999.25    -999.25 -1170.2484   158.1998    -999.25    -999.25    -999.25
  1250.4008  4587.2148 4587214.5000    -999.25     9.3283     9.3283     1.8051   144.3729    -999.25    -999.25    57.4014     1.1054     1.1280  1250.4008     0.7429     9.0178    -999.25    -999.25    -999.25    -999.25    -999.25 15049.9170     2.1728     1.8051     3.2584   143.5402    -999.25    -999.25    -999.25 -1170.4008   158.2093    -999.25    -999.25    -999.25
  1250.5532  4378.9292 4378929.5000    -999.25     9.2340     9.2340     1.4087   150.7180    -999.25    -999.25    58.7604     1.0220     1.0366  1250.5532     0.7997     8.8638    -999.25    -999.25    -999.25    -999.25    -999.25 14366.5664     2.1653     1.4087     1.9844   144.3098    -999.25    -999.25    -999.25 -1170.5532   158.2189    -999.25    -999.25    -999.25
  1250.7056  4270.2227 4270222.5000    -999.25     9.2826     9.2826     1.3454   154.9902    -999.25    -999.25    59.0161     1.0113     1.0237  1250.7056     0.7053     8.3532    -999.25    -999.25    -999.25    -999.25    -999.25 14009.9170     2.1714     1.3454     1.8101   144.7579    -999.25    -999.25    -999.25 -1170.7056   158.2284    -999.25    -999.25    -999.25
  1250.8580  4290.5073 4290507.5000    -999.25     9.3204     9.3204     1.3811   155.0602    -999.25    -999.25    58.1286     1.0166     1.0314  1250.8580     0.6681     7.6434    -999.25    -999.25    -999.25    -999.25    -999.25 14076.4678     2.1827     1.3811     1.9074   144.9240    -999.25    -999.25    -999.25 -1170.8580   158.2379    -999.25    -999.25    -999.25
  1251.0104  4391.1675 4391167.5000    -999.25     9.3213     9.3213     1.4133   152.6510    -999.25    -999.25    57.5603     1.0104     1.0264  1251.0104     0.6596     6.9465    -999.25    -999.25    -999.25    -999.25    -999.25 14406.7178     2.1992     1.4133     1.9974   145.0348    -999.25    -999.25    -999.25 -1171.0104   158.2475    -999.25    -999.25    -999.25
  1251.1628  4483.9341 4483934.5000    -999.25     9.2503     9.2503     1.3532   150.4853    -999.25    -999.25    57.9786     0.9927     1.0075  1251.1628     0.6567     6.4262    -999.25    -999.25    -999.25    -999.25    -999.25 14711.0703     2.2138     1.3532     1.8312   145.1454    -999.25    -999.25    -999.25 -1171.1628   158.2570    -999.25    -999.25    -999.25
  1251.3152  4513.0137 4513014.0000    -999.25     9.2223     9.2223     1.3271   149.5832    -999.25    -999.25    59.2852     0.9721     0.9861  1251.3152     0.6345     6.1441    -999.25    -999.25    -999.25    -999.25    -999.25 14806.4756     2.2148     1.3271     1.7612   145.1677    -999.25    -999.25    -999.25 -1171.3152   158.2665    -999.25    -999.25    -999.25
  1251.4676  4502.9160 4502916.0000    -999.25     9.1894     9.1894     1.2812   149.7088    -999.25    -999.25    60.8257     0.9551     0.9701  1251.4677     0.6708     6.0202    -999.25    -999.25    -999.25    -999.25    -999.25 14773.3467     2.2117     1.2812     1.6415   145.0852    -999.25    -999.25    -999.25 -1171.4677   158.2761    -999.25    -999.25    -999.25
  1251.6200  4474.5454 4474545.5000    -999.25     8.9861     8.9861     1.2847   150.4128    -999.25    -999.25    61.7645     0.9441     0.9602  1251.6200     0.6627     5.9693    -999.25    -999.25    -999.25    -999.25    -999.25 14680.2676     2.2081     1.2847     1.6505   144.9113    -999.25    -999.25    -999.25 -1171.6200   158.2856    -999.25    -999.25    -999.25
  1251.7724  4455.7783 4455778.5000    -999.25     8.9762     8.9762     1.2585   150.8411    -999.25    -999.25    62.4016     0.9399     0.9538  1251.7725     0.6607     5.9526    -999.25    -999.25    -999.25    -999.25    -999.25 14618.6953     2.2051     1.2585     1.5838   144.5331    -999.25    -999.25    -999.25 -1171.7725   158.2951    -999.25    -999.25    -999.25
  1251.9248  4457.9897 4457989.5000    -999.25     8.9804     8.9804     1.2730   150.6979    -999.25    -999.25    62.1692     0.9428     0.9521  1251.9248     0.6177     5.9675    -999.25    -999.25    -999.25    -999.25    -999.25 14625.9502     2.2041     1.2730     1.6205   143.9404    -999.25    -999.25    -999.25 -1171.9248   158.3047    -999.25    -999.25    -999.25
  1252.0772  4505.9365 4505936.5000    -999.25     8.9203     8.9203     1.2607   149.9399    -999.25    -999.25    59.8982     0.9744     0.9830  1252.0771     0.5932     6.1270    -999.25    -999.25    -999.25    -999.25    -999.25 14783.2568     2.2166     1.2607     1.5894   143.2630    -999.25    -999.25    -999.25 -1172.0771   158.3142    -999.25    -999.25    -999.25
  1252.2296  4642.6069 4642607.0000    -999.25     8.7890     8.7890     1.2899   147.2723    -999.25    -999.25    56.9096     1.0637     1.0757  1252.2296     0.6012     6.3759    -999.25    -999.25    -999.25    -999.25    -999.25 15231.6504     2.2432     1.2899     1.6638   142.7425    -999.25    -999.25    -999.25 -1172.2296   158.3237    -999.25    -999.25    -999.25
