~Version ---------------------------------------------------
VERS. 2.0 : CWLS log ASCII Standard -VERSION 2.0
WRAP.  NO : 
~Well ------------------------------------------------------
STRT.m                                                1171.1084 : 
STOP.m                                                  1705.88 : 
STEP.m                                                   0.1524 : 
NULL.                                                   -999.25 : 
COMP.                                                           : COMPANY
WELL.                                                   Well-12 : WELL
FLD .                                                           : FIELD
LOC .                                                           : LOCATION
SRVC.                                                           : SERVICE COMPANY
DATE. 2021-01-20 14:34:05   : Log Export Date {yyyy-MM-dd HH:mm : ss}
PROV.                                                           : PROVINCE
UWI .                                                   Well-12 : UNIQUE WELL ID
API .                                                           : API NUMBER
~Curve Information -----------------------------------------
DEPTH             .m        : DEPTH
ACOUSTICIMPEDANCE1.kPa.s/m  : ACOUSTICIMPEDANCE1
AI                .kPa.s/m  : AI
AVG_PIGN          .m3/m3    : AVG_PIGN
DT                .us/ft    : DT
FACIES            ._        : FACIES
FLD1              ._        : FLD1
GR                .gAPI     : GR
HDRS              .ohm.m    : HDRS
HMRS              .ohm.m    : HMRS
DEPTH_1           .m        : DEPTH_1
NPHI              .m3/m3    : NPHI
ONE-WAYTIME1      .ms       : ONE-WAYTIME1
PERF_INT          ._        : PERF_INT
PERMEABILITY      .mD       : PERMEABILITY
PIGN              .m3/m3    : PIGN
PIGN_MODELLING    .m3/m3    : PIGN_MODELLING
PIMP              .kPa.s/m  : PIMP
RHOB              .g/cm3    : RHOB
RT_MODELLING      .ohm.m    : RT_MODELLING
RT_POWER          .ohm.m    : RT_POWER
SP                .mV       : SP
SUWI              ._        : SUWI
SUWI_MODELLING    ._        : SUWI_MODELLING
SXWI              ._        : SXWI
TDVSS             .m        : TDVSS
TEMP              .K        : TEMP
VCL               .%        : VCL
WATER_VOL         ._        : WATER_VOL
ZLT               ._        : ZLT
~Params ----------------------------------------------------
~Other -----------------------------------------------------
~ASCII -----------------------------------------------------
# ...
  1205.3984  5217.0425 5217042.5000    -999.25   133.8550    -999.25    -999.25   139.1798     1.4264     1.5912  1205.3983     0.7760  -547.6603    -999.25    -999.25    -999.25    -999.25 17116.2812     2.2911     1.4264     2.0346    75.3392    -999.25    -999.25    -999.25 -1122.9183   147.1163    -999.25    -999.25    -999.25
  1205.5508  5187.9062 5187906.0000    -999.25   134.2660    -999.25    -999.25   139.8295     1.4423     1.5886  1205.5508     0.7551  -547.7346    -999.25    -999.25    -999.25    -999.25 17020.6895     2.2853     1.4423     2.0802    75.5719    -999.25    -999.25    -999.25 -1123.0708   147.1248    -999.25    -999.25    -999.25
  1205.7032  5129.3862 5129386.0000    -999.25   135.3462    -999.25    -999.25   140.5184     1.4023     1.5389  1205.7031     0.6921  -547.8090    -999.25    -999.25    -999.25    -999.25 16828.6953     2.2777     1.4023     1.9664    75.7383    -999.25    -999.25    -999.25 -1123.2231   147.1333    -999.25    -999.25    -999.25
  1205.8556  5043.1777 5043177.0000    -999.25   136.4994    -999.25    -999.25   141.1245     1.3578     1.4887  1205.8556     0.7112  -547.8833    -999.25    -999.25    -999.25    -999.25 16545.8574     2.2585     1.3578     1.8436    75.7419    -999.25    -999.25    -999.25 -1123.3756   147.1418    -999.25    -999.25    -999.25
  1206.0080  4971.9561 4971956.0000    -999.25   137.0386    -999.25    -999.25   141.7104     1.3425     1.4775  1206.0079     0.7660  -547.9576    -999.25    -999.25    -999.25    -999.25 16312.1914     2.2354     1.3425     1.8023    75.6417    -999.25    -999.25    -999.25 -1123.5280   147.1503    -999.25    -999.25    -999.25
  1206.1604  4959.5620 4959562.0000    -999.25   136.8894    -999.25    -999.25   142.5620     1.3596     1.5151  1206.1604     0.7767  -548.0319    -999.25    -999.25    -999.25    -999.25 16271.5283     2.2274     1.3596     1.8485    75.4281    -999.25    -999.25    -999.25 -1123.6804   147.1587    -999.25    -999.25    -999.25
  1206.3128  4978.8511 4978851.0000    -999.25   136.6162    -999.25    -999.25   143.9352     1.3919     1.5640  1206.3127     0.7384  -548.1063    -999.25    -999.25    -999.25    -999.25 16334.8135     2.2316     1.3919     1.9374    75.2430    -999.25    -999.25    -999.25 -1123.8328   147.1672    -999.25    -999.25    -999.25
  1206.4652  5010.7441 5010743.5000    -999.25   136.1785    -999.25    -999.25   145.8986     1.4228     1.5871  1206.4652     0.7232  -548.1806    -999.25    -999.25    -999.25    -999.25 16439.4453     2.2387     1.4228     2.0244    74.9833    -999.25    -999.25    -999.25 -1123.9852   147.1757    -999.25    -999.25    -999.25
  1206.6176  5044.6392 5044639.5000    -999.25   135.4871    -999.25    -999.25   147.9363     1.4391     1.5838  1206.6176     0.7364  -548.2549    -999.25    -999.25    -999.25    -999.25 16550.6543     2.2424     1.4391     2.0710    74.7254    -999.25    -999.25    -999.25 -1124.1376   147.1842    -999.25    -999.25    -999.25
  1206.7700  5067.9146 5067915.0000    -999.25   135.0152    -999.25    -999.25   148.8127     1.4413     1.5805  1206.7700     0.7335  -548.3292    -999.25    -999.25    -999.25    -999.25 16627.0176     2.2449     1.4413     2.0773    74.5699    -999.25    -999.25    -999.25 -1124.2899   147.1927    -999.25    -999.25    -999.25
  1206.9224  5096.4336 5096433.5000    -999.25   134.8398    -999.25    -999.25   147.4770     1.4519     1.5923  1206.9224     0.7569  -548.4036    -999.25    -999.25    -999.25    -999.25 16720.5840     2.2546     1.4519     2.1080    74.5366    -999.25    -999.25    -999.25 -1124.4424   147.2012    -999.25    -999.25    -999.25
  1207.0748  5139.0889 5139091.0000    -999.25   134.5806    -999.25    -999.25   144.2109     1.4874     1.6187  1207.0748     0.7458  -548.4779    -999.25    -999.25    -999.25    -999.25 16860.5352     2.2691     1.4874     2.2124    74.6344    -999.25    -999.25    -999.25 -1124.5947   147.2096    -999.25    -999.25    -999.25
  1207.2272  5220.6982 5220698.0000    -999.25   134.0824    -999.25    -999.25   140.7594     1.5306     1.6531  1207.2272     0.6888  -548.5522    -999.25    -999.25    -999.25    -999.25 17128.2754     2.2966     1.5306     2.3427    74.7039    -999.25    -999.25    -999.25 -1124.7472   147.2181    -999.25    -999.25    -999.25
  1207.3796  5295.6938 5295693.5000    -999.25   133.5534    -999.25    -999.25   138.7939     1.5526     1.6862  1207.3795     0.6627  -548.6266    -999.25    -999.25    -999.25    -999.25 17374.3223     2.3204     1.5526     2.4106    74.8173    -999.25    -999.25    -999.25 -1124.8995   147.2266    -999.25    -999.25    -999.25
  1207.5320  5331.2153 5331215.5000    -999.25   133.1838    -999.25    -999.25   138.3506     1.5530     1.7074  1207.5320     0.6854  -548.7009    -999.25    -999.25    -999.25    -999.25 17490.8652     2.3295     1.5530     2.4118    74.9038    -999.25    -999.25    -999.25 -1125.0520   147.2351    -999.25    -999.25    -999.25
  1207.6844  5289.6792 5289676.5000    -999.25   133.1348    -999.25    -999.25   138.2556     1.5433     1.7108  1207.6843     0.6901  -548.7752    -999.25    -999.25    -999.25    -999.25 17354.5820     2.3105     1.5433     2.3818    75.0032    -999.25    -999.25    -999.25 -1125.2043   147.2436    -999.25    -999.25    -999.25
  1207.8368  5193.0015 5193001.5000    -999.25   133.5121    -999.25    -999.25   137.6641     1.5235     1.6872  1207.8368     0.6633  -548.8495    -999.25    -999.25    -999.25    -999.25 17037.4062     2.2747     1.5235     2.3211    75.1466    -999.25    -999.25    -999.25 -1125.3568   147.2521    -999.25    -999.25    -999.25
  1207.9892  5156.7017 5156702.0000    -999.25   133.8786    -999.25    -999.25   136.5187     1.4967     1.6379  1207.9891     0.6490  -548.9239    -999.25    -999.25    -999.25    -999.25 16918.3125     2.2650     1.4967     2.2401    75.2961    -999.25    -999.25    -999.25 -1125.5092   147.2606    -999.25    -999.25    -999.25
  1208.1416  5152.3325 5152332.5000    -999.25   133.7141    -999.25    -999.25   135.0236     1.4611     1.5743  1208.1416     0.6502  -548.9982    -999.25    -999.25    -999.25    -999.25 16903.9785     2.2603     1.4611     2.1348    75.4099    -999.25    -999.25    -999.25 -1125.6616   147.2690    -999.25    -999.25    -999.25
  1208.2940  5149.3345 5149335.0000    -999.25   133.4190    -999.25    -999.25   133.5006     1.4258     1.5237  1208.2939     0.6452  -549.0725    -999.25    -999.25    -999.25    -999.25 16894.1445     2.2540     1.4258     2.0329    75.4980    -999.25    -999.25    -999.25 -1125.8140   147.2775    -999.25    -999.25    -999.25
  1208.4464  5093.1152 5093115.5000    -999.25   134.9456    -999.25    -999.25   132.2825     1.4009     1.5132  1208.4464     0.6424  -549.1469    -999.25    -999.25    -999.25    -999.25 16709.6953     2.2549     1.4009     1.9625    75.4814    -999.25    -999.25    -999.25 -1125.9664   147.2860    -999.25    -999.25    -999.25
  1208.5988  4900.1772 4900177.0000    -999.25   140.1656    -999.25    -999.25   131.5351     1.4026     1.5334  1208.5988     0.6631  -549.2212    -999.25    -999.25    -999.25    -999.25 16076.6963     2.2534     1.4026     1.9673    75.3081    -999.25    -999.25    -999.25 -1126.1188   147.2945    -999.25    -999.25    -999.25
  1208.7512  4558.7759 4558776.0000    -999.25   150.7293    -999.25    -999.25   131.2897     1.4416     1.5807  1208.7512     0.7092  -549.2955    -999.25    -999.25    -999.25    -999.25 14956.6133     2.2544     1.4416     2.0782    74.8116    -999.25    -999.25    -999.25 -1126.2711   147.3030    -999.25    -999.25    -999.25
  1208.9036  4243.7402 4243741.0000    -999.25   161.8326    -999.25    -999.25   131.1508     1.5168     1.6846  1208.9036     0.7113  -549.3698    -999.25    -999.25    -999.25    -999.25 13923.0352     2.2532     1.5168     2.3007    74.1632    -999.25    -999.25    -999.25 -1126.4236   147.3115    -999.25    -999.25    -999.25
  1209.0560  4156.7642 4156764.0000    -999.25   164.9548    -999.25    -999.25   130.4518     1.6402     1.8408  1209.0560     0.6581  -549.4442    -999.25    -999.25    -999.25    -999.25 13637.6777     2.2496     1.6402     2.6903    73.4509    -999.25    -999.25    -999.25 -1126.5759   147.3200    -999.25    -999.25    -999.25
