~Version ---------------------------------------------------
VERS. 2.0 : CWLS log ASCII Standard -VERSION 2.0
WRAP.  NO : 
~Well ------------------------------------------------------
STRT.m                                                1236.0668 : 
STOP.m                                                1579.8812 : 
STEP.m                                                   0.1524 : 
NULL.                                                   -999.25 : 
COMP.                                                           : COMPANY
WELL.                                                   Well-17 : WELL
FLD .                                                           : FIELD
LOC .                                                           : LOCATION
SRVC.                                                           : SERVICE COMPANY
DATE. 2021-01-20 14:34:08   : Log Export Date {yyyy-MM-dd HH:mm : ss}
PROV.                                                           : PROVINCE
UWI .                                                   Well-17 : UNIQUE WELL ID
API .                                                           : API NUMBER
~Curve Information -----------------------------------------
DEPTH             .m        : DEPTH
ACOUSTICIMPEDANCE1.kPa.s/m  : ACOUSTICIMPEDANCE1
AI                .kPa.s/m  : AI
AVG_PIGN          .m3/m3    : AVG_PIGN
CALI              .in       : CALI
NPHI              .m3/m3    : NPHI
DT                .us/ft    : DT
FACIES            ._        : FACIES
FLD1              ._        : FLD1
GR                .gAPI     : GR
M2R2              .ohm.m    : M2R2
LLS               .ohm.m    : LLS
LLD               .ohm.m    : LLD
DEPTH_1           .m        : DEPTH_1
NPHI_1            .m3/m3    : NPHI_1
PERF_INT          ._        : PERF_INT
PERMEABILITY      .mD       : PERMEABILITY
PHIT              .m3/m3    : PHIT
PIGN              .m3/m3    : PIGN
PIGN_MODELLING    .m3/m3    : PIGN_MODELLING
PIMP              .kPa.s/m  : PIMP
RHOB              .g/cm3    : RHOB
RT_MODELLING      .ohm.m    : RT_MODELLING
RT_POWER          .ohm.m    : RT_POWER
SP                .mV       : SP
SUWI              ._        : SUWI
SUWI_MODELLING    ._        : SUWI_MODELLING
SXWI              ._        : SXWI
TDVSS             .m        : TDVSS
VCL               .%        : VCL
WATER_VOL         ._        : WATER_VOL
RHOB_1            .g/cm3    : RHOB_1
ZLT               ._        : ZLT
~Params ----------------------------------------------------
~Other -----------------------------------------------------
~ASCII -----------------------------------------------------
# ...
  1283.0060  4819.1060 4819106.0000    -999.25     9.1571     0.6554   142.2415     0.0000    -999.25    70.1311     0.9282     0.9262     0.9192  1283.0060     0.6554    -999.25    -999.25     0.2562     0.0804     0.0804 15810.7148     2.2489     0.9192     0.8449   229.1251     1.0000     1.0000     1.0000 -1209.5160    78.9540     0.0804     2.2489    -999.25
  1283.1584  4860.9268 4860927.0000    -999.25     9.2425     0.6169   140.3913     0.0000    -999.25    69.9510     0.9049     0.9029     0.8966  1283.1584     0.6169    -999.25    -999.25     0.2411     0.0617     0.0617 15947.9229     2.2390     0.8966     0.8039   229.1829     1.0000     1.0000     1.0000 -1209.6685    80.5610     0.0617     2.2390    -999.25
  1283.3108  5025.2661 5025266.5000    -999.25     9.3607     0.5793   135.2955     0.0000    -999.25    70.2013     0.9010     0.8990     0.8930  1283.3108     0.5793    -999.25    -999.25     0.2263     0.0435     0.0435 16487.0938     2.2306     0.8930     0.7975   229.2088     1.0000     1.0000     1.0000 -1209.8208    82.1270     0.0435     2.2306    -999.25
  1283.4632  5303.1997 5303200.0000    -999.25     9.5249     0.5682   127.7060     0.0000    -999.25    69.3538     0.9033     0.9007     0.8947  1283.4633     0.5682    -999.25    -999.25     0.2248     0.0416     0.0416 17398.9492     2.2220     0.8947     0.8004   229.2369     1.0000     1.0000     1.0000 -1209.9733    82.2890     0.0416     2.2220    -999.25
  1283.6156  5509.6284 5509628.5000    -999.25     9.6035     0.5743   122.9439     0.0000    -999.25    67.7390     0.9000     0.8963     0.8910  1283.6156     0.5743    -999.25    -999.25     0.2279     0.0454     0.0454 18076.2090     2.2224     0.8910     0.7938   229.3031     1.0000     1.0000     1.0000 -1210.1256    81.9590     0.0454     2.2224    -999.25
  1283.7680  5515.7515 5515751.5000    -999.25     9.4820     0.5822   123.8634     0.0000    -999.25    67.1861     0.8987     0.8947     0.8903  1283.7681     0.5822    -999.25    -999.25     0.2243     0.0409     0.0409 18096.2969     2.2415     0.8903     0.7927   229.4012     1.0000     1.0000     1.0000 -1210.2781    82.3460     0.0409     2.2415    -999.25
  1283.9204  5370.0947 5370095.0000    -999.25     9.2641     0.5852   128.1267     0.0000    -999.25    67.8561     0.9097     0.9057     0.9024  1283.9204     0.5852    -999.25    -999.25     0.2199     0.0355     0.0355 17618.4219     2.2574     0.9024     0.8144   229.4837     1.0000     1.0000     1.0000 -1210.4304    82.8150     0.0355     2.2574    -999.25
  1284.0728  5138.3105 5138311.0000    -999.25     9.1131     0.5789   134.6787     0.0000    -999.25    68.8451     0.9318     0.9285     0.9261  1284.0729     0.5789    -999.25    -999.25     0.2188     0.0342     0.0342 16857.9746     2.2704     0.9261     0.8577   229.5084     1.0000     1.0000     1.0000 -1210.5829    82.9270     0.0342     2.2704    -999.25
  1284.2252  5004.4883 5004488.5000    -999.25     9.0767     0.5569   139.4190     0.0000    -999.25    69.5697     0.9528     0.9498     0.9484  1284.2252     0.5569    -999.25    -999.25     0.2188     0.0342     0.0342 16418.9258     2.2891     0.9484     0.8995   229.4942     1.0000     1.0000     1.0000 -1210.7352    82.9270     0.0342     2.2891    -999.25
  1284.3776  4967.0986 4967098.5000    -999.25     9.1052     0.5240   141.4687     0.0000    -999.25    69.1704     0.9617     0.9594     0.9590  1284.3777     0.5240    -999.25    -999.25     0.2222     0.0386     0.0386 16296.2559     2.3054     0.9590     0.9197   229.4971     1.0000     1.0000     1.0000 -1210.8877    80.7010     0.0386     2.3054    -999.25
  1284.5300  4876.3657 4876365.5000    -999.25     9.1177     0.5072   144.3041     0.0000    -999.25    67.8091     0.9596     0.9576     0.9590  1284.5300     0.5072    -999.25    -999.25     0.2245     0.0416     0.0416 15998.5742     2.3087     0.9590     0.9196   229.5652     1.0000     1.0000     1.0000 -1211.0400    79.2100     0.0416     2.3087    -999.25
  1284.6824  4795.2300 4795230.0000    -999.25     9.0868     0.5214   145.9779     0.0000    -999.25    67.0354     0.9540     0.9526     0.9546  1284.6825     0.5214    -999.25    -999.25     0.2220     0.0383     0.0383 15732.3818     2.2966     0.9546     0.9113   229.7196     1.0000     1.0000     1.0000 -1211.1924    80.8690     0.0383     2.2966    -999.25
  1284.8348  4793.5332 4793533.5000    -999.25     9.0586     0.5488   145.2475     0.0000    -999.25    67.4740     0.9500     0.9483     0.9510  1284.8348     0.5488    -999.25    -999.25     0.2194     0.0349     0.0349 15726.8154     2.2843     0.9510     0.9044   229.9110     1.0000     1.0000     1.0000 -1211.3448    82.5490     0.0349     2.2843    -999.25
  1284.9872  4822.6914 4822691.5000    -999.25     9.0863     0.5662   143.9920     0.0000    -999.25    68.2163     0.9436     0.9409     0.9439  1284.9872     0.5662    -999.25    -999.25     0.2188     0.0342     0.0342 15822.4775     2.2783     0.9439     0.8910   230.0549     1.0000     1.0000     1.0000 -1211.4972    82.9270     0.0342     2.2783    -999.25
  1285.1396  4817.6494 4817649.5000    -999.25     9.1682     0.5735   143.2949     0.0000    -999.25    68.6096     0.9444     0.9407     0.9430  1285.1396     0.5735    -999.25    -999.25     0.2188     0.0342     0.0342 15805.9365     2.2649     0.9430     0.8893   230.1263     1.0000     1.0000     1.0000 -1211.6497    82.9270     0.0342     2.2649    -999.25
  1285.2920  4986.1826 4986183.0000    -999.25     9.2228     0.5721   139.4045     0.0000    -999.25    68.0625     1.0004     0.9951     0.9964  1285.2920     0.5721    -999.25    -999.25     0.2188     0.0342     0.0342 16358.8672     2.2805     0.9964     0.9928   230.1319     1.0000     1.0000     1.0000 -1211.8020    82.9270     0.0342     2.2805    -999.25
  1285.4444  5425.1084 5425108.0000    -999.25     9.1682     0.5651   132.7924     0.0000    -999.25    65.3743     1.1748     1.1668     1.1665  1285.4445     0.5651    -999.25    -999.25     0.2206     0.0365     0.0365 17798.9121     2.3636     1.1665     1.3606   230.0269     1.0000     1.0000     1.0000 -1211.9545    81.7310     0.0365     2.3636    -999.25
  1285.5968  5775.4121 5775412.5000    -999.25     9.0547     0.5668   128.9484     0.0000    -999.25    61.4336     1.4056     1.3939     1.3882  1285.5968     0.5668    -999.25    -999.25     0.2231     0.0398     0.0398 18948.2031     2.4433     1.3882     1.9270   229.7993     1.0000     1.0000     1.0000 -1212.1068    80.1170     0.0398     2.4433    -999.25
  1285.7492  5829.0278 5829027.5000    -999.25     8.9922     0.5743   126.5764     0.0000    -999.25    59.4582     1.4400     1.4277     1.4163  1285.7493     0.5743    -999.25    -999.25     0.2210     0.0370     0.0370 19124.1074     2.4207     1.4163     2.0059   229.6005     1.0000     1.0000     1.0000 -1212.2593    81.5190     0.0370     2.4207    -999.25
  1285.9016  5597.7827 5597782.5000    -999.25     8.9891     0.5718   127.6992     0.0000    -999.25    61.2972     1.2484     1.2377     1.2234  1285.9016     0.5718    -999.25    -999.25     0.2191     0.0345     0.0345 18365.4277     2.3452     1.2234     1.4966   229.6306     1.0000     1.0000     1.0000 -1212.4116    82.7670     0.0345     2.3452    -999.25
  1286.0540  5219.2173 5219217.5000    -999.25     9.0024     0.5644   133.5452     0.0000    -999.25    66.1463     1.0515     1.0388     1.0224  1286.0541     0.5644    -999.25    -999.25     0.2188     0.0342     0.0342 17123.4160     2.2868     1.0224     1.0454   229.8984     1.0000     1.0000     1.0000 -1212.5641    82.9270     0.0342     2.2868    -999.25
  1286.2064  4979.1343 4979134.0000    -999.25     9.0493     0.5671   137.7862     0.0000    -999.25    71.7852     0.9483     0.9309     0.9126  1286.2064     0.5671    -999.25    -999.25     0.2188     0.0342     0.0342 16335.7422     2.2508     0.9126     0.8328   230.2421     1.0000     1.0000     1.0000 -1212.7164    82.9270     0.0342     2.2508    -999.25
