~Version ---------------------------------------------------
VERS. 2.0 : CWLS log ASCII Standard -VERSION 2.0
WRAP.  NO : 
~Well ------------------------------------------------------
STRT.m                                                1295.9144 : 
STOP.m                                                1639.8812 : 
STEP.m                                                   0.1524 : 
NULL.                                                   -999.25 : 
COMP.                                                           : COMPANY
WELL.                                                    Well-1 : WELL
FLD .                                                           : FIELD
LOC .                                                           : LOCATION
SRVC.                                                           : SERVICE COMPANY
DATE. 2021-01-20 14:33:59   : Log Export Date {yyyy-MM-dd HH:mm : ss}
PROV.                                                           : PROVINCE
UWI .                                                    Well-1 : UNIQUE WELL ID
API .                                                           : API NUMBER
~Curve Information -----------------------------------------
DEPTH             .m        : DEPTH
ACOUSTICIMPEDANCE1.kPa.s/m  : ACOUSTICIMPEDANCE1
AI                .kPa.s/m  : AI
AVG_PIGN          .m3/m3    : AVG_PIGN
CALI              .in       : CALI
CALI[DERIVED]1    .in       : CALI[DERIVED]1
DFL               .ohm.m    : DFL
DT                .us/ft    : DT
FACIES            ._        : FACIES
FLD1              ._        : FLD1
GR                .gAPI     : GR
HDRS              .ohm.m    : HDRS
HMRS              .ohm.m    : HMRS
DEPTH_1           .m        : DEPTH_1
NPHI              .m3/m3    : NPHI
ONE-WAYTIME1      .ms       : ONE-WAYTIME1
PERF_INT          ._        : PERF_INT
PERMEABILITY      .mD       : PERMEABILITY
PIGN              .m3/m3    : PIGN
PIGN_MODELLING    .m3/m3    : PIGN_MODELLING
PIMP              .kPa.s/m  : PIMP
RHOB              .g/cm3    : RHOB
RT_MODELLING      .ohm.m    : RT_MODELLING
RT_POWER          .ohm.m    : RT_POWER
SP                .mV       : SP
SUWI              ._        : SUWI
SUWI_MODELLING    ._        : SUWI_MODELLING
TDVSS             .m        : TDVSS
VCL               .%        : VCL
WATER_VOL         ._        : WATER_VOL
ZLT               ._        : ZLT
~Params ----------------------------------------------------
~Other -----------------------------------------------------
~ASCII -----------------------------------------------------
# ...
  1453.1912  6578.3374 6578337.5000    -999.25     9.2004     9.2004     5.3515   110.0773     0.0000     0.0000    55.9548     3.4912     3.5480  1453.1912     0.5446  -663.2728    -999.25     0.0122     0.0137     0.0137 21582.4707     2.3757     5.3515    28.6388   279.7325     1.0000     1.0000 -1374.7012    84.9170     0.0137     8.0000
  1453.3436  5989.9971 5989997.0000    -999.25     9.3212     9.3212     5.6394   118.0625     0.0000     0.0000    57.4452     3.0692     3.1198  1453.3436     0.5679  -663.3464    -999.25     0.0038     0.0135     0.0135 19652.2207     2.3202     5.6394    31.8033   281.6141     1.0000     1.0000 -1374.8536    85.1550     0.0135     8.0000
  1453.4960  5884.9077 5884908.0000    -999.25     9.4345     9.4345     3.8296   120.9958     0.0000     0.0000    61.7479     2.2313     2.3046  1453.4960     0.5735  -663.4199    -999.25     0.0024     0.0134     0.0134 19307.4395     2.3361     3.8296    14.6655   282.9301     1.0000     1.0000 -1375.0060    85.2130     0.0134     8.0000
  1453.6484  6290.7119 6290712.0000    -999.25     9.4664     9.4664     2.4042   118.0823     0.0000     0.0000    65.8008     1.7575     1.8067  1453.6484     0.5545  -663.4934    -999.25     0.0094     0.0133     0.0133 20638.8184     2.4371     2.4042     5.7803   283.3053     1.0000     1.0000 -1375.1583    85.4160     0.0133     8.0000
  1453.8008  7054.1035 7054103.5000    -999.25     9.3587     9.3587     1.8961   111.5399     0.0000     0.0000    65.7744     1.6480     1.6859  1453.8008     0.5241  -663.5670    -999.25     0.0400     0.0141     0.0141 23143.3848     2.5814     1.8961     3.5950   282.9760     1.0000     1.0000 -1375.3108    84.4870     0.0141     8.0000
  1453.9532  7673.0361 7673036.0000    -999.25     9.1706     9.1706     1.9996   105.4965     0.0000     0.0000    60.8993     1.8306     1.8821  1453.9531     0.5011  -663.6405    -999.25     0.0798     0.0151     0.0151 25174.0020     2.6558     1.9996     3.9984   282.5092     1.0000     1.0000 -1375.4631    83.4110     0.0151     8.0000
  1454.1056  7591.1387 7591138.5000    -999.25     9.0583     9.0583     2.6170   103.4623     0.0000     0.0000    54.3922     2.3777     2.4491  1454.1056     0.4945  -663.7140    -999.25     0.0944     0.0177     0.0177 24905.3105     2.5768     2.6170     6.8488   282.6545     1.0000     1.0000 -1375.6156    80.5100     0.0177     8.0000
  1454.2580  6934.7368 6934737.0000    -999.25     9.0879     9.0879     3.9380   105.9659     0.0000     0.0000    50.4716     3.2093     3.2340  1454.2579     0.4985  -663.7875    -999.25     0.0682     0.0224     0.0224 22751.7617     2.4109     3.9380    15.5081   283.5509     1.0000     1.0000 -1375.7679    75.3950     0.0224     8.0000
  1454.4104  6260.3672 6260367.5000    -999.25     9.1373     9.1373     5.3415   111.1627     0.0000     0.0000    50.7197     3.4237     3.3818  1454.4104     0.5035  -663.8611    -999.25     0.0124     0.0237     0.0237 20539.2637     2.2832     5.3415    28.5312   284.6300     1.0000     1.0000 -1375.9204    73.9090     0.0237     8.0000
  1454.5628  5971.7500 5971750.0000    -999.25     9.1241     9.1241     4.8443   115.2531     0.0000     0.0000    54.5447     2.5462     2.5823  1454.5627     0.5073  -663.9346    -999.25     0.0002     0.0200     0.0200 19592.3555     2.2581     4.8443    23.4676   285.3442     1.0000     1.0000 -1376.0728    77.9910     0.0200     8.0000
  1454.7152  6110.3491 6110349.0000    -999.25     9.0851     9.0851     2.9108   115.6847     0.0000     0.0000    60.5662     1.7789     1.8310  1454.7152     0.5100  -664.0081    -999.25     0.0011     0.0158     0.0158 20047.0781     2.3191     2.9108     8.4728   285.3026     1.0000     1.0000 -1376.2252    82.6210     0.0158     8.0000
  1454.8676  6458.2197 6458219.5000    -999.25     9.0642     9.0642     1.9502   113.5953     0.0000     0.0000    65.6123     1.6312     1.6612  1454.8676     0.5146  -664.0817    -999.25     0.0070     0.0143     0.0143 21188.3848     2.4069     1.9502     3.8034   284.4609     1.0000     1.0000 -1376.3776    84.3120     0.0143     8.0000
  1455.0200  6848.4292 6848429.0000    -999.25     9.0482     9.0482     1.8706   110.7123     0.0000     0.0000    67.6435     1.7556     1.8059  1455.0200     0.5210  -664.1552    -999.25     0.0160     0.0132     0.0132 22468.5996     2.4876     1.8706     3.4990   283.3354     1.0000     1.0000 -1376.5300    85.5240     0.0132     8.0000
  1455.1724  7212.0034 7212003.0000    -999.25     9.0252     9.0252     2.1379   107.8553     0.0000     0.0000    67.3910     1.9583     2.0308  1455.1724     0.5268  -664.2288    -999.25     0.0245     0.0124     0.0124 23661.4277     2.5520     2.1379     4.5707   282.2920     1.0000     1.0000 -1376.6824    86.3330     0.0124     8.0000
  1455.3248  7484.3994 7484399.5000    -999.25     8.9837     8.9837     2.4680   105.5540     0.0000     0.0000    65.6290     2.0619     2.1482  1455.3248     0.5309  -664.3022    -999.25     0.0293     0.0120     0.0120 24555.1172     2.5919     2.4680     6.0910   281.3805     1.0000     1.0000 -1376.8348    86.8420     0.0120     8.0000
  1455.4772  7598.4043 7598404.5000    -999.25     8.9542     8.9542     2.7359   104.4396     0.0000     0.0000    63.0651     2.1447     2.2408  1455.4772     0.5392  -664.3758    -999.25     0.0301     0.0117     0.0117 24929.1484     2.6036     2.7359     7.4851   280.7683     1.0000     1.0000 -1376.9872    87.1320     0.0117     8.0000
  1455.6296  7468.6621 7468662.0000    -999.25     8.9565     8.9565     3.1869   105.1965     0.0000     0.0000    60.9847     2.5185     2.5749  1455.6296     0.5575  -664.4493    -999.25     0.0290     0.0118     0.0118 24503.4844     2.5777     3.1869    10.1566   280.4399     1.0000     1.0000 -1377.1395    87.0290     0.0118     8.0000
  1455.7820  7082.9902 7082990.5000    -999.25     8.9725     8.9725     3.8535   108.0955     0.0000     0.0000    60.8829     2.9358     2.9522  1455.7820     0.5784  -664.5228    -999.25     0.0237     0.0122     0.0122 23238.1582     2.5119     3.8535    14.8497   280.2285     1.0000     1.0000 -1377.2920    86.5590     0.0122     8.0000
  1455.9344  6657.6636 6657663.5000    -999.25     8.9834     8.9834     4.0785   112.1142     0.0000     0.0000    62.8137     2.7246     2.8082  1455.9343     0.5860  -664.5964    -999.25     0.0163     0.0131     0.0131 21842.7285     2.4489     4.0785    16.6342   280.1885     1.0000     1.0000 -1377.4443    85.5820     0.0131     8.0000
  1456.0868  6418.6733 6418673.5000    -999.25     8.9722     8.9722     3.3928   114.8123     0.0000     0.0000    65.5476     2.2482     2.3762  1456.0868     0.5717  -664.6699    -999.25     0.0134     0.0148     0.0148 21058.6406     2.4178     3.3928    11.5112   280.1681     1.0000     1.0000 -1377.5968    83.7130     0.0148     8.0000
  1456.2392  6356.7739 6356774.0000    -999.25     8.9244     8.9244     2.7605   115.1031     0.0000     0.0000    68.0744     2.0335     2.1334  1456.2391     0.5351  -664.7435    -999.25     0.0202     0.0192     0.0192 20855.5586     2.4005     2.7605     7.6204   279.6158     1.0000     1.0000 -1377.7491    78.9320     0.0192     8.0000
  1456.3916  6405.3887 6405388.5000    -999.25     8.8717     8.8717     2.4195   113.5710     0.0000     0.0000    69.2644     1.9634     2.0464  1456.3916     0.4861  -664.8170    -999.25     0.0433     0.0270     0.0270 21015.0547     2.3867     2.4195     5.8538   278.1990     1.0000     1.0000 -1377.9016    70.2540     0.0270     8.0000
  1456.5440  6509.1138 6509114.0000    -999.25     8.8292     8.8292     2.3844   111.2241     0.0000     0.0000    68.6879     2.0495     2.1266  1456.5439     0.4365  -664.8905    -999.25     0.0722     0.0336     0.0336 21355.3613     2.3752     2.3844     5.6856   276.0023     1.0000     1.0000 -1378.0540    63.0820     0.0336     8.0000
  1456.6964  6572.2798 6572279.5000    -999.25     8.8149     8.8149     2.6454   109.4423     0.0000     0.0000    67.7242     2.2781     2.3608  1456.6964     0.4025  -664.9641    -999.25     0.0808     0.0361     0.0361 21562.5977     2.3599     2.6454     6.9984   273.4195     1.0000     1.0000 -1378.2064    60.3280     0.0361     8.0000
