~Version ---------------------------------------------------
VERS. 2.0 : CWLS log ASCII Standard -VERSION 2.0
WRAP.  NO : 
~Well ------------------------------------------------------
STRT.m                                                1249.0292 : 
STOP.m                                                1575.3176 : 
STEP.m                                                   0.1524 : 
NULL.                                                   -999.25 : 
COMP.                                                           : COMPANY
WELL.                                                   Well-10 : WELL
FLD .                                                           : FIELD
LOC .                                                           : LOCATION
SRVC.                                                           : SERVICE COMPANY
DATE. 2021-01-20 14:34:04   : Log Export Date {yyyy-MM-dd HH:mm : ss}
PROV.                                                           : PROVINCE
UWI .                                                   Well-10 : UNIQUE WELL ID
API .                                                           : API NUMBER
~Curve Information -----------------------------------------
DEPTH             .m        : DEPTH
ACOUSTICIMPEDANCE1.kPa.s/m  : ACOUSTICIMPEDANCE1
AI                .kPa.s/m  : AI
AVG_PIGN          .m3/m3    : AVG_PIGN
CALI              .in       : CALI
CALI[DERIVED]1    .in       : CALI[DERIVED]1
DFL               .ohm.m    : DFL
DT                .us/ft    : DT
FACIES            ._        : FACIES
FLD1              ._        : FLD1
GR                .gAPI     : GR
HDRS              .ohm.m    : HDRS
HMRS              .ohm.m    : HMRS
DEPTH_1           .m        : DEPTH_1
NPHI              .m3/m3    : NPHI
PEF               .b/e      : PEF
PERF_INT          ._        : PERF_INT
PERMEABILITY      .mD       : PERMEABILITY
PHIT              .m3/m3    : PHIT
PIGN              .m3/m3    : PIGN
PIGN_MODELLING    .m3/m3    : PIGN_MODELLING
PIMP              .kPa.s/m  : PIMP
RHOB              .g/cm3    : RHOB
RT_MODELLING      .ohm.m    : RT_MODELLING
RT_POWER          .ohm.m    : RT_POWER
SP                .mV       : SP
SUWI              ._        : SUWI
SUWI_MODELLING    ._        : SUWI_MODELLING
SXWI              ._        : SXWI
TDVSS             .m        : TDVSS
TEMP              .K        : TEMP
VCL               .%        : VCL
WATER_VOL         ._        : WATER_VOL
ZLT               ._        : ZLT
~Params ----------------------------------------------------
~Other -----------------------------------------------------
~ASCII -----------------------------------------------------
# ...
  1420.0220  5906.4712 5906471.5000    -999.25     8.3685     8.3685    16.2032   113.0911     4.0000     0.0001    91.0126     9.3896     9.4199  1420.0220     0.3785     3.1500    -999.25     1.1607     0.0823     0.0823     0.0823 19378.1875     2.1915    16.2032   262.5437   138.7557     0.6048     0.6048     0.7748 -1340.0220   168.8187    32.8050     0.0498     8.0000
  1420.1744  5610.0298 5610029.5000    -999.25     8.3247     8.3247    14.1149   115.7310     3.0000     0.0000    88.7923     8.9327     9.0152  1420.1744     0.4156     2.9894    -999.25     0.0001     0.0150     0.0150     0.0150 18405.6094     2.1301    14.1149   199.2304   139.3703     0.9290     0.9290     0.9598 -1340.1744   168.8282    28.0270     0.0139     8.0000
  1420.3268  5084.2393 5084239.0000    -999.25     8.3091     8.3091    12.4517   120.5834     3.0000    -999.25    82.1429     8.6905     8.8432  1420.3268     0.4781     2.6861    -999.25     0.0000     0.0001     0.0001     0.0100 16680.5742     2.0114    12.4517   155.0448   140.0561     1.0000     1.0000     1.0000 -1340.3268   168.8378    24.3470     0.0001     9.0000
  1420.4792  4355.8604 4355860.5000    -999.25     8.3091     8.3091    11.9531   127.8298     3.0000    -999.25    71.3313     9.2288     9.4108  1420.4792     0.6490     2.2423    -999.25     0.0000     0.0001     0.0001     0.0100 14290.8809     1.8268    11.9531   142.8766   140.6457     1.0000     1.0000     1.0000 -1340.4792   168.8473    21.4540     0.0001     9.0000
  1420.6316  3596.8782 3596878.2500    -999.25     8.3028     8.3028    12.6702   136.4062     3.0000    -999.25    57.6132    11.1157    11.2958  1420.6316     0.8509     1.6976    -999.25     0.0000     0.0001     0.0001     0.0100 11800.7812     1.6097    12.6702   160.5340   141.1279     1.0000     1.0000     1.0000 -1340.6316   168.8568    10.3890     0.0001     9.0000
  1420.7840  2991.6780 2991677.7500    -999.25     8.2615     8.2615    16.9752   143.9296     3.0000    -999.25    43.1672    16.2297    16.2987  1420.7841     0.9770     1.1976    -999.25     0.0000     0.0001     0.0001     0.0100  9815.2158     1.4127    16.9752   288.1574   141.6023     1.0000     1.0000     1.0000 -1340.7841   168.8664     1.7790     0.0001     9.0000
  1420.9364  2609.7854 2609785.5000    -999.25     8.2584     8.2584    29.7654   148.8387     3.0000    -999.25    30.6050    26.9016    26.3822  1420.9364     0.9829     0.8515    -999.25     0.0000     0.0001     0.0001     0.0100  8562.2881     1.2744    29.7654   885.9790   142.0422     1.0000     1.0000     1.0000 -1340.9364   168.8759     0.0000     0.0001     9.0000
  1421.0888  2424.3447 2424344.5000    -999.25     8.2634     8.2634    57.3283   151.2720     3.0000    -999.25    21.5193    47.6111    45.7392  1421.0887     0.9748     0.6471    -999.25     0.0000     0.0001     0.0001     0.0100  7953.8867     1.2032    57.3283  3286.5339   142.3896     1.0000     1.0000     1.0000 -1341.0887   168.8854     0.0000     0.0001     9.0000
  1421.2412  2365.7959 2365795.7500    -999.25     8.2572     8.2572    85.6470   152.0395     3.0000    -999.25    16.3337    74.1343    72.5467  1421.2412     0.8823     0.5565    -999.25     0.0000     0.0001     0.0001     0.0100  7761.7974     1.1801    85.6470  7335.4092   142.7498     1.0000     1.0000     1.0000 -1341.2412   168.8950     0.0000     0.0001     9.0000
  1421.3936  2361.9182 2361918.2500    -999.25     8.2630     8.2630   100.5311   152.2117     3.0000    -999.25    14.2229    87.2831    87.9733  1421.3936     0.8512     0.5159    -999.25     0.0000     0.0001     0.0001     0.0100  7749.0757     1.1795   100.5311 10106.5020   143.2271     1.0000     1.0000     1.0000 -1341.3936   168.9045     0.0000     0.0001     9.0000
  1421.5460  2360.5510 2360551.0000    -999.25     8.2772     8.2772   105.9289   152.0674     3.0000    -999.25    13.4999    85.7775    88.4997  1421.5460     0.8773     0.4660    -999.25     0.0000     0.0001     0.0001     0.0100  7744.5903     1.1777   105.9289 11220.9326   143.7627     1.0000     1.0000     1.0000 -1341.5460   168.9140     0.0000     0.0001     9.0000
  1421.6984  2358.2207 2358220.7500    -999.25     8.2795     8.2795   102.4158   151.6361     3.0000    -999.25    13.2349    78.3193    86.7993  1421.6984     0.9165     0.4238    -999.25     0.0000     0.0001     0.0001     0.0100  7736.9443     1.1732   102.4158 10488.9961   144.2445     1.0000     1.0000     1.0000 -1341.6984   168.9236     0.0000     0.0001     9.0000
  1421.8508  2352.0847 2352084.7500    -999.25     8.2785     8.2785    97.2273   151.1893     3.0000    -999.25    13.3691    67.6117    82.1359  1421.8508     0.8808     0.4140    -999.25     0.0000     0.0001     0.0001     0.0100  7716.8135     1.1667    97.2273  9453.1484   144.7151     1.0000     1.0000     1.0000 -1341.8508   168.9331     0.0000     0.0001     9.0000
  1422.0032  2346.2783 2346278.2500    -999.25     8.3080     8.3080    88.7644   150.6801     3.0000    -999.25    14.2881    59.6592    79.8248  1422.0032     0.8643     0.4641    -999.25     0.0000     0.0001     0.0001     0.0100  7697.7632     1.1599    88.7644  7879.1182   145.3460     1.0000     1.0000     1.0000 -1342.0032   168.9426     0.0000     0.0001     9.0000
  1422.1556  2388.8750 2388875.0000    -999.25     8.3169     8.3169    78.7671   149.7413     3.0000    -999.25    16.3530    51.9993    77.3423  1422.1556     0.8821     0.6875    -999.25     0.0000     0.0001     0.0001     0.0100  7837.5166     1.1736    78.7671  6204.2559   146.1947     1.0000     1.0000     1.0000 -1342.1556   168.9521     0.0000     0.0001     9.0000
  1422.3080  2540.9504 2540950.5000    -999.25     8.3228     8.3228    68.9251   148.9603     3.0000    -999.25    20.3403    38.2914    57.1721  1422.3080     0.8810     1.2086    -999.25     0.0000     0.0001     0.0001     0.0100  8336.4521     1.2418    68.9251  4750.6699   147.0707     1.0000     1.0000     1.0000 -1342.3080   168.9617     0.0000     0.0001     9.0000
  1422.4604  2837.8494 2837849.5000    -999.25     8.5243     8.5243    56.2233   149.0571     3.0000    -999.25    27.4429    23.2622    31.0053  1422.4604     0.8601     2.0674    -999.25     0.0000     0.0001     0.0001     0.0100  9310.5293     1.3878    56.2233  3161.0596   147.8095     1.0000     1.0000     1.0000 -1342.4604   168.9712     6.7460     0.0001     9.0000
  1422.6128  3288.4192 3288419.0000    -999.25     8.4435     8.4435    29.3606   149.4331     3.0000    -999.25    37.3344    11.0414    12.4697  1422.6128     0.7933     3.2387    -999.25     0.0000     0.0001     0.0001     0.0100 10788.7764     1.6122    29.3606   862.0448   148.4361     1.0000     1.0000     1.0000 -1342.6128   168.9808    28.4030     0.0001     9.0000
  1422.7652  3892.4548 3892454.7500    -999.25     8.4628     8.4628    12.6257   147.4490     3.0000    -999.25    49.1442     5.3817     5.6529  1422.7653     0.6854     4.5229    -999.25     0.0000     0.0001     0.0001     0.0100 12770.5205     1.8830    12.6257   159.4083   148.9844     1.0000     1.0000     1.0000 -1342.7653   168.9903    59.1260     0.0001     9.0000
  1422.9176  4598.3257 4598326.0000    -999.25     8.6257     8.6257     5.8113   140.9550     0.0000    -999.25    62.1166     3.3559     3.5490  1422.9176     0.5900     5.6302    -999.25     0.0000     0.0126     0.0126     0.0126 15086.3711     2.1265     5.8113    33.7712   149.4037     1.0000     1.0000     1.0000 -1342.9176   168.9998    77.6630     0.0126     9.0000
  1423.0700  5283.8462 5283846.0000    -999.25     8.8163     8.8163     4.2053   132.9126     0.0000    -999.25    74.3112     2.6991     2.9083  1423.0699     0.5648     6.3804    -999.25     0.0110     0.0236     0.0236     0.0236 17335.4531     2.3041     4.2053    17.6845   149.5696     1.0000     1.0000     1.0000 -1343.0699   169.0093    82.2180     0.0236    10.0000
  1423.2224  5736.2266 5736226.5000    -999.25     8.8092     8.8092     3.3736   128.1693     0.0000    -999.25    82.6738     2.4340     2.6418  1423.2224     0.5534     6.7441    -999.25     0.0638     0.0260     0.0260     0.0260 18819.6406     2.4121     3.3736    11.3812   149.6623     1.0000     1.0000     1.0000 -1343.2224   169.0189    82.5300     0.0260    10.0000
