~Version ---------------------------------------------------
VERS. 2.0 : CWLS log ASCII Standard -VERSION 2.0
WRAP.  NO : 
~Well ------------------------------------------------------
STRT.m                                                1236.0668 : 
STOP.m                                                1579.8812 : 
STEP.m                                                   0.1524 : 
NULL.                                                   -999.25 : 
COMP.                                                           : COMPANY
WELL.                                                   Well-17 : WELL
FLD .                                                           : FIELD
LOC .                                                           : LOCATION
SRVC.                                                           : SERVICE COMPANY
DATE. 2021-01-20 14:34:08   : Log Export Date {yyyy-MM-dd HH:mm : ss}
PROV.                                                           : PROVINCE
UWI .                                                   Well-17 : UNIQUE WELL ID
API .                                                           : API NUMBER
~Curve Information -----------------------------------------
DEPTH             .m        : DEPTH
ACOUSTICIMPEDANCE1.kPa.s/m  : ACOUSTICIMPEDANCE1
AI                .kPa.s/m  : AI
AVG_PIGN          .m3/m3    : AVG_PIGN
CALI              .in       : CALI
NPHI              .m3/m3    : NPHI
DT                .us/ft    : DT
FACIES            ._        : FACIES
FLD1              ._        : FLD1
GR                .gAPI     : GR
M2R2              .ohm.m    : M2R2
LLS               .ohm.m    : LLS
LLD               .ohm.m    : LLD
DEPTH_1           .m        : DEPTH_1
NPHI_1            .m3/m3    : NPHI_1
PERF_INT          ._        : PERF_INT
PERMEABILITY      .mD       : PERMEABILITY
PHIT              .m3/m3    : PHIT
PIGN              .m3/m3    : PIGN
PIGN_MODELLING    .m3/m3    : PIGN_MODELLING
PIMP              .kPa.s/m  : PIMP
RHOB              .g/cm3    : RHOB
RT_MODELLING      .ohm.m    : RT_MODELLING
RT_POWER          .ohm.m    : RT_POWER
SP                .mV       : SP
SUWI              ._        : SUWI
SUWI_MODELLING    ._        : SUWI_MODELLING
SXWI              ._        : SXWI
TDVSS             .m        : TDVSS
VCL               .%        : VCL
WATER_VOL         ._        : WATER_VOL
RHOB_1            .g/cm3    : RHOB_1
ZLT               ._        : ZLT
~Params ----------------------------------------------------
~Other -----------------------------------------------------
~ASCII -----------------------------------------------------
# ...
  1464.0572  2387.7556 2387755.7500    -999.25     8.8440     0.6744   145.6922     3.0000    -999.25    16.5576    28.2987    27.5824    31.5101  1464.0573     0.6744    -999.25     0.0073     0.0007     0.0100     0.0100  7833.8442     1.1413    31.5101   992.8883   219.0270     1.0000     1.0000     1.0000 -1390.5673     0.6760     0.0100     1.1413    11.0000
  1464.2096  2384.7864 2384786.5000    -999.25     8.8678     0.7181   145.4020     3.0000    -999.25    16.3029    28.3747    28.1102    31.9536  1464.2096     0.7181    -999.25     0.0094     0.0001     0.0100     0.0100  7824.1025     1.1376    31.9536  1021.0357   219.1352     1.0000     1.0000     1.0000 -1390.7196     0.0000     0.0100     1.1376    11.0000
  1464.3620  2390.0640 2390064.0000    -999.25     8.9156     0.7152   144.4433     3.0000    -999.25    16.9999    28.0941    28.4287    32.2705  1464.3621     0.7152    -999.25     0.0097     0.0001     0.0100     0.0100  7841.4170     1.1326    32.2705  1041.3851   219.2510     1.0000     1.0000     1.0000 -1390.8721     0.0000     0.0100     1.1326    11.0000
  1464.5144  2406.1731 2406173.0000    -999.25     8.9649     0.6710   143.0126     3.0000    -999.25    17.7042    26.8351    27.2818    31.0683  1464.5144     0.6710    -999.25     0.0069     0.0003     0.0100     0.0100  7894.2686     1.1290    31.0683   965.2418   219.4761     1.0000     1.0000     1.0000 -1391.0244     0.2770     0.0100     1.1290    11.0000
  1464.6668  2460.3840 2460384.0000    -999.25     8.9861     0.6339   140.9889     3.0000    -999.25    18.2491    24.3410    25.8705    30.0124  1464.6669     0.6339    -999.25     0.0047     0.0022     0.0100     0.0100  8072.1260     1.1381    30.0124   900.7460   219.9315     1.0000     1.0000     1.0000 -1391.1769     2.2450     0.0100     1.1381    11.0000
  1464.8192  2650.2300 2650229.7500    -999.25     9.0011     0.6230   136.8640     3.0000    -999.25    20.6676    19.7124    22.0599    24.3032  1464.8192     0.6230    -999.25     0.0025     0.0070     0.0100     0.0100  8694.9795     1.1900    24.3032   590.6431   220.6925     1.0000     1.0000     1.0000 -1391.3292     7.2060     0.0100     1.1900    11.0000
  1464.9716  3019.7720 3019772.0000    -999.25     9.2314     0.6251   133.3520     3.0000    -999.25    27.4263    11.1600    12.5029    13.2096  1464.9717     0.6251    -999.25     0.0001     0.0179     0.0100     0.0100  9907.3887     1.3212    13.2096   174.4933   221.8464     1.0000     1.0000     1.0000 -1391.4817    18.2770     0.0100     1.3212    11.0000
  1465.1240  3463.6155 3463615.2500    -999.25     9.9591     0.6184   134.5106     3.0000    -999.25    39.4294     4.8421     5.3194     5.5665  1465.1240     0.6184    -999.25     0.0001     0.0355     0.0100     0.0100 11363.5674     1.5285     5.5665    30.9858   223.4165     1.0000     1.0000     1.0000 -1391.6340    36.3810     0.0100     1.5285    11.0000
  1465.2764  3923.1289 3923129.0000    -999.25    10.8616     0.5873   135.8945     3.0000    -999.25    54.8341     2.4221     2.6422     2.7278  1465.2765     0.5873    -999.25     0.0000     0.0557     0.0100     0.0100 12871.1582     1.7491     2.7278     7.4407   225.0771     1.0000     1.0000     1.0000 -1391.7865    57.0340     0.0100     1.7491    11.0000
  1465.4288  4418.9897 4418989.5000    -999.25    11.0798     0.5374   133.3198     3.0000    -999.25    70.5947     1.7235     1.8552     1.8911  1465.4288     0.5374    -999.25     0.0001     0.0717     0.0100     0.0100 14497.9971     1.9329     1.8911     3.5762   226.3265     1.0000     1.0000     1.0000 -1391.9388    73.4390     0.0100     1.9329    11.0000
  1465.5812  5055.7476 5055748.0000    -999.25    10.4726     0.4972   126.5755     0.0000    -999.25    83.6835     1.7095     1.8100     1.8253  1465.5813     0.4972    -999.25     0.0005     0.0844     0.0100     0.0100 16587.0996     2.0995     1.8253     3.3316   226.9790     1.0000     1.0000     1.0000 -1392.0912    86.3820     0.0100     2.0995    11.0000
  1465.7336  6142.1265 6142126.5000    -999.25     9.8682     0.4982   111.3589     0.0000    -999.25    90.0886     2.1910     2.2870     2.2869  1465.7336     0.4982    -999.25     0.0018     0.1016     0.0100     0.0100 20151.3340     2.2440     2.2869     5.2300   227.2610     1.0000     1.0000     1.0000 -1392.2437    96.0590     0.0100     2.2440    12.0000
  1465.8860  7188.1338 7188133.5000    -999.25     9.9240     0.5349    96.7052     0.0000    -999.25    87.6811     2.7715     2.8732     2.8548  1465.8860     0.5349    -999.25     0.0225     0.1522     0.0198     0.0198 23583.1152     2.2806     2.8548     8.1498   227.5014     1.0000     1.0000     1.0000 -1392.3960    94.0030     0.0198     2.2806    12.0000
  1466.0384  7202.9736 7202973.5000    -999.25    10.6021     0.5655    94.3347     0.0000    -999.25    81.2092     2.7048     2.8047     2.7703  1466.0385     0.5655    -999.25     0.4859     0.2128     0.0574     0.0574 23631.8027     2.2293     2.7703     7.6747   227.8584     1.0000     1.0000     1.0000 -1392.5485    87.3670     0.0574     2.2293    12.0000
  1466.1908  6775.0986 6775099.0000    -999.25    11.5525     0.5600    98.8208     0.0000    -999.25    78.7978     2.1715     2.2675     2.2265  1466.1908     0.5600    -999.25     0.4971     0.2401     0.0656     0.0656 22228.0137     2.1966     2.2265     4.9571   228.2758     1.0000     1.0000     1.0000 -1392.7008    84.3820     0.0656     2.1966    12.0000
  1466.3432  6280.1196 6280119.5000    -999.25    12.3147     0.5394   107.3977     0.0000    -999.25    82.4784     1.7987     1.8991     1.8544  1466.3433     0.5394    -999.25     0.1152     0.2331     0.0419     0.0419 20604.0664     2.2128     1.8544     3.4387   228.6374     1.0000     1.0000     1.0000 -1392.8533    85.1820     0.0419     2.2128    12.0000
  1466.4956  5900.0439 5900044.0000    -999.25    12.4712     0.5229   115.3969     0.0000    -999.25    87.5637     1.7049     1.8119     1.7599  1466.4956     0.5229    -999.25     0.0422     0.2255     0.0292     0.0292 19357.0996     2.2338     1.7599     3.0973   228.8663     1.0000     1.0000     1.0000 -1393.0056    86.0020     0.0292     2.2338    12.0000
  1466.6480  5885.1831 5885183.0000    -999.25    11.9287     0.4961   115.5775     0.0000    -999.25    89.5510     1.7867     1.8937     1.8313  1466.6481     0.4961    -999.25     0.0461     0.2248     0.0318     0.0318 19308.3438     2.2316     1.8313     3.3535   228.9559     1.0000     1.0000     1.0000 -1393.1581    84.0800     0.0318     2.2316    12.0000
  1466.8004  6169.8008 6169801.0000    -999.25    10.9507     0.4596   110.1673     0.0000    -999.25    87.2045     2.0433     2.1399     2.0618  1466.8004     0.4596    -999.25     0.0527     0.2213     0.0382     0.0382 20242.1289     2.2300     2.0618     4.2511   228.9603     1.0000     1.0000     1.0000 -1393.3104    80.8930     0.0382     2.2300    12.0000
  1466.9528  6482.7646 6482765.0000    -999.25    10.0397     0.4403   104.4209     0.0000    -999.25    81.8423     2.4933     2.5699     2.4697  1466.9529     0.4403    -999.25     0.0377     0.2077     0.0388     0.0388 21268.9141     2.2209     2.4697     6.0997   228.9167     1.0000     1.0000     1.0000 -1393.4629    80.5910     0.0388     2.2209    12.0000
  1467.1052  6472.2349 6472235.0000    -999.25     9.6477     0.4489   104.0742     0.0000    -999.25    77.1981     2.7104     2.7559     2.6452  1467.1052     0.4489    -999.25     0.0246     0.1984     0.0349     0.0349 21234.3672     2.2099     2.6452     6.9969   228.8577     1.0000     1.0000     1.0000 -1393.6152    82.5500     0.0349     2.2099    12.0000
  1467.2576  6347.9595 6347959.5000    -999.25     9.6622     0.4801   106.8732     0.0000    -999.25    78.1462     2.3880     2.4092     2.3140  1467.2577     0.4801    -999.25     0.0259     0.2051     0.0308     0.0308 20826.6387     2.2258     2.3140     5.3548   228.8259     1.0000     1.0000     1.0000 -1393.7677    84.5880     0.0308     2.2258    12.0000
