~Version ---------------------------------------------------
VERS. 2.0 : CWLS log ASCII Standard -VERSION 2.0
WRAP.  NO : 
~Well ------------------------------------------------------
STRT.m                                                   1260.0 : 
STOP.m                                                1587.9648 : 
STEP.m                                                   0.1524 : 
NULL.                                                   -999.25 : 
COMP.                                                           : COMPANY
WELL.                                                    Well-5 : WELL
FLD .                                                           : FIELD
LOC .                                                           : LOCATION
SRVC.                                                           : SERVICE COMPANY
DATE. 2021-01-20 14:34:00   : Log Export Date {yyyy-MM-dd HH:mm : ss}
PROV.                                                           : PROVINCE
UWI .                                                    Well-5 : UNIQUE WELL ID
API .                                                           : API NUMBER
~Curve Information -----------------------------------------
DEPTH             .m        : DEPTH
ACOUSTICIMPEDANCE1.kPa.s/m  : ACOUSTICIMPEDANCE1
AI                .kPa.s/m  : AI
AVG_PIGN          .m3/m3    : AVG_PIGN
CALI              .in       : CALI
CALI[DERIVED]1    .in       : CALI[DERIVED]1
DT                .us/ft    : DT
FACIES            ._        : FACIES
FLD1              ._        : FLD1
GR                .gAPI     : GR
LLD               .ohm.m    : LLD
LLS               .ohm.m    : LLS
LL3               .ohm.m    : LL3
DEPTH_1           .m        : DEPTH_1
NPHI              .m3/m3    : NPHI
PERF_INT          ._        : PERF_INT
PERMEABILITY      .mD       : PERMEABILITY
PIGN              .m3/m3    : PIGN
PIGN_MODELLING    .m3/m3    : PIGN_MODELLING
PIMP              .kPa.s/m  : PIMP
RHOB              .g/cm3    : RHOB
RT_MODELLING      .ohm.m    : RT_MODELLING
RT_POWER          .ohm.m    : RT_POWER
SP                .mV       : SP
SUWI              ._        : SUWI
SUWI_MODELLING    ._        : SUWI_MODELLING
TDVSS             .m        : TDVSS
VCL               .%        : VCL
WATER_VOL         ._        : WATER_VOL
ZLT               ._        : ZLT
~Params ----------------------------------------------------
~Other -----------------------------------------------------
~ASCII -----------------------------------------------------
# ...
  1280.9218  4468.5142 4468514.0000    -999.25    12.6614    12.6614   144.6189     0.0000    -999.25    44.3481     0.8307     0.8195     0.9817  1280.9218     0.5634    -999.25    -999.25     0.0157     0.0157 14660.4785     2.1202     0.8307     0.6901    20.4793     1.0000     1.0000 -1209.3318    82.7162     0.0157    -999.25
  1281.0312  4492.9639 4492052.0000    -999.25    12.6479    12.6479   143.7029     0.0000    -999.25    45.3453     0.8223     0.8147     0.9974  1281.0311     0.5741    -999.25    -999.25     0.0143     0.0143 14737.7041     2.1183     0.8223     0.6762    20.4556     1.0000     1.0000 -1209.4412    84.2380     0.0143    -999.25
  1281.0742  4501.3037 4501304.0000    -999.25    12.6365    12.6365   143.3428     0.0000    -999.25    45.5451     0.8205     0.8137     1.0004  1281.0741     0.5810    -999.25    -999.25     0.0135     0.0135 14768.0576     2.1169     0.8205     0.6732    20.4515     1.0000     1.0000 -1209.4841    85.1474     0.0135    -999.25
  1281.1836  4490.5820 4488705.5000    -999.25    12.6074    12.6074   143.4458     0.0000    -999.25    46.0535     0.8158     0.8111     1.0080  1281.1836     0.5986    -999.25    -999.25     0.0114     0.0114 14726.7236     2.1134     0.8158     0.6654    20.4410     1.0000     1.0000 -1209.5936    87.4610     0.0114    -999.25
  1281.2266  4483.7534 4483753.5000    -999.25    12.6169    12.6169   143.4863     0.0000    -999.25    46.2075     0.8163     0.8111     1.0092  1281.2266     0.6013    -999.25    -999.25     0.0111     0.0111 14710.4766     2.1108     0.8163     0.6664    20.4296     1.0000     1.0000 -1209.6366    87.8250     0.0111    -999.25
  1281.3360  4435.4229 4435189.0000    -999.25    12.6410    12.6410   144.5920     0.0000    -999.25    46.5992     0.8178     0.8109     1.0123  1281.3359     0.6079    -999.25    -999.25     0.0102     0.0102 14551.1455     2.1041     0.8178     0.6689    20.4004     1.0000     1.0000 -1209.7460    88.7510     0.0102    -999.25
  1281.3790  4416.1006 4416100.5000    -999.25    12.6395    12.6395   145.0266     0.0000    -999.25    46.5436     0.8216     0.8124     1.0132  1281.3789     0.6021    -999.25    -999.25     0.0109     0.0109 14488.5195     2.1012     0.8216     0.6751    20.4013     1.0000     1.0000 -1209.7889    88.0383     0.0109    -999.25
  1281.4884  4379.5586 4382189.5000    -999.25    12.6355    12.6355   145.7286     0.0000    -999.25    46.4020     0.8312     0.8162     1.0154  1281.4884     0.5872    -999.25    -999.25     0.0125     0.0125 14377.2627     2.0939     0.8312     0.6909    20.4035     1.0000     1.0000 -1209.8984    86.2250     0.0125    -999.25
  1281.5314  4368.8608 4368861.0000    -999.25    12.6024    12.6024   146.0045     0.0000    -999.25    46.4810     0.8380     0.8201     1.0153  1281.5314     0.5772    -999.25    -999.25     0.0137     0.0137 14333.5332     2.0928     0.8380     0.7024    20.3980     1.0000     1.0000 -1209.9414    84.9466     0.0137    -999.25
  1281.6408  4392.4873 4398224.0000    -999.25    12.5181    12.5181   145.0145     0.0000    -999.25    46.6818     0.8554     0.8303     1.0151  1281.6407     0.5517    -999.25    -999.25     0.0166     0.0166 14429.8682     2.0898     0.8554     0.7317    20.3843     1.0000     1.0000 -1210.0508    81.6940     0.0166    -999.25
  1281.6838  4409.7651 4409765.0000    -999.25    12.4598    12.4598   144.6253     0.0000    -999.25    46.6919     0.8645     0.8378     1.0175  1281.6837     0.5455    -999.25    -999.25     0.0174     0.0174 14467.7334     2.0924     0.8645     0.7475    20.3791     1.0000     1.0000 -1210.0938    80.8323     0.0174    -999.25
  1281.7932  4515.1895 4523060.0000    -999.25    12.3113    12.3113   141.6933     0.0000    -999.25    46.7177     0.8874     0.8569     1.0239  1281.7932     0.5298    -999.25    -999.25     0.0194     0.0194 14839.4365     2.0990     0.8874     0.7875    20.3661     1.0000     1.0000 -1210.2032    78.6400     0.0194    -999.25
  1281.8362  4567.5913 4567591.0000    -999.25    12.2397    12.2397   140.5409     0.0000    -999.25    46.6366     0.8971     0.8680     1.0374  1281.8362     0.5305    -999.25    -999.25     0.0195     0.0195 14985.5352     2.1061     0.8971     0.8051    20.3489     1.0000     1.0000 -1210.2462    78.5635     0.0195    -999.25
  1281.9456  4765.0903 4772314.0000    -999.25    12.0576    12.0576   135.8698     0.0000    -999.25    46.4301     0.9218     0.8965     1.0718  1281.9456     0.5324    -999.25    -999.25     0.0197     0.0197 15657.1982     2.1241     0.9218     0.8498    20.3051     1.0000     1.0000 -1210.3556    78.3690     0.0197    -999.25
  1281.9886  4852.7812 4852781.0000    -999.25    11.9641    11.9641   134.0338     0.0000    -999.25    46.0337     0.9306     0.9100     1.1165  1281.9885     0.5374    -999.25    -999.25     0.0194     0.0194 15921.1973     2.1340     0.9306     0.8662    20.2864     1.0000     1.0000 -1210.3986    78.6582     0.0194    -999.25
  1282.0980  5076.5068 5077790.5000    -999.25    11.7261    11.7261   129.6327     0.0000    -999.25    45.0251     0.9528     0.9444     1.2303  1282.0980     0.5502    -999.25    -999.25     0.0187     0.0187 16659.4160     2.1591     0.9528     0.9079    20.2386     1.0000     1.0000 -1210.5079    79.3940     0.0187    -999.25
  1282.1410  5166.2310 5166231.0000    -999.25    11.6492    11.6492   127.9029     0.0000    -999.25    44.5589     0.9595     0.9572     1.2577  1282.1410     0.5524    -999.25    -999.25     0.0188     0.0188 16949.5762     2.1679     0.9595     0.9207    20.2239     1.0000     1.0000 -1210.5509    79.3277     0.0188    -999.25
  1282.2504  5314.8618 5307968.5000    -999.25    11.4536    11.4536   125.6158     0.0000    -999.25    43.3726     0.9763     0.9898     1.3274  1282.2504     0.5580    -999.25    -999.25     0.0190     0.0190 17414.5938     2.1904     0.9763     0.9532    20.1866     1.0000     1.0000 -1210.6604    79.1590     0.0190    -999.25
  1282.2934  5363.6792 5363679.0000    -999.25    11.4365    11.4365   124.7169     0.0000    -999.25    42.7511     0.9805     0.9979     1.3442  1282.2933     0.5543    -999.25    -999.25     0.0195     0.0195 17597.3711     2.1947     0.9805     0.9615    20.1649     1.0000     1.0000 -1210.7034    78.5323     0.0195    -999.25
  1282.4028  5374.2197 5363994.0000    -999.25    11.3930    11.3930   125.0928     0.0000    -999.25    41.1698     0.9912     1.0185     1.3871  1282.4028     0.5451    -999.25    -999.25     0.0210     0.0210 17598.4043     2.2056     0.9912     0.9825    20.1098     1.0000     1.0000 -1210.8127    76.9380     0.0210    -999.25
  1282.4458  5364.1172 5364117.5000    -999.25    11.4464    11.4464   125.2405     0.0000    -999.25    40.9092     0.9931     1.0193     1.3918  1282.4458     0.5390    -999.25    -999.25     0.0216     0.0216 17598.8105     2.2041     0.9931     0.9862    20.0945     1.0000     1.0000 -1210.8557    76.2281     0.0216    -999.25
  1282.5552  5223.5879 5217953.0000    -999.25    11.5824    11.5824   128.3803     0.0000    -999.25    40.2463     0.9978     1.0213     1.4039  1282.5552     0.5235    -999.25    -999.25     0.0233     0.0233 17119.2676     2.2002     0.9978     0.9956    20.0554     1.0000     1.0000 -1210.9652    74.4220     0.0233    -999.25
  1282.5982  5160.5024 5160502.5000    -999.25    11.6729    11.6729   129.6144     0.0000    -999.25    40.3270     0.9972     1.0156     1.3912  1282.5981     0.5200    -999.25    -999.25     0.0235     0.0235 16930.7812     2.1945     0.9972     0.9944    20.0449     1.0000     1.0000 -1211.0082    74.2014     0.0235    -999.25
  1282.7076  4952.3687 4953772.0000    -999.25    11.9032    11.9032   134.1728     0.0000    -999.25    40.5323     0.9957     1.0010     1.3589  1282.7076     0.5111    -999.25    -999.25     0.0240     0.0240 16252.5322     2.1800     0.9957     0.9914    20.0180     1.0000     1.0000 -1211.1176    73.6400     0.0240    -999.25
  1282.7506  4872.5156 4872516.0000    -999.25    12.0031    12.0031   135.9645     0.0000    -999.25    40.9802     0.9925     0.9918     1.3149  1282.7506     0.5131    -999.25    -999.25     0.0235     0.0235 15985.9443     2.1735     0.9925     0.9850    20.0028     1.0000     1.0000 -1211.1605    74.1498     0.0235    -999.25
