~Version ---------------------------------------------------
VERS. 2.0 : CWLS log ASCII Standard -VERSION 2.0
WRAP.  NO : 
~Well ------------------------------------------------------
STRT.m                                                   1260.0 : 
STOP.m                                                1587.9648 : 
STEP.m                                                   0.1524 : 
NULL.                                                   -999.25 : 
COMP.                                                           : COMPANY
WELL.                                                    Well-5 : WELL
FLD .                                                           : FIELD
LOC .                                                           : LOCATION
SRVC.                                                           : SERVICE COMPANY
DATE. 2021-01-20 14:34:00   : Log Export Date {yyyy-MM-dd HH:mm : ss}
PROV.                                                           : PROVINCE
UWI .                                                    Well-5 : UNIQUE WELL ID
API .                                                           : API NUMBER
~Curve Information -----------------------------------------
DEPTH             .m        : DEPTH
ACOUSTICIMPEDANCE1.kPa.s/m  : ACOUSTICIMPEDANCE1
AI                .kPa.s/m  : AI
AVG_PIGN          .m3/m3    : AVG_PIGN
CALI              .in       : CALI
CALI[DERIVED]1    .in       : CALI[DERIVED]1
DT                .us/ft    : DT
FACIES            ._        : FACIES
FLD1              ._        : FLD1
GR                .gAPI     : GR
LLD               .ohm.m    : LLD
LLS               .ohm.m    : LLS
LL3               .ohm.m    : LL3
DEPTH_1           .m        : DEPTH_1
NPHI              .m3/m3    : NPHI
PERF_INT          ._        : PERF_INT
PERMEABILITY      .mD       : PERMEABILITY
PIGN              .m3/m3    : PIGN
PIGN_MODELLING    .m3/m3    : PIGN_MODELLING
PIMP              .kPa.s/m  : PIMP
RHOB              .g/cm3    : RHOB
RT_MODELLING      .ohm.m    : RT_MODELLING
RT_POWER          .ohm.m    : RT_POWER
SP                .mV       : SP
SUWI              ._        : SUWI
SUWI_MODELLING    ._        : SUWI_MODELLING
TDVSS             .m        : TDVSS
VCL               .%        : VCL
WATER_VOL         ._        : WATER_VOL
ZLT               ._        : ZLT
~Params ----------------------------------------------------
~Other -----------------------------------------------------
~ASCII -----------------------------------------------------
# ...
  1412.4000  6541.9180 6538486.5000    -999.25     9.4918     9.4918   106.9082     4.0000     0.0022    55.0016     3.1133     3.2726     4.2360  1412.4000     0.3595    -999.25     4.5349     0.1709     0.1709 21451.7285     2.2946     3.1133     9.6923     3.5947     0.9565     0.9565 -1340.8099    25.5640     0.1634     6.0000
  1412.4430  6523.7593 6523759.0000    -999.25     9.4911     9.4911   107.0057     4.0000     0.0022    54.3478     3.1048     3.2648     4.2126  1412.4430     0.3649    -999.25     4.1868     0.1739     0.1739 21403.4102     2.2903     3.1048     9.6401     3.5157     0.9393     0.9393 -1340.8529    25.9274     0.1632     6.0000
  1412.5524  6477.6274 6477842.5000    -999.25     9.4892     9.4892   107.2550     4.0000     0.0022    52.6844     3.0834     3.2450     4.1531  1412.5524     0.3787    -999.25     3.3010     0.1816     0.1816 21252.7637     2.2794     3.0834     9.5072     3.3148     0.8955     0.8955 -1340.9624    26.8520     0.1626     6.0000
  1412.5954  6459.7949 6459795.0000    -999.25     9.4910     9.4910   107.3530     4.0000     0.0022    52.2544     3.0749     3.2346     4.1294  1412.5953     0.3836    -999.25     2.9283     0.1841     0.1841 21193.5527     2.2752     3.0749     9.4553     3.2558     0.8826     0.8826 -1341.0054    27.1435     0.1624     6.0000
  1412.7048  6423.3516 6426885.5000    -999.25     9.4956     9.4956   107.4552     4.0000     0.0022    51.1603     3.0534     3.2083     4.0692  1412.7048     0.3962    -999.25     1.9800     0.1906     0.1906 21085.5820     2.2645     3.0534     9.3233     3.1056     0.8498     0.8498 -1341.1147    27.8850     0.1619     6.0000
  1412.7478  6413.9507 6413950.5000    -999.25     9.5010     9.5010   107.4954     4.0000     0.0022    51.1395     3.0456     3.1977     4.0461  1412.7478     0.3972    -999.25     1.7688     0.1919     0.1919 21043.1445     2.2620     3.0456     9.2758     3.0551     0.8479     0.8479 -1341.1577    27.7984     0.1627     6.0000
  1412.8572  6396.9946 6401612.0000    -999.25     9.5147     9.5147   107.4810     4.0000     0.0022    51.0864     3.0257     3.1708     3.9875  1412.8572     0.3999    -999.25     1.2315     0.1953     0.1953 21002.6641     2.2558     3.0257     9.1548     2.9264     0.8430     0.8430 -1341.2672    27.5780     0.1646     6.0000
  1412.9002  6396.7622 6396762.0000    -999.25     9.5176     9.5176   107.4754     4.0000     0.0022    51.1137     3.0189     3.1628     3.9791  1412.9001     0.3967    -999.25     1.2044     0.1959     0.1959 20986.7520     2.2556     3.0189     9.1141     2.8900     0.8494     0.8494 -1341.3102    27.1251     0.1664     6.0000
  1413.0096  6406.0557 6408964.0000    -999.25     9.5248     9.5248   107.2952     4.0000     0.0021    51.1831     3.0017     3.1425     3.9578  1413.0096     0.3887    -999.25     1.1356     0.1974     0.1974 21026.7852     2.2550     3.0017     9.0104     2.7974     0.8658     0.8658 -1341.4196    25.9730     0.1709     6.0000
  1413.0526  6413.7598 6413760.0000    -999.25     9.5252     9.5252   107.2244     4.0000     0.0021    51.1152     2.9959     3.1377     3.9738  1413.0526     0.3839    -999.25     1.2182     0.1976     0.1976 21042.5195     2.2563     2.9959     8.9756     2.7671     0.8752     0.8752 -1341.4625    25.4327     0.1729     6.0000
  1413.1620  6437.8315 6437432.5000    -999.25     9.5262     9.5262   106.9706     4.0000     0.0021    50.9426     2.9811     3.1255     4.0144  1413.1620     0.3716    -999.25     1.4286     0.1980     0.1980 21120.1855     2.2594     2.9811     8.8869     2.6901     0.8991     0.8991 -1341.5720    24.0580     0.1781     6.0000
  1413.2050  6446.7368 6446737.0000    -999.25     9.5240     9.5240   106.8709     4.0000     0.0021    50.9712     2.9761     3.1221     4.0325  1413.2050     0.3683    -999.25     1.4981     0.1979     0.1979 21150.7129     2.2604     2.9761     8.8572     2.6685     0.9066     0.9066 -1341.6150    23.7005     0.1794     6.0000
  1413.3144  6462.9810 6459430.0000    -999.25     9.5183     9.5183   106.7242     4.0000     0.0021    51.0439     2.9634     3.1133     4.0786  1413.3143     0.3598    -999.25     1.6749     0.1977     0.1977 21192.3574     2.2630     2.9634     8.7816     2.6138     0.9257     0.9257 -1341.7244    22.7910     0.1830     6.0000
  1413.3574  6464.4189 6464419.0000    -999.25     9.5125     9.5125   106.6665     4.0000     0.0021    50.9750     2.9603     3.1088     4.0859  1413.3573     0.3589    -999.25     1.6154     0.1984     0.1984 21208.7246     2.2623     2.9603     8.7633     2.5965     0.9266     0.9266 -1341.7673    22.6039     0.1839     6.0000
  1413.4668  6459.5225 6455029.5000    -999.25     9.4976     9.4976   106.6610     4.0000     0.0021    50.7997     2.9524     3.0974     4.1045  1413.4668     0.3565    -999.25     1.4641     0.2003     0.2003 21177.9180     2.2604     2.9524     8.7168     2.5524     0.9289     0.9289 -1341.8768    22.1280     0.1861     6.0000
  1413.5099  6451.3301 6451330.0000    -999.25     9.4884     9.4884   106.6588     4.0000     0.0021    50.8352     2.9535     3.0919     4.1061  1413.5099     0.3569    -999.25     1.2663     0.2019     0.2019 21165.7812     2.2575     2.9535     8.7230     2.5320     0.9261     0.9261 -1341.9199    21.9204     0.1870     6.0000
  1413.6192  6429.0220 6426171.5000    -999.25     9.4650     9.4650   106.6787     4.0000     0.0021    50.9250     2.9561     3.0782     4.1104  1413.6191     0.3578    -999.25     0.7644     0.2060     0.2060 21083.2402     2.2501     2.9561     8.7385     2.4804     0.9190     0.9190 -1342.0292    21.3940     0.1893     6.0000
  1413.6622  6416.2739 6416274.0000    -999.25     9.4578     9.4578   106.6865     4.0000     0.0020    50.9741     2.9635     3.0756     4.1053  1413.6621     0.3577    -999.25     0.5845     0.2085     0.2085 21050.7676     2.2458     2.9635     8.7827     2.4603     0.9152     0.9152 -1342.0721    21.0001     0.1908     6.0000
  1413.7716  6388.8286 6389199.0000    -999.25     9.4395     9.4395   106.6232     4.0000     0.0020    51.0989     2.9825     3.0691     4.0923  1413.7716     0.3573    -999.25     0.1267     0.2148     0.2148 20961.9395     2.2349     2.9825     8.8951     2.4094     0.9056     0.9056 -1342.1816    19.9980     0.1945     6.0000
  1413.8147  6378.5322 6378532.5000    -999.25     9.4346     9.4346   106.5983     4.0000     0.0020    50.9870     2.9968     3.0748     4.0886  1413.8147     0.3560    -999.25     0.0983     0.2176     0.2176 20926.9434     2.2308     2.9968     8.9816     2.3939     0.9016     0.9016 -1342.2247    19.4802     0.1962     6.0000
  1413.9240  6366.7900 6370427.0000    -999.25     9.4222     9.4222   106.2943     4.0000     0.0020    50.7032     3.0333     3.0890     4.0793  1413.9240     0.3527    -999.25     0.0262     0.2248     0.2248 20900.3516     2.2203     3.0333     9.2010     2.3545     0.8915     0.8915 -1342.3340    18.1670     0.2004     6.0000
  1413.9670  6367.2388 6367238.5000    -999.25     9.4195     9.4195   106.1747     4.0000     0.0020    50.5607     3.0531     3.1063     4.0882  1413.9669     0.3517    -999.25     0.0662     0.2265     0.2265 20889.8906     2.2180     3.0531     9.3226     2.3496     0.8874     0.8874 -1342.3770    17.8482     0.2010     6.0000
  1414.0764  6372.8999 6377684.0000    -999.25     9.4126     9.4126   105.7954     4.0000     0.0020    50.1982     3.1036     3.1501     4.1108  1414.0764     0.3492    -999.25     0.1680     0.2308     0.2308 20924.1602     2.2120     3.1036     9.6321     2.3372     0.8771     0.8771 -1342.4863    17.0370     0.2025     6.0000
  1414.1195  6381.7993 6381799.5000    -999.25     9.4132     9.4132   105.6460     4.0000     0.0020    50.6279     3.1266     3.1791     4.1464  1414.1195     0.3493    -999.25     0.1380     0.2297     0.2297 20937.6621     2.2120     3.1266     9.7771     2.3599     0.8767     0.8767 -1342.5294    17.0605     0.2014     6.0000
  1414.2288  6402.4297 6405807.5000    -999.25     9.4149     9.4149   105.3008     4.0000     0.0020    51.7174     3.1851     3.2525     4.2366  1414.2288     0.3495    -999.25     0.0619     0.2269     0.2269 21016.4277     2.2119     3.1851    10.1448     2.4177     0.8757     0.8757 -1342.6388    17.1200     0.1987     6.0000
