~Version ---------------------------------------------------
VERS. 2.0 : CWLS log ASCII Standard -VERSION 2.0
WRAP.  NO : 
~Well ------------------------------------------------------
STRT.m                                                1249.0292 : 
STOP.m                                                1575.3176 : 
STEP.m                                                   0.1524 : 
NULL.                                                   -999.25 : 
COMP.                                                           : COMPANY
WELL.                                                   Well-10 : WELL
FLD .                                                           : FIELD
LOC .                                                           : LOCATION
SRVC.                                                           : SERVICE COMPANY
DATE. 2021-01-20 14:34:04   : Log Export Date {yyyy-MM-dd HH:mm : ss}
PROV.                                                           : PROVINCE
UWI .                                                   Well-10 : UNIQUE WELL ID
API .                                                           : API NUMBER
~Curve Information -----------------------------------------
DEPTH             .m        : DEPTH
ACOUSTICIMPEDANCE1.kPa.s/m  : ACOUSTICIMPEDANCE1
AI                .kPa.s/m  : AI
AVG_PIGN          .m3/m3    : AVG_PIGN
CALI              .in       : CALI
CALI[DERIVED]1    .in       : CALI[DERIVED]1
DFL               .ohm.m    : DFL
DT                .us/ft    : DT
FACIES            ._        : FACIES
FLD1              ._        : FLD1
GR                .gAPI     : GR
HDRS              .ohm.m    : HDRS
HMRS              .ohm.m    : HMRS
DEPTH_1           .m        : DEPTH_1
NPHI              .m3/m3    : NPHI
PEF               .b/e      : PEF
PERF_INT          ._        : PERF_INT
PERMEABILITY      .mD       : PERMEABILITY
PHIT              .m3/m3    : PHIT
PIGN              .m3/m3    : PIGN
PIGN_MODELLING    .m3/m3    : PIGN_MODELLING
PIMP              .kPa.s/m  : PIMP
RHOB              .g/cm3    : RHOB
RT_MODELLING      .ohm.m    : RT_MODELLING
RT_POWER          .ohm.m    : RT_POWER
SP                .mV       : SP
SUWI              ._        : SUWI
SUWI_MODELLING    ._        : SUWI_MODELLING
SXWI              ._        : SXWI
TDVSS             .m        : TDVSS
TEMP              .K        : TEMP
VCL               .%        : VCL
WATER_VOL         ._        : WATER_VOL
ZLT               ._        : ZLT
~Params ----------------------------------------------------
~Other -----------------------------------------------------
~ASCII -----------------------------------------------------
# ...
  1356.3188  5821.6416 5821641.5000    -999.25     8.9392     8.9392     2.3389   124.0322     0.0000    -999.25    69.6558     1.8212     1.8244  1356.3188     0.5128     7.0463    -999.25    -999.25     0.0369     0.0369     0.0369 19099.8730     2.3690     2.3389     5.4705   142.5242     1.0000     1.0000     1.0000 -1276.3188   164.8342    60.7060     0.0369     0.0000
  1356.4712  5846.6548 5846654.5000    -999.25     8.8946     8.8946     2.4140   123.5433     0.0000    -999.25    72.1059     1.8462     1.8644  1356.4712     0.4873     6.8686    -999.25    -999.25     0.0276     0.0276     0.0276 19181.9375     2.3698     2.4140     5.8274   142.5009     1.0000     1.0000     1.0000 -1276.4712   164.8438    62.2800     0.0276     0.0000
  1356.6236  5775.8604 5775860.0000    -999.25     8.9342     8.9342     2.4577   124.6671     0.0000    -999.25    74.6512     1.8700     1.9070  1356.6237     0.4870     6.7895    -999.25    -999.25     0.0335     0.0335     0.0335 18949.6719     2.3624     2.4577     6.0403   142.5496     1.0000     1.0000     1.0000 -1276.6237   164.8533    61.8730     0.0335     0.0000
  1356.7760  5650.2134 5650213.5000    -999.25     9.2186     9.2186     2.4123   126.3658     0.0000    -999.25    76.2530     1.8196     1.8434  1356.7760     0.5440     6.9196    -999.25    -999.25     0.0458     0.0458     0.0458 18537.4453     2.3425     2.4123     5.8192   142.6687     1.0000     1.0000     1.0000 -1276.7760   164.8628    62.4590     0.0458     0.0000
  1356.9284  5518.7627 5518763.0000    -999.25     9.0372     9.0372     2.4250   128.2049     0.0000    -999.25    75.2103     1.7466     1.7345  1356.9285     0.5205     7.2594    -999.25    -999.25     0.0498     0.0498     0.0498 18106.1777     2.3213     2.4250     5.8806   142.8007     1.0000     1.0000     1.0000 -1276.9285   164.8724    65.1930     0.0498     0.0000
  1357.0808  5463.6138 5463614.0000    -999.25     9.2286     9.2286     2.1496   129.4320     0.0000    -999.25    73.0256     1.7105     1.6763  1357.0808     0.5127     7.6051    -999.25    -999.25     0.0507     0.0507     0.0507 17925.2422     2.3201     2.1496     4.6208   142.9435     1.0000     1.0000     1.0000 -1277.0808   164.8819    65.9350     0.0507     0.0000
  1357.2332  5497.7900 5497790.0000    -999.25     9.1925     9.1925     2.2271   128.7605     0.0000    -999.25    70.6081     1.6827     1.6392  1357.2332     0.5340     7.8162    -999.25    -999.25     0.0547     0.0547     0.0547 18037.3691     2.3225     2.2271     4.9600   143.1127     1.0000     1.0000     1.0000 -1277.2332   164.8914    63.4080     0.0547     0.0000
  1357.3856  5621.3789 5621379.0000    -999.25     8.9588     8.9588     2.1722   126.8514     0.0000    -999.25    68.8736     1.6619     1.6306  1357.3856     0.5557     7.8422    -999.25    -999.25     0.0590     0.0590     0.0590 18442.8438     2.3395     2.1722     4.7185   143.2579     1.0000     1.0000     1.0000 -1277.3856   164.9010    60.5920     0.0590     0.0000
  1357.5380  5749.4956 5749495.5000    -999.25     8.9464     8.9464     2.2761   125.0850     0.0000    -999.25    68.9720     1.6892     1.6968  1357.5380     0.5334     7.6053    -999.25    -999.25     0.0579     0.0579     0.0579 18863.1738     2.3595     2.2761     5.1806   143.3736     1.0000     1.0000     1.0000 -1277.5380   164.9105    59.1850     0.0579     0.0000
  1357.6904  5814.8979 5814898.0000    -999.25     9.0666     9.0666     2.3037   123.8773     0.0000    -999.25    70.6509     1.7293     1.7729  1357.6904     0.5184     7.3460    -999.25    -999.25     0.0549     0.0549     0.0549 19077.7500     2.3633     2.3037     5.3070   143.6286     1.0000     1.0000     1.0000 -1277.6904   164.9200    59.3010     0.0549     0.0000
  1357.8428  5822.9077 5822907.5000    -999.25     9.1524     9.1524     2.2915   123.5499     0.0000    -999.25    72.8291     1.7028     1.7588  1357.8428     0.4934     7.3026    -999.25    -999.25     0.0559     0.0559     0.0559 19104.0273     2.3603     2.2915     5.2510   144.0671     1.0000     1.0000     1.0000 -1277.8428   164.9296    60.2680     0.0559     0.0000
  1357.9952  5715.2539 5715253.5000    -999.25     9.4461     9.4461     2.2641   124.9385     0.0000    -999.25    75.4601     1.6637     1.7200  1357.9952     0.4996     7.5291    -999.25    -999.25     0.0554     0.0554     0.0554 18750.8320     2.3427     2.2641     5.1261   144.5495     1.0000     1.0000     1.0000 -1277.9952   164.9391    62.2840     0.0554     0.0000
  1358.1476  5512.9619 5512962.0000    -999.25    10.3605    10.3605     2.1497   128.1573     0.0000    -999.25    78.7037     1.6389     1.6891  1358.1476     0.5365     8.0116    -999.25    -999.25     0.0495     0.0495     0.0495 18087.1465     2.3180     2.1497     4.6212   145.0038     1.0000     1.0000     1.0000 -1278.1476   164.9486    66.4640     0.0495     0.0000
  1358.3000  5275.3105 5275310.5000    -999.25    11.2073    11.2073     2.0952   132.6019     0.0000    -999.25    80.6502     1.5466     1.5736  1358.3000     0.5768     8.5251    -999.25    -999.25     0.0384     0.0384     0.0384 17307.4492     2.2950     2.0952     4.3899   145.4389     1.0000     1.0000     1.0000 -1278.3000   164.9581    73.8150     0.0384     0.0000
  1358.4524  5055.8706 5055870.5000    -999.25    11.4920    11.4920     1.8214   137.2419     0.0000    -999.25    79.5928     1.4056     1.4053  1358.4524     0.6144     8.8090    -999.25    -999.25     0.0276     0.0276     0.0276 16587.5020     2.2765     1.8214     3.3175   145.7910     1.0000     1.0000     1.0000 -1278.4524   164.9677    81.0140     0.0276     0.0000
  1358.6048  4920.8037 4920803.5000    -999.25    11.0937    11.0937     1.7524   140.4391     0.0000    -999.25    76.2504     1.3139     1.3012  1358.6049     0.6596     8.7639    -999.25    -999.25     0.0233     0.0233     0.0233 16144.3682     2.2673     1.7524     3.0709   145.9628     1.0000     1.0000     1.0000 -1278.6049   164.9772    83.9670     0.0233     0.0000
  1358.7572  4901.2563 4901256.0000    -999.25    10.9084    10.9084     1.5743   140.8561     0.0000    -999.25    73.3612     1.3052     1.2906  1358.7572     0.6411     8.4715    -999.25    -999.25     0.0252     0.0252     0.0252 16080.2373     2.2650     1.5743     2.4784   145.9120     1.0000     1.0000     1.0000 -1278.7572   164.9868    82.8240     0.0252     0.0000
  1358.9096  5010.3486 5010348.5000    -999.25    11.0661    11.0661     1.5622   137.9656     0.0000    -999.25    71.7906     1.3440     1.3310  1358.9095     0.6313     8.1661    -999.25    -999.25     0.0337     0.0337     0.0337 16438.1504     2.2679     1.5622     2.4405   145.6473     1.0000     1.0000     1.0000 -1278.9095   164.9963    77.2190     0.0337     0.0000
  1359.0620  5236.3970 5236396.5000    -999.25    10.3389    10.3389     1.6282   132.6967     0.0000    -999.25    70.4799     1.4067     1.3959  1359.0620     0.6044     8.0110    -999.25    -999.25     0.0468     0.0468     0.0468 17179.7793     2.2797     1.6282     2.6510   145.1908     1.0000     1.0000     1.0000 -1279.0620   165.0058    68.4960     0.0468     0.0000
  1359.2144  5556.2427 5556242.5000    -999.25     9.7373     9.7373     1.7435   126.4130     0.0000    -999.25    70.1184     1.4923     1.4868  1359.2144     0.5470     8.0331    -999.25    -999.25     0.0591     0.0591     0.0591 18229.1426     2.3044     1.7435     3.0398   144.6425     1.0000     1.0000     1.0000 -1279.2144   165.0154    60.3440     0.0591     0.0000
  1359.3668  5893.7007 5893701.0000    -999.25     9.5410     9.5410     1.8833   120.9126     0.0000    -999.25    70.2929     1.6155     1.6326  1359.3668     0.5213     8.0749    -999.25    -999.25     0.0657     0.0657     0.0657 19336.2891     2.3380     1.8833     3.5468   144.0427     1.0000     1.0000     1.0000 -1279.3668   165.0249    55.9690     0.0657     0.0000
  1359.5192  6112.4180 6112418.0000    -999.25     9.5648     9.5648     2.1079   118.0172     0.0000    -999.25    69.9418     1.7794     1.8385  1359.5192     0.4654     8.0606    -999.25    -999.25     0.0683     0.0683     0.0683 20053.8652     2.3667     2.1079     4.4432   143.4861     1.0000     1.0000     1.0000 -1279.5192   165.0344    54.3040     0.0683     0.0000
