~Version ---------------------------------------------------
VERS. 2.0 : CWLS log ASCII Standard -VERSION 2.0
WRAP.  NO : 
~Well ------------------------------------------------------
STRT.m                                                1249.0292 : 
STOP.m                                                1575.3176 : 
STEP.m                                                   0.1524 : 
NULL.                                                   -999.25 : 
COMP.                                                           : COMPANY
WELL.                                                   Well-10 : WELL
FLD .                                                           : FIELD
LOC .                                                           : LOCATION
SRVC.                                                           : SERVICE COMPANY
DATE. 2021-01-20 14:34:04   : Log Export Date {yyyy-MM-dd HH:mm : ss}
PROV.                                                           : PROVINCE
UWI .                                                   Well-10 : UNIQUE WELL ID
API .                                                           : API NUMBER
~Curve Information -----------------------------------------
DEPTH             .m        : DEPTH
ACOUSTICIMPEDANCE1.kPa.s/m  : ACOUSTICIMPEDANCE1
AI                .kPa.s/m  : AI
AVG_PIGN          .m3/m3    : AVG_PIGN
CALI              .in       : CALI
CALI[DERIVED]1    .in       : CALI[DERIVED]1
DFL               .ohm.m    : DFL
DT                .us/ft    : DT
FACIES            ._        : FACIES
FLD1              ._        : FLD1
GR                .gAPI     : GR
HDRS              .ohm.m    : HDRS
HMRS              .ohm.m    : HMRS
DEPTH_1           .m        : DEPTH_1
NPHI              .m3/m3    : NPHI
PEF               .b/e      : PEF
PERF_INT          ._        : PERF_INT
PERMEABILITY      .mD       : PERMEABILITY
PHIT              .m3/m3    : PHIT
PIGN              .m3/m3    : PIGN
PIGN_MODELLING    .m3/m3    : PIGN_MODELLING
PIMP              .kPa.s/m  : PIMP
RHOB              .g/cm3    : RHOB
RT_MODELLING      .ohm.m    : RT_MODELLING
RT_POWER          .ohm.m    : RT_POWER
SP                .mV       : SP
SUWI              ._        : SUWI
SUWI_MODELLING    ._        : SUWI_MODELLING
SXWI              ._        : SXWI
TDVSS             .m        : TDVSS
TEMP              .K        : TEMP
VCL               .%        : VCL
WATER_VOL         ._        : WATER_VOL
ZLT               ._        : ZLT
~Params ----------------------------------------------------
~Other -----------------------------------------------------
~ASCII -----------------------------------------------------
# ...
  1312.7324  4424.4907 4424491.0000    -999.25     8.9402     8.9402     1.0722   148.8009     0.0000    -999.25    44.1305     0.8143     0.8161  1312.7324     0.6256     6.2719    -999.25    -999.25    -999.25    -999.25    -999.25 14516.0459     2.1600     1.0722     1.1496   142.5980    -999.25    -999.25    -999.25 -1232.7324   162.1080    -999.25    -999.25    -999.25
  1312.8848  4428.5767 4428576.5000    -999.25     8.9029     8.9029     0.9962   149.0696     0.0000    -999.25    46.5185     0.8188     0.8209  1312.8848     0.5910     6.1357    -999.25    -999.25    -999.25    -999.25    -999.25 14529.4502     2.1659     0.9962     0.9924   142.6651    -999.25    -999.25    -999.25 -1232.8848   162.1176    -999.25    -999.25    -999.25
  1313.0372  4447.2188 4447218.5000    -999.25     8.9165     8.9165     1.0464   148.6983     0.0000    -999.25    48.6222     0.8285     0.8378  1313.0372     0.5667     5.9773    -999.25    -999.25    -999.25    -999.25    -999.25 14590.6123     2.1696     1.0464     1.0950   142.7186    -999.25    -999.25    -999.25 -1233.0372   162.1271    -999.25    -999.25    -999.25
  1313.1896  4441.3828 4441382.5000    -999.25     8.9469     8.9469     1.0938   148.4682     0.0000    -999.25    49.9472     0.8306     0.8480  1313.1896     0.5750     5.8396    -999.25    -999.25    -999.25    -999.25    -999.25 14571.4658     2.1634     1.0938     1.1964   142.7202    -999.25    -999.25    -999.25 -1233.1896   162.1366    -999.25    -999.25    -999.25
  1313.3420  4430.5552 4430555.5000    -999.25     8.9725     8.9725     1.1066   148.1638     0.0000    -999.25    50.4907     0.8306     0.8490  1313.3420     0.5733     5.8433    -999.25    -999.25    -999.25    -999.25    -999.25 14535.9424     2.1537     1.1066     1.2246   142.7269    -999.25    -999.25    -999.25 -1233.3420   162.1461    -999.25    -999.25    -999.25
  1313.4944  4460.2271 4460227.0000    -999.25     8.9463     8.9463     1.0762   147.0073     0.0000    -999.25    51.3499     0.8296     0.8507  1313.4944     0.5833     5.8869    -999.25    -999.25    -999.25    -999.25    -999.25 14633.2910     2.1512     1.0762     1.1582   142.7286    -999.25    -999.25    -999.25 -1233.4944   162.1557    -999.25    -999.25    -999.25
  1313.6468  4523.8711 4523871.0000    -999.25     8.9188     8.9188     1.0859   144.9997     0.0000    -999.25    53.1348     0.8339     0.8601  1313.6469     0.5770     5.8822    -999.25    -999.25    -999.25    -999.25    -999.25 14842.0957     2.1521     1.0859     1.1792   142.6074    -999.25    -999.25    -999.25 -1233.6469   162.1652    -999.25    -999.25    -999.25
  1313.7992  4597.3657 4597365.5000    -999.25     8.9277     8.9277     1.1062   142.9469     0.0000    -999.25    54.7501     0.8484     0.8779  1313.7992     0.5577     5.9081    -999.25    -999.25    -999.25    -999.25    -999.25 15083.2207     2.1561     1.1062     1.2237   142.4458    -999.25    -999.25    -999.25 -1233.7992   162.1747    -999.25    -999.25    -999.25
  1313.9516  4634.4629 4634463.0000    -999.25     9.0946     9.0946     1.1325   141.8948     0.0000    -999.25    55.1418     0.8737     0.8992  1313.9517     0.5685     6.0454    -999.25    -999.25    -999.25    -999.25    -999.25 15204.9307     2.1575     1.1325     1.2826   142.3605    -999.25    -999.25    -999.25 -1233.9517   162.1843    -999.25    -999.25    -999.25
  1314.1040  4610.4077 4610407.5000    -999.25     9.5810     9.5810     1.1931   142.3310     0.0000    -999.25    54.3076     0.9011     0.9125  1314.1040     0.6100     6.3765    -999.25    -999.25    -999.25    -999.25    -999.25 15126.0098     2.1529     1.1931     1.4235   142.3143    -999.25    -999.25    -999.25 -1234.1040   162.1938    -999.25    -999.25    -999.25
  1314.2564  4545.3164 4545316.5000    -999.25     9.9492     9.9492     1.2155   143.6853     0.0000    -999.25    52.1674     0.9015     0.9092  1314.2563     0.6401     6.9328    -999.25    -999.25    -999.25    -999.25    -999.25 14912.4551     2.1427     1.2155     1.4774   142.2784    -999.25    -999.25    -999.25 -1234.2563   162.2033    -999.25    -999.25    -999.25
  1314.4088  4495.9180 4495918.0000    -999.25     9.9003     9.9003     1.2335   145.0063     0.0000    -999.25    49.2112     0.8867     0.8999  1314.4088     0.6454     7.4686    -999.25    -999.25    -999.25    -999.25    -999.25 14750.3877     2.1389     1.2335     1.5215   142.2655    -999.25    -999.25    -999.25 -1234.4088   162.2129    -999.25    -999.25    -999.25
  1314.5612  4499.2305 4499230.0000    -999.25     9.2710     9.2710     1.1715   145.4212     0.0000    -999.25    46.9966     0.8901     0.9030  1314.5612     0.6289     7.6767    -999.25    -999.25    -999.25    -999.25    -999.25 14761.2539     2.1466     1.1715     1.3724   142.2848    -999.25    -999.25    -999.25 -1234.5612   162.2224    -999.25    -999.25    -999.25
  1314.7136  4544.8452 4544845.5000    -999.25     8.8787     8.8787     1.2074   144.9409     0.0000    -999.25    46.9508     0.9118     0.9197  1314.7136     0.6258     7.5175    -999.25    -999.25    -999.25    -999.25    -999.25 14910.9102     2.1612     1.2074     1.4578   142.3312    -999.25    -999.25    -999.25 -1234.7136   162.2319    -999.25    -999.25    -999.25
  1314.8660  4602.1465 4602146.5000    -999.25     8.9812     8.9812     1.2360   144.2555     0.0000    -999.25    48.5005     0.9336     0.9332  1314.8660     0.5824     7.0413    -999.25    -999.25    -999.25    -999.25    -999.25 15098.9062     2.1781     1.2360     1.5277   142.4086    -999.25    -999.25    -999.25 -1234.8660   162.2415    -999.25    -999.25    -999.25
  1315.0184  4613.6748 4613674.5000    -999.25     9.1654     9.1654     1.2666   144.1130     0.0000    -999.25    49.8197     0.9275     0.9302  1315.0184     0.5373     6.5827    -999.25    -999.25    -999.25    -999.25    -999.25 15136.7275     2.1814     1.2666     1.6043   142.4557    -999.25    -999.25    -999.25 -1235.0184   162.2510    -999.25    -999.25    -999.25
  1315.1708  4580.2827 4580282.5000    -999.25     8.9956     8.9956     1.2333   144.6114     0.0000    -999.25    50.2786     0.8975     0.9111  1315.1708     0.5526     6.4623    -999.25    -999.25    -999.25    -999.25    -999.25 15027.1738     2.1731     1.2333     1.5210   142.4375    -999.25    -999.25    -999.25 -1235.1708   162.2605    -999.25    -999.25    -999.25
  1315.3232  4531.5103 4531510.5000    -999.25     9.0140     9.0140     1.1683   145.3472     0.0000    -999.25    50.9958     0.8683     0.8881  1315.3232     0.5680     6.5800    -999.25    -999.25    -999.25    -999.25    -999.25 14867.1602     2.1609     1.1683     1.3649   142.4433    -999.25    -999.25    -999.25 -1235.3232   162.2701    -999.25    -999.25    -999.25
  1315.4756  4480.6113 4480611.5000    -999.25     8.8027     8.8027     1.1611   146.3453     0.0000    -999.25    51.9304     0.8468     0.8686  1315.4756     0.5789     6.7953    -999.25    -999.25    -999.25    -999.25    -999.25 14700.1680     2.1513     1.1611     1.3482   142.5175    -999.25    -999.25    -999.25 -1235.4756   162.2796    -999.25    -999.25    -999.25
  1315.6280  4444.8286 4444829.0000    -999.25     8.7091     8.7091     1.1246   147.5577     0.0000    -999.25    52.7261     0.8328     0.8537  1315.6281     0.5895     6.9045    -999.25    -999.25    -999.25    -999.25    -999.25 14582.7715     2.1518     1.1246     1.2647   142.5917    -999.25    -999.25    -999.25 -1235.6281   162.2891    -999.25    -999.25    -999.25
  1315.7804  4421.6318 4421631.5000    -999.25     8.6993     8.6993     1.1036   148.5731     0.0000    -999.25    53.2321     0.8242     0.8430  1315.7804     0.5815     6.7362    -999.25    -999.25    -999.25    -999.25    -999.25 14506.6660     2.1553     1.1036     1.2179   142.6661    -999.25    -999.25    -999.25 -1235.7804   162.2987    -999.25    -999.25    -999.25
  1315.9328  4415.0859 4415086.0000    -999.25     8.6793     8.6793     1.0736   148.9798     0.0000    -999.25    53.2979     0.8202     0.8368  1315.9329     0.5828     6.4698    -999.25    -999.25    -999.25    -999.25    -999.25 14485.1895     2.1580     1.0736     1.1526   142.8078    -999.25    -999.25    -999.25 -1235.9329   162.3082    -999.25    -999.25    -999.25
