~Version ---------------------------------------------------
VERS. 2.0 : CWLS log ASCII Standard -VERSION 2.0
WRAP.  NO : 
~Well ------------------------------------------------------
STRT.m                                                1295.9144 : 
STOP.m                                                1639.8812 : 
STEP.m                                                   0.1524 : 
NULL.                                                   -999.25 : 
COMP.                                                           : COMPANY
WELL.                                                    Well-1 : WELL
FLD .                                                           : FIELD
LOC .                                                           : LOCATION
SRVC.                                                           : SERVICE COMPANY
DATE. 2021-01-20 14:33:59   : Log Export Date {yyyy-MM-dd HH:mm : ss}
PROV.                                                           : PROVINCE
UWI .                                                    Well-1 : UNIQUE WELL ID
API .                                                           : API NUMBER
~Curve Information -----------------------------------------
DEPTH             .m        : DEPTH
ACOUSTICIMPEDANCE1.kPa.s/m  : ACOUSTICIMPEDANCE1
AI                .kPa.s/m  : AI
AVG_PIGN          .m3/m3    : AVG_PIGN
CALI              .in       : CALI
CALI[DERIVED]1    .in       : CALI[DERIVED]1
DFL               .ohm.m    : DFL
DT                .us/ft    : DT
FACIES            ._        : FACIES
FLD1              ._        : FLD1
GR                .gAPI     : GR
HDRS              .ohm.m    : HDRS
HMRS              .ohm.m    : HMRS
DEPTH_1           .m        : DEPTH_1
NPHI              .m3/m3    : NPHI
ONE-WAYTIME1      .ms       : ONE-WAYTIME1
PERF_INT          ._        : PERF_INT
PERMEABILITY      .mD       : PERMEABILITY
PIGN              .m3/m3    : PIGN
PIGN_MODELLING    .m3/m3    : PIGN_MODELLING
PIMP              .kPa.s/m  : PIMP
RHOB              .g/cm3    : RHOB
RT_MODELLING      .ohm.m    : RT_MODELLING
RT_POWER          .ohm.m    : RT_POWER
SP                .mV       : SP
SUWI              ._        : SUWI
SUWI_MODELLING    ._        : SUWI_MODELLING
TDVSS             .m        : TDVSS
VCL               .%        : VCL
WATER_VOL         ._        : WATER_VOL
ZLT               ._        : ZLT
~Params ----------------------------------------------------
~Other -----------------------------------------------------
~ASCII -----------------------------------------------------
# ...
  1522.6856  6742.5000 6742500.0000    -999.25     8.9241     8.9241     2.6634   110.6091     0.0000    -999.25   109.9277     2.3213     2.3956  1522.6855     0.5692  -696.8029    -999.25     0.0629     0.0203     0.0203 22121.0625     2.4468     2.6634     7.0934   277.5052     1.0000     1.0000 -1444.1956    67.9540     0.0203    16.0000
  1522.8380  6960.1006 6960100.5000    -999.25     8.9208     8.9208     2.8223   108.7590     0.0000    -999.25   106.8619     2.4031     2.4862  1522.8380     0.5847  -696.8763    -999.25     0.0668     0.0200     0.0200 22834.9746     2.4835     2.8223     7.9655   277.4881     1.0000     1.0000 -1444.3480    77.9600     0.0200    16.0000
  1522.9904  7019.7534 7019753.5000    -999.25     8.9262     8.9262     3.1774   108.1653     0.0000    -999.25   102.1253     2.5735     2.6722  1522.9904     0.6055  -696.9499    -999.25     0.0522     0.0181     0.0181 23030.6875     2.4911     3.1774    10.0957   277.8499     1.0000     1.0000 -1444.5004    80.0620     0.0181    16.0000
  1523.1428  6937.6465 6937646.5000    -999.25     8.9401     8.9401     3.6642   108.8338     0.0000    -999.25    98.2086     2.7838     2.8938  1523.1428     0.6230  -697.0234    -999.25     0.0500     0.0178     0.0178 22761.3086     2.4772     3.6642    13.4261   278.3931     1.0000     1.0000 -1444.6528    80.4540     0.0178    16.0000
  1523.2952  6908.5752 6908575.0000    -999.25     8.9662     8.9662     4.1119   108.9905     0.0000    -999.25    96.5010     2.7847     2.9108  1523.2952     0.6253  -697.0970    -999.25     0.0584     0.0189     0.0189 22665.9277     2.4704     4.1119    16.9074   279.1357     1.0000     1.0000 -1444.8052    79.2540     0.0189    16.0000
  1523.4476  6941.7993 6941799.5000    -999.25     8.9963     8.9963     3.9916   108.9048     0.0000    -999.25    97.2395     2.4780     2.6138  1523.4476     0.6140  -697.1705    -999.25     0.0743     0.0208     0.0208 22774.9316     2.4803     3.9916    15.9331   279.9329     1.0000     1.0000 -1444.9576    77.0850     0.0208    16.0000
  1523.6000  6711.8682 6711868.0000    -999.25     9.0351     9.0351     3.2756   112.8641     0.0000    -999.25    98.1697     2.0971     2.2101  1523.6000     0.5968  -697.2440    -999.25     0.0879     0.0228     0.0228 22020.5645     2.4853     3.2756    10.7298   280.6351     1.0000     1.0000 -1445.1100    74.8870     0.0228    16.0000
  1523.7524  6270.9707 6270970.5000    -999.25     9.0691     9.0691     2.6002   120.2913     0.0000    -999.25    97.3971     1.9169     2.0084  1523.7524     0.5830  -697.3176    -999.25     0.0960     0.0245     0.0245 20574.0508     2.4749     2.6002     6.7612   281.0887     1.0000     1.0000 -1445.2623    73.0260     0.0245    16.0000
  1523.9048  6055.1333 6055133.0000    -999.25     9.0597     9.0597     2.2883   123.0111     0.0000    -999.25    95.9380     1.9677     2.0360  1523.9048     0.5767  -697.3911    -999.25     0.0935     0.0253     0.0253 19865.9219     2.4437     2.2883     5.2365   281.3209     1.0000     1.0000 -1445.4148    72.1780     0.0253    16.0000
  1524.0572  6219.5737 6219574.0000    -999.25     9.0149     9.0149     2.2671   117.5187     0.0000    -999.25    94.9623     2.0694     2.1124  1524.0571     0.5808  -697.4646    -999.25     0.0776     0.0245     0.0245 20405.4258     2.3980     2.2671     5.1400   281.3642     1.0000     1.0000 -1445.5671    73.0760     0.0245    16.0000
  1524.2096  6520.8369 6520837.0000    -999.25     8.9752     8.9752     2.3463   110.9685     0.0000    -999.25    93.8692     2.1282     2.1683  1524.2096     0.5936  -697.5381    -999.25     0.0594     0.0224     0.0224 21393.8223     2.3740     2.3463     5.5052   281.2975     1.0000     1.0000 -1445.7196    75.3570     0.0224    16.0000
  1524.3620  6731.0371 6731037.0000    -999.25     8.9691     8.9691     2.4200   107.9265     0.0000    -999.25    92.1528     2.2040     2.2667  1524.3619     0.6089  -697.6117    -999.25     0.0516     0.0208     0.0208 22083.4551     2.3834     2.4200     5.8564   281.1255     1.0000     1.0000 -1445.8719    77.1420     0.0208    16.0000
  1524.5144  6951.1499 6951150.0000    -999.25     8.9616     8.9616     2.5791   105.7468     0.0000    -999.25    90.0208     2.2609     2.3775  1524.5144     0.6146  -697.6852    -999.25     0.0589     0.0212     0.0212 22805.6094     2.4116     2.5791     6.6520   280.8622     1.0000     1.0000 -1446.0244    76.6680     0.0212    16.0000
  1524.6668  7394.3828 7394382.5000    -999.25     8.9570     8.9570     2.7167   101.6068     0.0000    -999.25    87.0361     2.2734     2.4516  1524.6667     0.5972  -697.7587    -999.25     0.0841     0.0239     0.0239 24259.7852     2.4650     2.7167     7.3804   280.4413     1.0000     1.0000 -1446.1768    73.6670     0.0239    16.0000
  1524.8192  8087.8892 8087889.0000    -999.25     8.9328     8.9328     2.7724    95.6700     0.0000    -999.25    81.9314     2.2835     2.5206  1524.8192     0.5508  -697.8323    -999.25     0.1166     0.0280     0.0280 26535.0684     2.5386     2.7724     7.6863   279.7867     1.0000     1.0000 -1446.3292    69.1630     0.0280    16.0000
  1524.9716  8791.4229 8791423.0000    -999.25     8.8902     8.8902     2.8622    90.0197     0.0000    -999.25    74.1763     2.4590     2.7715  1524.9716     0.4926  -697.9058    -999.25     0.6397     0.0543     0.0543 28843.2500     2.5965     2.8622     8.1921   278.9930     1.0000     1.0000 -1446.4816    56.8220     0.0543    16.0000
  1525.1240  9280.6377 9280638.0000    -999.25     8.8674     8.8674     3.5118    86.1112     4.0000    -999.25    65.1502     3.0741     3.4830  1525.1240     0.4448  -697.9793    -999.25     3.4046     0.1042     0.1042 30448.2871     2.6219     3.5118    12.3325   278.0129     0.9686     0.9686 -1446.6340    39.2830     0.1010    16.0000
  1525.2764  9403.1992 9403199.0000    -999.25     8.8885     8.8885     5.3792    84.6252     4.0000    -999.25    57.3203     4.2601     4.7856  1525.2764     0.4216  -698.0529    -999.25     6.2201     0.1311     0.1311 30850.3906     2.6107     5.3792    28.9360   276.9637     0.8583     0.8583 -1446.7864    34.2230     0.1126    16.0000
  1525.4288  9128.1289 9128129.0000    -999.25     8.9328     8.9328     8.8470    85.7351     4.0000    -999.25    51.8180     5.6084     6.2639  1525.4288     0.4256  -698.1264    -999.25     9.6715     0.1468     0.1468 29947.9316     2.5676     8.8470    78.2692   275.9554     0.7625     0.7625 -1446.9388    35.0710     0.1119    16.0000
  1525.5812  8728.8506 8728850.0000    -999.25     8.9634     8.9634    11.2304    88.3813     4.0000    -999.25    49.9393     5.8085     6.4938  1525.5812     0.4496  -698.2000    -999.25    11.1063     0.1506     0.1506 28637.9609     2.5311    11.2304   126.1210   275.0627     0.7679     0.7679 -1447.0912    39.7670     0.1157    16.0000
  1525.7336  8293.1328 8293132.5000    -999.25     8.9769     8.9769     9.0901    92.1501     4.0000    -999.25    52.5476     4.7925     5.3230  1525.7336     0.4876  -698.2734    -999.25    10.8472     0.1503     0.1503 27208.4395     2.5073     9.0901    82.6294   274.3803     0.7638     0.7638 -1447.2435    45.9780     0.1148    16.0000
  1525.8860  7811.7563 7811756.5000    -999.25     8.9772     8.9772     6.7603    96.9066     4.0000    -999.25    57.1989     4.2658     4.6775  1525.8860     0.5307  -698.3470    -999.25    12.3147     0.1479     0.1479 25629.1230     2.4836     6.7603    45.7010   274.0290     0.7404     0.7404 -1447.3960    52.1210     0.1095    16.0000
  1526.0384  7334.9346 7334934.5000    -999.25     8.9739     8.9739     5.9022   102.3809     4.0000    -999.25    61.5514     4.0702     4.4502  1526.0383     0.5704  -698.4205    -999.25    13.5526     0.1416     0.1416 24064.7461     2.4638     5.9022    34.8360   274.0834     0.7547     0.7547 -1447.5483    57.3020     0.1069    16.0000
  1526.1908  6998.4272 6998427.0000    -999.25     8.9704     8.9704     5.3713   107.0297     4.0000    -999.25    64.9296     3.7433     4.0786  1526.1908     0.5993  -698.4940    -999.25    12.5683     0.1320     0.1320 22960.7188     2.4575     5.3713    28.8508   274.3510     0.8398     0.8398 -1447.7008    60.6610     0.1109    16.0000
