~Version ---------------------------------------------------
VERS. 2.0 : CWLS log ASCII Standard -VERSION 2.0
WRAP.  NO : 
~Well ------------------------------------------------------
STRT.m                                                   1260.0 : 
STOP.m                                                1659.7452 : 
STEP.m                                                   0.1524 : 
NULL.                                                   -999.25 : 
COMP.                                                           : COMPANY
WELL.                                                    Well-6 : WELL
FLD .                                                           : FIELD
LOC .                                                           : LOCATION
SRVC.                                                           : SERVICE COMPANY
DATE. 2021-01-20 14:34:00   : Log Export Date {yyyy-MM-dd HH:mm : ss}
PROV.                                                           : PROVINCE
UWI .                                                    Well-6 : UNIQUE WELL ID
API .                                                           : API NUMBER
~Curve Information -----------------------------------------
DEPTH             .m        : DEPTH
ACOUSTICIMPEDANCE1.kPa.s/m  : ACOUSTICIMPEDANCE1
AI                .kPa.s/m  : AI
AVG_PIGN          .m3/m3    : AVG_PIGN
CALI              .in       : CALI
CALI[DERIVED]1    .in       : CALI[DERIVED]1
DT                .us/ft    : DT
FACIES            ._        : FACIES
FLD1              ._        : FLD1
GR                .gAPI     : GR
LLD               .ohm.m    : LLD
LLS               .ohm.m    : LLS
LL3               .ohm.m    : LL3
DEPTH_1           .m        : DEPTH_1
NPHI              .m3/m3    : NPHI
ONE-WAYTIME1      .ms       : ONE-WAYTIME1
PERF_INT          ._        : PERF_INT
PERMEABILITY      .mD       : PERMEABILITY
PHIT              .m3/m3    : PHIT
PIGE              .m3/m3    : PIGE
PIGN              .m3/m3    : PIGN
PIGN_MODELLING    .m3/m3    : PIGN_MODELLING
PIMP              .kPa.s/m  : PIMP
RHOB              .g/cm3    : RHOB
LLD_1             .ohm.m    : LLD_1
RT_MODELLING      .ohm.m    : RT_MODELLING
RT_POWER          .ohm.m    : RT_POWER
SP                .mV       : SP
SUWI              ._        : SUWI
SUWI_MODELLING    ._        : SUWI_MODELLING
SXWI              ._        : SXWI
TDVSS             .m        : TDVSS
VCL               .%        : VCL
WATER_VOL         ._        : WATER_VOL
ZLT               ._        : ZLT
~Params ----------------------------------------------------
~Other -----------------------------------------------------
~ASCII -----------------------------------------------------
# ...
  1392.7840  5971.2578 5971258.0000    -999.25     8.9763     8.9763   120.9150     0.0000    -999.25    62.5637     1.9577     1.8842     1.9888  1392.7839     0.5879  -634.5084    -999.25     0.0341     0.2994     0.0351     0.0351     0.0351 19590.7402     2.3688     1.9577     1.9577     3.8325    30.4562     1.0000     1.0000     1.0000 -1315.0840    86.4754     0.0351     2.0000
  1392.8928  6175.9023 6177427.0000    -999.25     8.9302     8.9302   117.4668     0.0000    -999.25    61.7002     1.9654     1.9068     2.0224  1392.8928     0.5803  -634.5609    -999.25     0.0469     0.2989     0.0380     0.0380     0.0380 20267.1484     2.3801     1.9655     1.9654     3.8629    29.8834     1.0000     1.0000     1.0000 -1315.1927    85.3460     0.0380     2.0000
  1392.9364  6260.0459 6260046.0000    -999.25     8.9013     8.9013   116.0850     0.0000    -999.25    60.8328     1.9733     1.9284     2.0629  1392.9364     0.5740  -634.5819    -999.25     1.1284     0.2962     0.0704     0.0704     0.0704 20538.2090     2.3842     1.9733     1.9733     3.8939    29.4557     1.0000     1.0000     1.0000 -1315.2363    81.6517     0.0704     2.0000
  1393.0452  6459.5757 6458775.5000    -999.25     8.8291     8.8291   112.9759     0.0000    -999.25    58.6680     1.9928     1.9821     2.1641  1393.0452     0.5582  -634.6344    -999.25     3.8272     0.2893     0.1514     0.1514     0.1514 21190.2090     2.3943     1.9929     1.9928     3.9714    28.3886     1.0000     1.0000     1.0000 -1315.3452    72.4330     0.1514     2.0000
  1393.0888  6538.4136 6538413.5000    -999.25     8.8027     8.8027   111.7300     0.0000    -999.25    58.0205     2.0051     2.0115     2.2181  1393.0887     0.5496  -634.6555    -999.25     5.7352     0.2869     0.1633     0.1633     0.1633 21451.4883     2.3968     2.0052     2.0051     4.0206    27.7732     1.0000     1.0000     1.0000 -1315.3888    70.2702     0.1633     2.0000
  1393.1976  6676.2046 6674206.0000    -999.25     8.7370     8.7370   109.7082     0.0000    -999.25    56.4048     2.0356     2.0848     2.3530  1393.1976     0.5282  -634.7079    -999.25    10.4963     0.2809     0.1931     0.1931     0.1931 21897.0000     2.4030     2.0357     2.0356     4.1435    26.2375     1.0000     1.0000     1.0000 -1315.4976    64.8730     0.1931     2.0000
  1393.2412  6728.6226 6728622.5000    -999.25     8.7157     8.7157   108.8980     0.0000    -999.25    56.3214     2.0510     2.1160     2.4128  1393.2412     0.5196  -634.7290    -999.25    11.0652     0.2787     0.1922     0.1922     0.1922 22075.5332     2.4040     2.0512     2.0510     4.2073    25.4733     1.0000     1.0000     1.0000 -1315.5411    63.7696     0.1922     2.0000
  1393.3500  6791.3516 6791145.0000    -999.25     8.6623     8.6623   108.0020     0.0000    -999.25    56.1136     2.0897     2.1938     2.5620  1393.3500     0.4983  -634.7815    -999.25    12.4848     0.2732     0.1899     0.1899     0.1899 22280.6602     2.4064     2.0898     2.0897     4.3668    23.5665     1.0000     1.0000     1.0000 -1315.6500    61.0160     0.1899     2.0000
  1393.3936  6816.1997 6816200.0000    -999.25     8.6500     8.6500   107.6430     0.0000    -999.25    56.2730     2.1072     2.2223     2.6230  1393.3936     0.4920  -634.8025    -999.25    15.7555     0.2707     0.1995     0.1995     0.1995 22362.8613     2.4072     2.1074     2.1072     4.4411    22.6678     1.0000     1.0000     1.0000 -1315.6936    53.9587     0.1995     2.0000
  1393.5024  6828.1987 6829611.0000    -999.25     8.6192     8.6192   107.5402     0.0000    -999.25    56.6708     2.1510     2.2935     2.7750  1393.5024     0.4764  -634.8550    -999.25    23.9174     0.2644     0.2234     0.2234     0.2234 22406.8594     2.4091     2.1511     2.1510     4.6267    20.4254     1.0000     1.0000     1.0000 -1315.8024    36.3480     0.2234     2.0000
  1393.5460  6834.9849 6834985.0000    -999.25     8.6125     8.6125   107.4990     0.0000    -999.25    56.8497     2.1676     2.3159     2.8082  1393.5460     0.4726  -634.8760    -999.25    25.7040     0.2627     0.2265     0.2265     0.2265 22424.4922     2.4106     2.1677     2.1676     4.6990    19.4466     1.0000     1.0000     1.0000 -1315.8459    33.5089     0.2265     2.0000
  1393.6548  6805.8672 6808074.5000    -999.25     8.5957     8.5957   108.1233     0.0000    -999.25    57.2960     2.2090     2.3717     2.8910  1393.6548     0.4631  -634.9285    -999.25    30.1625     0.2584     0.2341     0.2341     0.2341 22336.2031     2.4143     2.2091     2.2090     4.8795    17.0041     1.0000     1.0000     1.0000 -1315.9548    26.4240     0.2341     2.0000
  1393.6985  6797.2661 6797266.0000    -999.25     8.5900     8.5900   108.3740     0.0000    -999.25    57.3379     2.2209     2.3861     2.9096  1393.6985     0.4606  -634.9496    -999.25    30.3470     0.2572     0.2332     0.2332     0.2332 22300.7402     2.4168     2.2211     2.2209     4.9329    16.0267     1.0000     1.0000     1.0000 -1315.9985    26.1011     0.2332     2.0000
  1393.8072  6752.4697 6752872.5000    -999.25     8.5757     8.5757   109.3782     0.0000    -999.25    57.4422     2.2507     2.4220     2.9558  1393.8071     0.4543  -635.0021    -999.25    30.8059     0.2543     0.2310     0.2310     0.2310 22155.0938     2.4231     2.2508     2.2507     5.0657    13.5955     1.0000     1.0000     1.0000 -1316.1072    25.2980     0.2310     2.0000
  1393.8508  6735.0659 6735066.0000    -999.25     8.5712     8.5712   109.7810     0.0000    -999.25    57.4302     2.2557     2.4275     2.9624  1393.8507     0.4528  -635.0231    -999.25    30.9845     0.2536     0.2306     0.2306     0.2306 22096.6738     2.4258     2.2558     2.2557     5.0882    12.7098     1.0000     1.0000     1.0000 -1316.1508    24.9796     0.2306     2.0000
  1393.9596  6676.6597 6673979.5000    -999.25     8.5600     8.5600   111.0438     0.0000    -999.25    57.4003     2.2681     2.4411     2.9787  1393.9596     0.4491  -635.0756    -999.25    31.4301     0.2519     0.2296     0.2296     0.2296 21896.2598     2.4324     2.2682     2.2681     5.1445    10.4995     1.0000     1.0000     1.0000 -1316.2596    24.1850     0.2296     2.0000
  1394.0033  6649.4443 6649444.0000    -999.25     8.5568     8.5568   111.5510     0.0000    -999.25    57.7216     2.2645     2.4395     2.9753  1394.0033     0.4494  -635.0967    -999.25    31.3962     0.2518     0.2296     0.2296     0.2296 21815.7617     2.4336     2.2645     2.2645     5.1278     9.8154     1.0000     1.0000     1.0000 -1316.3033    24.1529     0.2296     2.0000
  1394.1120  6594.0161 6589976.5000    -999.25     8.5489     8.5489   112.6209     0.0000    -999.25    58.5207     2.2553     2.4354     2.9667  1394.1119     0.4501  -635.1491    -999.25    31.3120     0.2515     0.2294     0.2294     0.2294 21620.6582     2.4364     2.2552     2.2553     5.0864     8.1135     1.0000     1.0000     1.0000 -1316.4120    24.0730     0.2294     2.0000
  1394.1556  6566.1240 6566124.0000    -999.25     8.5452     8.5452   113.0500     0.0000    -999.25    58.8806     2.2439     2.4289     2.9620  1394.1555     0.4516  -635.1702    -999.25    31.2378     0.2522     0.2299     0.2299     0.2299 21542.4004     2.4354     2.2438     2.2439     5.0354     7.6733     1.0000     1.0000     1.0000 -1316.4556    24.2361     0.2299     2.0000
  1394.2644  6498.2881 6494957.0000    -999.25     8.5360     8.5360   114.1059     0.0000    -999.25    59.7787     2.2155     2.4127     2.9503  1394.2644     0.4553  -635.2227    -999.25    31.0528     0.2538     0.2312     0.2312     0.2312 21308.9141     2.4327     2.2153     2.2155     4.9082     6.5747     1.0000     1.0000     1.0000 -1316.5643    24.6430     0.2312     2.0000
  1394.3081  6466.3726 6466372.5000    -999.25     8.5297     8.5297   114.5300     0.0000    -999.25    59.6280     2.1979     2.4034     2.9478  1394.3081     0.4568  -635.2438    -999.25    31.2948     0.2553     0.2326     0.2326     0.2326 21215.1328     2.4298     2.1977     2.1979     4.8314     6.3791     1.0000     1.0000     1.0000 -1316.6080    24.6932     0.2326     2.0000
