~Version ---------------------------------------------------
VERS. 2.0 : CWLS log ASCII Standard -VERSION 2.0
WRAP.  NO : 
~Well ------------------------------------------------------
STRT.m                                                   1260.0 : 
STOP.m                                                1659.7452 : 
STEP.m                                                   0.1524 : 
NULL.                                                   -999.25 : 
COMP.                                                           : COMPANY
WELL.                                                    Well-6 : WELL
FLD .                                                           : FIELD
LOC .                                                           : LOCATION
SRVC.                                                           : SERVICE COMPANY
DATE. 2021-01-20 14:34:00   : Log Export Date {yyyy-MM-dd HH:mm : ss}
PROV.                                                           : PROVINCE
UWI .                                                    Well-6 : UNIQUE WELL ID
API .                                                           : API NUMBER
~Curve Information -----------------------------------------
DEPTH             .m        : DEPTH
ACOUSTICIMPEDANCE1.kPa.s/m  : ACOUSTICIMPEDANCE1
AI                .kPa.s/m  : AI
AVG_PIGN          .m3/m3    : AVG_PIGN
CALI              .in       : CALI
CALI[DERIVED]1    .in       : CALI[DERIVED]1
DT                .us/ft    : DT
FACIES            ._        : FACIES
FLD1              ._        : FLD1
GR                .gAPI     : GR
LLD               .ohm.m    : LLD
LLS               .ohm.m    : LLS
LL3               .ohm.m    : LL3
DEPTH_1           .m        : DEPTH_1
NPHI              .m3/m3    : NPHI
ONE-WAYTIME1      .ms       : ONE-WAYTIME1
PERF_INT          ._        : PERF_INT
PERMEABILITY      .mD       : PERMEABILITY
PHIT              .m3/m3    : PHIT
PIGE              .m3/m3    : PIGE
PIGN              .m3/m3    : PIGN
PIGN_MODELLING    .m3/m3    : PIGN_MODELLING
PIMP              .kPa.s/m  : PIMP
RHOB              .g/cm3    : RHOB
LLD_1             .ohm.m    : LLD_1
RT_MODELLING      .ohm.m    : RT_MODELLING
RT_POWER          .ohm.m    : RT_POWER
SP                .mV       : SP
SUWI              ._        : SUWI
SUWI_MODELLING    ._        : SUWI_MODELLING
SXWI              ._        : SXWI
TDVSS             .m        : TDVSS
VCL               .%        : VCL
WATER_VOL         ._        : WATER_VOL
ZLT               ._        : ZLT
~Params ----------------------------------------------------
~Other -----------------------------------------------------
~ASCII -----------------------------------------------------
# ...
  1552.8040  7129.7363 7129736.0000    -999.25     8.8766     8.8766   109.5590     0.0000    -999.25    58.1251     3.0608     3.0488     3.4776  1552.8040     0.5516  -711.7156    -999.25     0.3071     0.2244     0.0430     0.0430     0.0430 23391.5234     2.5628     3.0609     3.0608     9.3686    45.8957     1.0000     1.0000     1.0000 -1475.1040    74.9335     0.0430    18.0000
  1552.9128  7018.0698 7013307.0000    -999.25     8.8766     8.8766   110.9968     0.0000    -999.25    59.5805     3.0781     3.0670     3.5010  1552.9128     0.5419  -711.7681    -999.25     0.3969     0.2260     0.0476     0.0476     0.0476 23009.5371     2.5557     3.0782     3.0781     9.4749    45.9518     1.0000     1.0000     1.0000 -1475.2128    73.1330     0.0476    18.0000
  1552.9564  6966.6494 6966649.5000    -999.25     8.8758     8.8758   111.5730     0.0000    -999.25    60.3526     3.0852     3.0758     3.5191  1552.9564     0.5380  -711.7892    -999.25     0.3580     0.2264     0.0462     0.0462     0.0462 22856.4629     2.5502     3.0853     3.0852     9.5186    45.9696     1.0000     1.0000     1.0000 -1475.2563    73.4062     0.0462    18.0000
  1553.0652  6762.0869 6763417.5000    -999.25     8.8739     8.8739   114.3233     0.0000    -999.25    62.2791     3.1028     3.0978     3.5642  1553.0652     0.5284  -711.8417    -999.25     0.2609     0.2276     0.0424     0.0424     0.0424 22189.6914     2.5363     3.1029     3.1028     9.6276    46.0141     1.0000     1.0000     1.0000 -1475.3652    74.0880     0.0424    18.0000
  1553.1089  6681.7886 6681788.5000    -999.25     8.8689     8.8689   115.4280     0.0000    -999.25    62.8645     3.1102     3.1068     3.5844  1553.1089     0.5268  -711.8627    -999.25     0.2353     0.2279     0.0410     0.0410     0.0410 21921.8789     2.5304     3.1103     3.1102     9.6736    46.0176     1.0000     1.0000     1.0000 -1475.4089    74.7045     0.0410    18.0000
  1553.2176  6478.0396 6484813.0000    -999.25     8.8566     8.8566   118.3678     0.0000    -999.25    64.3205     3.1286     3.1291     3.6347  1553.2175     0.5229  -711.9152    -999.25     0.1715     0.2287     0.0374     0.0374     0.0374 21275.6328     2.5157     3.1286     3.1286     9.7879    46.0261     1.0000     1.0000     1.0000 -1475.5176    76.2380     0.0374    18.0000
  1553.2612  6405.8052 6405805.0000    -999.25     8.8463     8.8463   119.5470     0.0000    -999.25    64.4102     3.1366     3.1388     3.6497  1553.2611     0.5230  -711.9362    -999.25     0.1782     0.2287     0.0379     0.0379     0.0379 21016.4199     2.5124     3.1367     3.1366     9.8385    46.0185     1.0000     1.0000     1.0000 -1475.5612    76.4394     0.0379    18.0000
  1553.3700  6260.7666 6267255.0000    -999.25     8.8207     8.8207   121.9192     0.0000    -999.25    64.6340     3.1567     3.1630     3.6871  1553.3700     0.5234  -711.9887    -999.25     0.1949     0.2288     0.0392     0.0392     0.0392 20561.8594     2.5043     3.1568     3.1567     9.9648    45.9993     1.0000     1.0000     1.0000 -1475.6700    76.9420     0.0392    18.0000
  1553.4137  6211.6055 6211605.5000    -999.25     8.8139     8.8139   122.8720     0.0000    -999.25    64.3798     3.1656     3.1734     3.7135  1553.4137     0.5240  -712.0098    -999.25     0.2160     0.2286     0.0405     0.0405     0.0405 20379.2832     2.5040     3.1657     3.1656    10.0214    45.9812     1.0000     1.0000     1.0000 -1475.7137    76.7722     0.0405    18.0000
  1553.5224  6147.2036 6149606.5000    -999.25     8.7969     8.7969   124.1289     0.0000    -999.25    63.7475     3.1878     3.1994     3.7792  1553.5223     0.5254  -712.0623    -999.25     0.2686     0.2279     0.0437     0.0437     0.0437 20175.8730     2.5034     3.1879     3.1878    10.1623    45.9362     1.0000     1.0000     1.0000 -1475.8224    76.3500     0.0437    18.0000
  1553.5660  6124.7383 6124738.5000    -999.25     8.7936     8.7936   124.6330     0.0000    -999.25    63.5666     3.1972     3.2096     3.7938  1553.5659     0.5268  -712.0833    -999.25     0.2907     0.2275     0.0446     0.0446     0.0446 20094.2852     2.5044     3.1973     3.1972    10.2223    45.9109     1.0000     1.0000     1.0000 -1475.8660    76.2848     0.0446    18.0000
  1553.6748  6131.3237 6133391.0000    -999.25     8.7856     8.7856   124.6209     0.0000    -999.25    63.1154     3.2206     3.2350     3.8303  1553.6748     0.5303  -712.1358    -999.25     0.3457     0.2265     0.0470     0.0470     0.0470 20122.6719     2.5069     3.2206     3.2206    10.3719    45.8479     1.0000     1.0000     1.0000 -1475.9747    76.1220     0.0470    18.0000
  1553.7185  6136.8657 6136866.0000    -999.25     8.7807     8.7807   124.6160     0.0000    -999.25    62.6504     3.2296     3.2436     3.8362  1553.7185     0.5326  -712.1569    -999.25     0.3795     0.2258     0.0482     0.0482     0.0482 20134.0742     2.5090     3.2297     3.2296    10.4306    45.8181     1.0000     1.0000     1.0000 -1476.0184    76.0334     0.0482    18.0000
  1553.8272  6056.2280 6059167.5000    -999.25     8.7687     8.7687   126.5466     0.0000    -999.25    61.4937     3.2521     3.2650     3.8509  1553.8271     0.5384  -712.2094    -999.25     0.4637     0.2243     0.0511     0.0511     0.0511 19879.1582     2.5144     3.2522     3.2521    10.5764    45.7439     1.0000     1.0000     1.0000 -1476.1272    75.8130     0.0511    18.0000
  1553.8708  6028.0020 6028002.0000    -999.25     8.7659     8.7659   127.3210     0.0000    -999.25    61.1778     3.2606     3.2701     3.8666  1553.8707     0.5422  -712.2303    -999.25     0.4422     0.2233     0.0498     0.0498     0.0498 19776.9102     2.5180     3.2607     3.2606    10.6316    45.7079     1.0000     1.0000     1.0000 -1476.1708    76.3838     0.0498    18.0000
  1553.9796  5904.2446 5910497.5000    -999.25     8.7587     8.7587   130.4530     0.0000    -999.25    60.3895     3.2817     3.2830     3.9060  1553.9796     0.5517  -712.2828    -999.25     0.3885     0.2209     0.0466     0.0466     0.0466 19391.3945     2.5270     3.2818     3.2817    10.7696    45.6181     1.0000     1.0000     1.0000 -1476.2795    77.8080     0.0466    18.0000
  1554.0233  5863.3008 5863301.0000    -999.25     8.7570     8.7570   131.7110     0.0000    -999.25    60.4214     3.2888     3.2870     3.9271  1554.0233     0.5546  -712.3040    -999.25     0.3534     0.2199     0.0446     0.0446     0.0446 19236.5508     2.5337     3.2889     3.2888    10.8163    45.5920     1.0000     1.0000     1.0000 -1476.3232    78.1790     0.0446    18.0000
  1554.1320  5759.7769 5764096.0000    -999.25     8.7527     8.7527   134.9570     0.0000    -999.25    60.5006     3.3064     3.2970     3.9795  1554.1320     0.5617  -712.3564    -999.25     0.2661     0.2174     0.0394     0.0394     0.0394 18911.0742     2.5503     3.3065     3.3064    10.9324    45.5272     1.0000     1.0000     1.0000 -1476.4320    79.1020     0.0394    18.0000
  1554.1756  5724.3042 5724304.5000    -999.25     8.7569     8.7569   136.2590     0.0000    -999.25    60.5598     3.3126     3.3018     3.9955  1554.1755     0.5628  -712.3774    -999.25     0.2450     0.2164     0.0379     0.0379     0.0379 18780.5254     2.5590     3.3127     3.3126    10.9734    45.5130     1.0000     1.0000     1.0000 -1476.4756    78.9072     0.0379    18.0000
  1554.2844  5697.6279 5694246.0000    -999.25     8.7674     8.7674   138.0645     0.0000    -999.25    60.7074     3.3280     3.3138     4.0353  1554.2844     0.5654  -712.4299    -999.25     0.1924     0.2141     0.0342     0.0342     0.0342 18681.9082     2.5808     3.3280     3.3280    11.0755    45.4775     1.0000     1.0000     1.0000 -1476.5844    78.4210     0.0342    18.0000
  1554.3280  5682.2002 5682200.5000    -999.25     8.7752     8.7752   138.7880     0.0000    -999.25    60.5558     3.3334     3.3186     4.0598  1554.3280     0.5656  -712.4509    -999.25     0.1829     0.2133     0.0334     0.0334     0.0334 18642.3887     2.5873     3.3334     3.3334    11.1115    45.4858     1.0000     1.0000     1.0000 -1476.6279    78.0940     0.0334    18.0000
