~Version ---------------------------------------------------
VERS. 2.0 : CWLS log ASCII Standard -VERSION 2.0
WRAP.  NO : 
~Well ------------------------------------------------------
STRT.m                                                1187.6524 : 
STOP.m                                                1658.2636 : 
STEP.m                                                   0.1524 : 
NULL.                                                   -999.25 : 
COMP.                                                           : COMPANY
WELL.                                                   Well-19 : WELL
FLD .                                                           : FIELD
LOC .                                                           : LOCATION
SRVC.                                                           : SERVICE COMPANY
DATE. 2021-01-20 14:34:11   : Log Export Date {yyyy-MM-dd HH:mm : ss}
PROV.                                                           : PROVINCE
UWI .                                                   Well-19 : UNIQUE WELL ID
API .                                                           : API NUMBER
~Curve Information -----------------------------------------
DEPTH             .m        : DEPTH
ACOUSTICIMPEDANCE1.kPa.s/m  : ACOUSTICIMPEDANCE1
AI                .kPa.s/m  : AI
AVG_PIGN          .m3/m3    : AVG_PIGN
CALI              .in       : CALI
NPHI              .m3/m3    : NPHI
DT                .us/ft    : DT
DT4P              .us/ft    : DT4P
FACIES            ._        : FACIES
FLD1              ._        : FLD1
GR                .gAPI     : GR
M2R2              .ohm.m    : M2R2
LLS               .ohm.m    : LLS
LLD               .ohm.m    : LLD
DEPTH_1           .m        : DEPTH_1
NPHI_1            .m3/m3    : NPHI_1
PEF               .b/e      : PEF
PERF_INT          ._        : PERF_INT
PERMEABILITY      .mD       : PERMEABILITY
PIGN              .m3/m3    : PIGN
PIGN_MODELLING    .m3/m3    : PIGN_MODELLING
PIMP              .kPa.s/m  : PIMP
RHOB              .g/cm3    : RHOB
LLD_1             .ohm.m    : LLD_1
RT_MODELLING      .ohm.m    : RT_MODELLING
RT_POWER          .ohm.m    : RT_POWER
SP                .mV       : SP
SPDH              .mV       : SPDH
SUWI              ._        : SUWI
SUWI_MODELLING    ._        : SUWI_MODELLING
TDVSS             .m        : TDVSS
TEMP              .K        : TEMP
VCL               .%        : VCL
WATER_VOL         ._        : WATER_VOL
RHOB_1            .g/cm3    : RHOB_1
ZLT               ._        : ZLT
~Params ----------------------------------------------------
~Other -----------------------------------------------------
~ASCII -----------------------------------------------------
# ...
  1341.2716  4190.7285 4190728.2500    -999.25    10.3571     0.5145   145.6894   145.6894    -999.25    -999.25    88.6521     1.4394     1.4742     1.4713  1341.2716     0.5145     4.8354    -999.25    -999.25    -999.25    -999.25 13749.1084     2.0031    -999.25    -999.25    -999.25   -60.7095   309.4805    -999.25    -999.25 -1208.9117   149.8865    -999.25    -999.25     2.0031    -999.25
  1341.4240  4169.5225 4169522.7500    -999.25    10.3237     0.5479   145.7286   145.7286    -999.25    -999.25    87.0329     1.4023     1.4414     1.4377  1341.4240     0.5479     4.7114    -999.25    -999.25    -999.25    -999.25 13679.5361     1.9935    -999.25    -999.25    -999.25   -60.3476   309.1884    -999.25    -999.25 -1209.0514   149.8942    -999.25    -999.25     1.9935    -999.25
  1341.5764  4136.1445 4136144.5000    -999.25    10.3016     0.5698   146.0940   146.0940    -999.25    -999.25    86.3137     1.4001     1.4433     1.4404  1341.5763     0.5698     4.6820    -999.25    -999.25    -999.25    -999.25 13570.0273     1.9825    -999.25    -999.25    -999.25   -60.3486   309.0800    -999.25    -999.25 -1209.1910   149.9019    -999.25    -999.25     1.9825    -999.25
  1341.7288  4123.7627 4123762.5000    -999.25    10.2714     0.5851   146.4144   146.4144     0.0000    -999.25    85.7015     1.4222     1.4686     1.4684  1341.7288     0.5851     4.6906    -999.25    -999.25    -999.25    -999.25 13529.4043     1.9809    -999.25    -999.25    -999.25   -60.3586   309.3151    -999.25    -999.25 -1209.3306   149.9096    -999.25    -999.25     1.9809    -999.25
  1341.8812  4090.1968 4090196.7500    -999.25    10.2100     0.5995   147.2210   147.2210     0.0000    -999.25    86.5330     1.4597     1.5079     1.5128  1341.8811     0.5995     4.5560    -999.25    -999.25    -999.25    -999.25 13419.2803     1.9756    -999.25    -999.25    -999.25   -60.1722   309.6622    -999.25    -999.25 -1209.4701   149.9174    -999.25    -999.25     1.9756    -999.25
  1342.0336  3895.6675 3895667.5000    -999.25    10.1221     0.5911   149.2912   149.2912     0.0000    -999.25    88.9115     1.4932     1.5408     1.5535  1342.0336     0.5911     3.9517    -999.25    -999.25    -999.25    -999.25 12781.0615     1.9081    -999.25    -999.25    -999.25   -60.0263   309.8160    -999.25    -999.25 -1209.6096   149.9251    -999.25    -999.25     1.9081    -999.25
  1342.1860  3482.5918 3482591.7500    -999.25    10.0472     0.5812   149.7047   149.7047     0.0000    -999.25    89.7254     1.5096     1.5541     1.5752  1342.1859     0.5812     3.2006    -999.25    -999.25     0.0001     0.0100 11425.8262     1.7105    -999.25    -999.25    -999.25   -60.0733   309.8914     1.0000     1.0000 -1209.7493   149.9328    51.6330     0.0001     1.7105    -999.25
  1342.3384  2938.2024 2938202.5000    -999.25    10.0114     0.6275   149.7235   149.7235     0.0000    -999.25    85.3073     1.5777     1.6189     1.6502  1342.3384     0.6275     2.9724    -999.25    -999.25     0.0001     0.0100  9639.7715     1.4433     1.4388     1.4388     2.0702   -60.1752   309.9799     1.0000     1.0000 -1209.8888   149.9405    38.9690     0.0001     1.4433    -999.25
  1342.4908  2524.7510 2524751.0000    -999.25     9.9975     0.7101   149.0830   149.0830     3.0000    -999.25    74.1872     1.8609     1.9030     1.9545  1342.4907     0.7101     3.1762    -999.25    -999.25     0.0001     0.0100  8283.3037     1.2349     1.7036     1.7036     2.9024   -60.2560   309.9707     1.0000     1.0000 -1210.0283   149.9482    33.1850     0.0001     1.2349    -999.25
  1342.6432  2325.9126 2325912.7500    -999.25     9.9965     0.7564   147.4915   147.4915     3.0000    -999.25    59.9395     2.7071     2.7626     2.8795  1342.6432     0.7564     3.4660    -999.25    -999.25     0.0001     0.0100  7630.9473     1.1255     2.5089     2.5089     6.2943   -60.2317   310.0483     1.0000     1.0000 -1210.1680   149.9559    20.6780     0.0001     1.1255    -999.25
  1342.7956  2282.2285 2282228.5000    -999.25    10.0099     0.7398   145.4399   145.4399     3.0000    -999.25    47.6635     3.7138     3.6746     3.8591  1342.7955     0.7398     3.6951    -999.25    -999.25     0.0001     0.0100  7487.6265     1.0890     3.3629     3.3629    11.3094   -60.1436   310.4093     1.0000     1.0000 -1210.3075   149.9636    10.0790     0.0001     1.0890    -999.25
  1342.9480  2353.1426 2353142.5000    -999.25    10.0313     0.6971   143.9714   143.9714     3.0000    -999.25    39.5271     4.2364     4.0938     4.3363  1342.9480     0.6971     3.9256    -999.25    -999.25     0.0001     0.0100  7720.2842     1.1115     3.7802     3.7802    14.2898   -60.2473   310.8170     1.0000     1.0000 -1210.4470   149.9713     3.6070     0.0001     1.1115    -999.25
  1343.1004  2582.8083 2582808.2500    -999.25    10.0586     0.6471   144.3512   144.3512     3.0000    -999.25    36.1053     4.3125     4.1806     4.4439  1343.1003     0.6471     4.2741    -999.25    -999.25     0.0001     0.0100  8473.7803     1.2232     3.8748     3.8748    15.0144   -60.5422   310.9984     1.0000     1.0000 -1210.5867   149.9791     0.5830     0.0001     1.2232    -999.25
  1343.2528  3065.6858 3065685.7500    -999.25    10.1019     0.6115   145.0782   145.0782     3.0000    -999.25    39.3901     3.6289     3.5989     3.7989  1343.2527     0.6115     4.7870    -999.25    -999.25     0.0001     0.0100 10058.0244     1.4592     3.3141     3.3141    10.9831   -60.6588   311.0344     1.0000     1.0000 -1210.7262   149.9868     0.0000     0.0001     1.4592    -999.25
  1343.4052  3992.2754 3992275.2500    -999.25    10.1551     0.5726   137.7537   137.7537     3.0000    -999.25    51.7457     2.8388     2.9444     3.1175  1343.4052     0.5726     5.4113    -999.25    -999.25     0.0001     0.0100 13098.0156     1.8043     2.7200     2.7200     7.3983   -60.4522   310.9904     1.0000     1.0000 -1210.8657   149.9945    15.9280     0.0001     1.8043    -999.25
  1343.5576  4724.6196 4724619.5000    -999.25    10.1909     0.5092   136.4711   136.4711     3.0000    -999.25    69.9324     1.8042     1.8662     1.9423  1343.5575     0.5092     5.7994    -999.25    -999.25     0.0001     0.0100 15500.7197     2.1154     1.6963     1.6963     2.8775   -60.1887   310.7742     1.0000     1.0000 -1211.0052   150.0022    41.2610     0.0001     2.1154     0.0000
  1343.7100  5069.9165 5069916.5000    -999.25    10.2008     0.4762   134.8477   134.8477     0.0000    -999.25    86.1151     1.5333     1.5859     1.6429  1343.7100     0.4762     5.7092    -999.25    -999.25     0.0522     0.0522 16633.5840     2.2430     1.4333     1.4333     2.0543   -60.1081   310.4189     1.0000     1.0000 -1211.1449   150.0099    68.2730     0.0522     2.2430     0.0000
  1343.8624  5130.7852 5130785.5000    -999.25    10.2021     0.5072   133.7469   133.7469     0.0000    -999.25    95.5578     1.5061     1.5566     1.6119  1343.8623     0.5072     5.5003    -999.25    -999.25     0.0438     0.0438 16833.2852     2.2514     1.4057     1.4057     1.9759   -60.2657   310.1266     1.0000     1.0000 -1211.2844   150.0176    73.2520     0.0438     2.2514     0.0000
  1344.0148  5108.5664 5108566.5000    -999.25    10.2054     0.5553   133.1174   133.1174     0.0000    -999.25    99.2961     1.4065     1.4456     1.4899  1344.0148     0.5553     5.4573    -999.25    -999.25     0.0303     0.0303 16760.3887     2.2311     1.2995     1.2995     1.6886   -60.5795   309.9288     1.0000     1.0000 -1211.4240   150.0253    81.4610     0.0303     2.2311     0.0000
  1344.1672  5033.0098 5033009.5000    -999.25    10.2121     0.5579   134.4315   134.4315     0.0000    -999.25    99.8628     1.2740     1.3015     1.3354  1344.1671     0.5579     5.5013    -999.25    -999.25     0.0285     0.0285 16512.4980     2.2198     1.1648     1.1648     1.3568   -60.8574   309.6295     1.0000     1.0000 -1211.5636   150.0331    82.5300     0.0285     2.2198     0.0000
  1344.3196  4993.2578 4993258.0000    -999.25    10.2104     0.5464   135.8619   135.8619     0.0000    -999.25   100.2131     1.1907     1.2107     1.2376  1344.3196     0.5464     5.4054    -999.25    -999.25     0.0315     0.0315 16382.0801     2.2257     1.0794     1.0794     1.1651   -60.9938   309.1837     1.0000     1.0000 -1211.7031   150.0408    80.6830     0.0315     2.2257     0.0000
