~Version ---------------------------------------------------
VERS. 2.0 : CWLS log ASCII Standard -VERSION 2.0
WRAP.  NO : 
~Well ------------------------------------------------------
STRT.m                                                 1185.062 : 
STOP.m                                                1563.9284 : 
STEP.m                                                   0.1524 : 
NULL.                                                   -999.25 : 
COMP.                                                           : COMPANY
WELL.                                                    Well-8 : WELL
FLD .                                                           : FIELD
LOC .                                                           : LOCATION
SRVC.                                                           : SERVICE COMPANY
DATE. 2021-01-20 14:34:03   : Log Export Date {yyyy-MM-dd HH:mm : ss}
PROV.                                                           : PROVINCE
UWI .                                                    Well-8 : UNIQUE WELL ID
API .                                                           : API NUMBER
~Curve Information -----------------------------------------
DEPTH             .m        : DEPTH
ACOUSTICIMPEDANCE1.kPa.s/m  : ACOUSTICIMPEDANCE1
AI                .kPa.s/m  : AI
AVG_PIGN          .m3/m3    : AVG_PIGN
AZI1              .deg      : AZI1
CALI              .in       : CALI
CALI[DERIVED]1    .in       : CALI[DERIVED]1
DEVI              .deg      : DEVI
DFL               .ohm.m    : DFL
DT                .us/ft    : DT
FACIES            ._        : FACIES
FLD1              ._        : FLD1
GR                .gAPI     : GR
HDRS              .ohm.m    : HDRS
HMRS              .ohm.m    : HMRS
DEPTH_1           .m        : DEPTH_1
NPHI              .m3/m3    : NPHI
ONE-WAYTIME1      .ms       : ONE-WAYTIME1
PERF_INT          ._        : PERF_INT
PERMEABILITY      .mD       : PERMEABILITY
PIGN              .m3/m3    : PIGN
PIGN_MODELLING    .m3/m3    : PIGN_MODELLING
PIMP              .kPa.s/m  : PIMP
RHOB              .g/cm3    : RHOB
LLD               .ohm.m    : LLD
RT_MODELLING      .ohm.m    : RT_MODELLING
RT_POWER          .ohm.m    : RT_POWER
SUWI              ._        : SUWI
SUWI_MODELLING    ._        : SUWI_MODELLING
SXWI              ._        : SXWI
TDVSS             .m        : TDVSS
VCL               .%        : VCL
WATER_VOL         ._        : WATER_VOL
ZLT               ._        : ZLT
~Params ----------------------------------------------------
~Other -----------------------------------------------------
~ASCII -----------------------------------------------------
# ...
  1436.5220  5743.7100 5743710.0000    -999.25  -639.2500    12.9175    12.9175  -639.2500     4.2661   124.5376     0.0000    -999.25    81.1749     3.3681     3.4966  1436.5221     0.6716  -763.2803    -999.25     0.3790     0.0162     0.0162 18844.1934     2.3468     3.3626     3.3626    11.3069     1.0000     1.0000     1.0000 -1355.2120    90.4210     0.0162    16.0000
  1436.6744  5689.0903 5689090.0000    -999.25  -639.2500    13.0189    13.0189  -639.2500     4.1527   125.0266     0.0000    -999.25    80.2166     3.3178     3.4530  1436.6744     0.6475  -763.3661    -999.25     0.2785     0.0236     0.0236 18664.9941     2.3336     3.3137     3.3137    10.9809     1.0000     1.0000     1.0000 -1355.3644    85.8700     0.0236    16.0000
  1436.8268  5711.1577 5711158.0000    -999.25  -639.2500    13.0959    13.0959  -639.2500     4.1243   124.8973     0.0000    -999.25    77.0592     3.2809     3.4085  1436.8268     0.6241  -763.4520    -999.25     0.1648     0.0290     0.0290 18737.3945     2.3403     3.2785     3.2785    10.7488     1.0000     1.0000     1.0000 -1355.5168    82.5880     0.0290    16.0000
  1436.9792  5812.7217 5812721.5000    -999.25  -639.2500    13.1205    13.1205  -639.2500     4.1597   123.8487     0.0000    -999.25    73.8498     3.2587     3.3846  1436.9792     0.6062  -763.5378    -999.25     0.0779     0.0315     0.0315 19070.6094     2.3619     3.2556     3.2556    10.5987     1.0000     1.0000     1.0000 -1355.6692    81.0850     0.0315    16.0000
  1437.1316  5986.5332 5986533.5000    -999.25  -639.2500    13.1219    13.1219  -639.2500     4.0748   121.9713     0.0000    -999.25    72.2206     3.2298     3.3512  1437.1316     0.5959  -763.6237    -999.25     0.0294     0.0310     0.0310 19640.8574     2.3956     3.2270     3.2270    10.4133     1.0000     1.0000     1.0000 -1355.8217    81.4250     0.0310    16.0000
  1437.2840  6143.4629 6143463.0000    -999.25  -639.2500    13.1415    13.1415  -639.2500     3.8716   120.2830     0.0000    -999.25    72.1923     3.2024     3.2980  1437.2841     0.5895  -763.7095    -999.25     0.0085     0.0298     0.0298 20155.7188     2.4244     3.1979     3.1979    10.2269     1.0000     1.0000     1.0000 -1355.9740    82.0980     0.0298    16.0000
  1437.4364  6198.8452 6198845.0000    -999.25  -639.2500    13.1689    13.1689  -639.2500     3.7179   120.1091     0.0000    -999.25    73.6438     3.1575     3.2156  1437.4364     0.5850  -763.7953    -999.25     0.0028     0.0288     0.0288 20337.4180     2.4427     3.1461     3.1461     9.8979     1.0000     1.0000     1.0000 -1356.1265    82.7300     0.0288    16.0000
  1437.5888  6201.4312 6201431.0000    -999.25  -639.2500    13.1794    13.1794  -639.2500     3.6695   121.2922     0.0000    -999.25    76.1005     3.0511     3.0868  1437.5889     0.5859  -763.8812    -999.25     0.0013     0.0251     0.0251 20345.9023     2.4678     3.0380     3.0380     9.2294     1.0000     1.0000     1.0000 -1356.2788    84.7940     0.0251    16.0000
  1437.7412  6211.2793 6211279.0000    -999.25  -639.2500    13.1990    13.1990  -639.2500     3.4800   121.9199     0.0000    -999.25    77.7717     2.9332     2.9626  1437.7412     0.5949  -763.9670    -999.25     0.0028     0.0193     0.0193 20378.2129     2.4845     2.9271     2.9271     8.5677     1.0000     1.0000     1.0000 -1356.4313    87.5900     0.0193    16.0000
  1437.8936  6282.5117 6282512.0000    -999.25  -639.2500    13.2552    13.2552  -639.2500     3.3620   120.1072     0.0000    -999.25    76.7187     2.8809     2.9040  1437.8937     0.6060  -764.0528    -999.25     0.0089     0.0190     0.0190 20611.9160     2.4756     2.8843     2.8843     8.3191     1.0000     1.0000     1.0000 -1356.5836    88.5990     0.0190    16.0000
  1438.0460  6464.7827 6464782.5000    -999.25  -639.2500    13.2944    13.2944  -639.2500     3.4282   116.2343     0.0000    -999.25    73.7407     2.9162     2.9436  1438.0460     0.6096  -764.1387    -999.25     0.0130     0.0197     0.0197 21209.9160     2.4653     2.9277     2.9277     8.5713     1.0000     1.0000     1.0000 -1356.7361    88.1970     0.0197    16.0000
  1438.1984  6575.7212 6575721.5000    -999.25  -639.2500    13.2461    13.2461  -639.2500     3.5831   113.5947     0.0000    -999.25    71.8049     3.0227     3.0741  1438.1985     0.6029  -764.2245    -999.25     0.0112     0.0238     0.0238 21573.8887     2.4507     3.0352     3.0352     9.2123     1.0000     1.0000     1.0000 -1356.8884    85.7360     0.0238    16.0000
  1438.3508  6474.4814 6474481.5000    -999.25  -639.2500    13.1141    13.1141  -639.2500     3.7829   114.2736     0.0000    -999.25    71.5395     3.1335     3.2248  1438.3508     0.5883  -764.3103    -999.25     0.0068     0.0305     0.0305 21241.7383     2.4274     3.1363     3.1363     9.8367     1.0000     1.0000     1.0000 -1357.0409    81.7020     0.0305    16.0000
  1438.5032  6271.8486 6271849.0000    -999.25  -639.2500    12.9822    12.9822  -639.2500     3.8424   117.3309     0.0000    -999.25    72.5090     3.1537     3.2698  1438.5032     0.5703  -764.3962    -999.25     0.0008     0.0366     0.0366 20576.9316     2.4143     3.1438     3.1438     9.8834     1.0000     1.0000     1.0000 -1357.1932    78.0430     0.0366    16.0000
  1438.6556  6111.5718 6111571.5000    -999.25  -639.2500    12.9571    12.9571  -639.2500     3.7668   119.9780     0.0000    -999.25    74.9285     3.0619     3.1653  1438.6556     0.5554  -764.4820    -999.25     0.0001     0.0409     0.0409 20051.0879     2.4057     3.0513     3.0513     9.3106     1.0000     1.0000     1.0000 -1357.3456    75.4730     0.0409    16.0000
  1438.8080  6072.7168 6072717.0000    -999.25  -639.2500    13.0324    13.0324  -639.2500     3.6412   120.5203     0.0000    -999.25    76.2455     2.9711     3.0454  1438.8080     0.5489  -764.5678    -999.25     0.0007     0.0423     0.0423 19923.6113     2.4012     2.9746     2.9746     8.8481     1.0000     1.0000     1.0000 -1357.4980    74.6250     0.0423    16.0000
  1438.9604  6148.9092 6148909.0000    -999.25  -639.2500    13.0974    13.0974  -639.2500     3.5585   119.7928     0.0000    -999.25    76.2672     3.0102     3.0517  1438.9604     0.5521  -764.6537    -999.25     0.0009     0.0396     0.0396 20173.5859     2.4166     3.0272     3.0272     9.1638     1.0000     1.0000     1.0000 -1357.6504    76.2150     0.0396    16.0000
  1439.1128  6269.8945 6269894.5000    -999.25  -639.2500    13.1043    13.1043  -639.2500     3.6428   118.8920     0.0000    -999.25    77.7254     3.1657     3.1689  1439.1128     0.5646  -764.7395    -999.25     0.0000     0.0336     0.0336 20570.5195     2.4457     3.1801     3.1801    10.1128     1.0000     1.0000     1.0000 -1357.8029    79.8400     0.0336    16.0000
  1439.2652  6330.3774 6330377.5000    -999.25  -639.2500    13.1208    13.1208  -639.2500     3.8653   118.3555     0.0000    -999.25    79.9694     3.2899     3.2652  1439.2653     0.5849  -764.8253    -999.25     0.0032     0.0272     0.0272 20768.9551     2.4581     3.2872     3.2872    10.8054     1.0000     1.0000     1.0000 -1357.9552    83.6680     0.0272    16.0000
  1439.4176  6268.8545 6268854.5000    -999.25  -639.2500    13.1837    13.1837  -639.2500     4.0475   118.8767     0.0000    -999.25    81.1920     3.2607     3.2405  1439.4176     0.6036  -764.9112    -999.25     0.0100     0.0222     0.0222 20567.1074     2.4449     3.2506     3.2506    10.5664     1.0000     1.0000     1.0000 -1358.1077    86.0140     0.0222    16.0000
  1439.5700  6097.4854 6097485.5000    -999.25  -639.2500    13.2176    13.2176  -639.2500     3.9411   120.8046     0.0000    -999.25    81.3961     3.1720     3.1771  1439.5701     0.6091  -764.9970    -999.25     0.0036     0.0126     0.0126 20004.8730     2.4167     3.1717     3.1717    10.0596     1.0000     1.0000     1.0000 -1358.2600    86.6170     0.0126    16.0000
  1439.7224  5901.8022 5901802.5000    -999.25  -639.2500    13.1383    13.1383  -639.2500     3.7282   123.2106     0.0000    -999.25    80.5727     3.1761     3.2077  1439.7224     0.5993  -765.0828    -999.25     0.0034     0.0001     0.0100 19362.8691     2.3857     3.1891     3.1891    10.1705     1.0000     1.0000     1.0000 -1358.4125    84.0360     0.0001    16.0000
