~Version ---------------------------------------------------
VERS. 2.0 : CWLS log ASCII Standard -VERSION 2.0
WRAP.  NO : 
~Well ------------------------------------------------------
STRT.m                                                 1185.062 : 
STOP.m                                                1563.9284 : 
STEP.m                                                   0.1524 : 
NULL.                                                   -999.25 : 
COMP.                                                           : COMPANY
WELL.                                                    Well-8 : WELL
FLD .                                                           : FIELD
LOC .                                                           : LOCATION
SRVC.                                                           : SERVICE COMPANY
DATE. 2021-01-20 14:34:03   : Log Export Date {yyyy-MM-dd HH:mm : ss}
PROV.                                                           : PROVINCE
UWI .                                                    Well-8 : UNIQUE WELL ID
API .                                                           : API NUMBER
~Curve Information -----------------------------------------
DEPTH             .m        : DEPTH
ACOUSTICIMPEDANCE1.kPa.s/m  : ACOUSTICIMPEDANCE1
AI                .kPa.s/m  : AI
AVG_PIGN          .m3/m3    : AVG_PIGN
AZI1              .deg      : AZI1
CALI              .in       : CALI
CALI[DERIVED]1    .in       : CALI[DERIVED]1
DEVI              .deg      : DEVI
DFL               .ohm.m    : DFL
DT                .us/ft    : DT
FACIES            ._        : FACIES
FLD1              ._        : FLD1
GR                .gAPI     : GR
HDRS              .ohm.m    : HDRS
HMRS              .ohm.m    : HMRS
DEPTH_1           .m        : DEPTH_1
NPHI              .m3/m3    : NPHI
ONE-WAYTIME1      .ms       : ONE-WAYTIME1
PERF_INT          ._        : PERF_INT
PERMEABILITY      .mD       : PERMEABILITY
PIGN              .m3/m3    : PIGN
PIGN_MODELLING    .m3/m3    : PIGN_MODELLING
PIMP              .kPa.s/m  : PIMP
RHOB              .g/cm3    : RHOB
LLD               .ohm.m    : LLD
RT_MODELLING      .ohm.m    : RT_MODELLING
RT_POWER          .ohm.m    : RT_POWER
SUWI              ._        : SUWI
SUWI_MODELLING    ._        : SUWI_MODELLING
SXWI              ._        : SXWI
TDVSS             .m        : TDVSS
VCL               .%        : VCL
WATER_VOL         ._        : WATER_VOL
ZLT               ._        : ZLT
~Params ----------------------------------------------------
~Other -----------------------------------------------------
~ASCII -----------------------------------------------------
# ...
  1285.6460  4605.7036 4605703.5000    -999.25  -639.2500    13.3246    13.3246  -639.2500     1.0707   148.9288     0.0000    -999.25    44.1143     1.0155     1.0125  1285.6460     0.6175  -678.3042    -999.25    -999.25     0.0294     0.0294 15110.5762     2.2504     1.0131     1.0131     1.0263     1.0000     1.0000     1.0000 -1204.3361    82.3360     0.0294    -999.25
  1285.7984  4550.7788 4550778.5000    -999.25  -639.2500    13.2729    13.2729  -639.2500     1.0965   150.5977     0.0000    -999.25    43.8652     0.9928     0.9972  1285.7985     0.5949  -678.3900    -999.25    -999.25     0.0359     0.0359 14930.3760     2.2485     0.9897     0.9897     0.9794     1.0000     1.0000     1.0000 -1204.4884    78.4450     0.0359    -999.25
  1285.9508  4499.3662 4499366.0000    -999.25  -639.2500    13.2502    13.2502  -639.2500     1.1120   152.1756     0.0000    -999.25    43.6848     0.9644     0.9697  1285.9508     0.5715  -678.4758    -999.25    -999.25     0.0426     0.0426 14761.7002     2.2464     0.9624     0.9624     0.9263     1.0000     1.0000     1.0000 -1204.6409    74.4380     0.0426    -999.25
  1286.1032  4483.1328 4483132.5000    -999.25  -639.2500    13.2433    13.2433  -639.2500     1.1038   152.6688     0.0000    -999.25    43.4817     0.9466     0.9478  1286.1033     0.5496  -678.5617    -999.25    -999.25     0.0486     0.0486 14708.4404     2.2455     0.9457     0.9457     0.8944     1.0000     1.0000     1.0000 -1204.7932    70.8600     0.0486    -999.25
  1286.2556  4485.9165 4485916.5000    -999.25  -639.2500    13.2306    13.2306  -639.2500     1.1003   152.2221     0.0000    -999.25    44.4784     0.9379     0.9342  1286.2556     0.5362  -678.6475    -999.25    -999.25     0.0520     0.0520 14717.5742     2.2403     0.9364     0.9364     0.8769     1.0000     1.0000     1.0000 -1204.9457    68.7780     0.0520    -999.25
  1286.4080  4485.9888 4485988.5000    -999.25  -639.2500    13.2139    13.2139  -639.2500     1.0769   151.6842     0.0000    -999.25    45.8387     0.9241     0.9194  1286.4081     0.5334  -678.7333    -999.25    -999.25     0.0527     0.0527 14717.8105     2.2325     0.9217     0.9217     0.8496     1.0000     1.0000     1.0000 -1205.0980    68.3580     0.0527    -999.25
  1286.5604  4496.2974 4496297.5000    -999.25  -639.2500    13.2053    13.2053  -639.2500     1.0587   151.3168     0.0000    -999.25    45.9675     0.9026     0.9018  1286.5604     0.5352  -678.8192    -999.25    -999.25     0.0520     0.0520 14751.6328     2.2322     0.9008     0.9008     0.8115     1.0000     1.0000     1.0000 -1205.2505    68.5830     0.0520    -999.25
  1286.7128  4528.3848 4528384.5000    -999.25  -639.2500    13.2197    13.2197  -639.2500     1.0248   150.8383     0.0000    -999.25    45.3801     0.8873     0.8899  1286.7129     0.5317  -678.9050    -999.25    -999.25     0.0491     0.0491 14856.9053     2.2410     0.8874     0.8874     0.7874     1.0000     1.0000     1.0000 -1205.4028    68.3230     0.0491    -999.25
  1286.8652  4579.7280 4579728.0000    -999.25  -639.2500    13.2585    13.2585  -639.2500     1.0216   150.1123     0.0000    -999.25    44.2319     0.8895     0.8933  1286.8652     0.5176  -678.9908    -999.25    -999.25     0.0418     0.0418 15025.3545     2.2555     0.8919     0.8919     0.7954     1.0000     1.0000     1.0000 -1205.5552    67.3320     0.0418    -999.25
  1287.0176  4640.1313 4640131.0000    -999.25  -639.2500    13.3081    13.3081  -639.2500     1.0410   149.3149     0.0000    -999.25    43.0170     0.9123     0.9122  1287.0176     0.4988  -679.0767    -999.25    -999.25     0.0350     0.0350 15223.5273     2.2731     0.9165     0.9165     0.8400     1.0000     1.0000     1.0000 -1205.7076    65.9220     0.0350    -999.25
  1287.1700  4677.1318 4677131.5000    -999.25  -639.2500    13.3550    13.3550  -639.2500     1.0982   148.7834     0.0000    -999.25    42.4522     0.9509     0.9397  1287.1700     0.4907  -679.1625    -999.25    -999.25     0.0332     0.0332 15344.9199     2.2831     0.9533     0.9533     0.9088     1.0000     1.0000     1.0000 -1205.8600    65.4460     0.0332    -999.25
  1287.3224  4671.2593 4671259.0000    -999.25  -639.2500    13.3970    13.3970  -639.2500     1.1667   148.6645     0.0000    -999.25    42.2149     0.9710     0.9548  1287.3224     0.5011  -679.2484    -999.25    -999.25     0.0379     0.0379 15325.6533     2.2784     0.9686     0.9686     0.9383     1.0000     1.0000     1.0000 -1206.0125    66.4290     0.0379    -999.25
  1287.4748  4634.2900 4634290.0000    -999.25  -639.2500    13.4149    13.4149  -639.2500     1.1836   148.8665     0.0000    -999.25    42.9069     0.9478     0.9414  1287.4749     0.5236  -679.3342    -999.25    -999.25     0.0427     0.0427 15204.3633     2.2634     0.9427     0.9427     0.8888     1.0000     1.0000     1.0000 -1206.1648    68.7020     0.0427    -999.25
  1287.6272  4591.3203 4591320.0000    -999.25  -639.2500    13.4038    13.4038  -639.2500     1.1310   149.2393     0.0000    -999.25    44.8479     0.9011     0.9093  1287.6272     0.5445  -679.4200    -999.25    -999.25     0.0429     0.0429 15063.3867     2.2480     0.8965     0.8965     0.8038     1.0000     1.0000     1.0000 -1206.3173    71.1420     0.0429    -999.25
  1287.7796  4569.4482 4569448.0000    -999.25  -639.2500    13.3939    13.3939  -639.2500     1.0494   149.5715     0.0000    -999.25    46.4062     0.8596     0.8756  1287.7797     0.5507  -679.5059    -999.25    -999.25     0.0382     0.0382 14991.6279     2.2423     0.8571     0.8571     0.7345     1.0000     1.0000     1.0000 -1206.4696    72.2760     0.0382    -999.25
  1287.9320  4576.0156 4576015.5000    -999.25  -639.2500    13.4031    13.4031  -639.2500     1.0052   149.7638     0.0000    -999.25    47.1325     0.8368     0.8511  1287.9320     0.5431  -679.5917    -999.25    -999.25     0.0303     0.0303 15013.1748     2.2484     0.8359     0.8359     0.6987     1.0000     1.0000     1.0000 -1206.6221    72.2470     0.0303    -999.25
  1288.0844  4594.9365 4594936.5000    -999.25  -639.2500    13.4214    13.4214  -639.2500     0.9824   149.9000     0.0000    -999.25    47.9010     0.8285     0.8380  1288.0845     0.5336  -679.6776    -999.25    -999.25     0.0256     0.0256 15075.2500     2.2598     0.8284     0.8284     0.6862     1.0000     1.0000     1.0000 -1206.7744    71.8650     0.0256    -999.25
  1288.2368  4611.9346 4611934.5000    -999.25  -639.2500    13.4308    13.4308  -639.2500     0.9625   150.0269     0.0000    -999.25    47.3820     0.8273     0.8350  1288.2368     0.5312  -679.7634    -999.25    -999.25     0.0255     0.0255 15131.0186     2.2701     0.8277     0.8277     0.6851     1.0000     1.0000     1.0000 -1206.9269    71.9270     0.0255    -999.25
  1288.3892  4628.4595 4628459.5000    -999.25  -639.2500    13.4168    13.4168  -639.2500     0.9538   149.9101     0.0000    -999.25    44.8082     0.8315     0.8405  1288.3893     0.5402  -679.8492    -999.25    -999.25     0.0245     0.0245 15185.2344     2.2764     0.8327     0.8327     0.6934     1.0000     1.0000     1.0000 -1207.0792    73.0780     0.0245    -999.25
  1288.5416  4656.5049 4656504.5000    -999.25  -639.2500    13.3811    13.3811  -639.2500     0.9663   149.2769     0.0000    -999.25    42.1389     0.8433     0.8547  1288.5416     0.5578  -679.9351    -999.25    -999.25     0.0222     0.0222 15277.2461     2.2805     0.8457     0.8457     0.7152     1.0000     1.0000     1.0000 -1207.2317    75.5850     0.0222    -999.25
  1288.6940  4706.5103 4706510.5000    -999.25  -639.2500    13.3381    13.3381  -639.2500     0.9931   148.0820     0.0000    -999.25    40.5899     0.8661     0.8777  1288.6941     0.5739  -680.0209    -999.25    -999.25     0.0201     0.0201 15441.3066     2.2866     0.8700     0.8700     0.7568     1.0000     1.0000     1.0000 -1207.3840    77.9250     0.0201    -999.25
  1288.8464  4772.1377 4772137.5000    -999.25  -639.2500    13.3008    13.3008  -639.2500     1.0338   146.3407     0.0000    -999.25    40.5996     0.9025     0.9110  1288.8464     0.5813  -680.1067    -999.25    -999.25     0.0191     0.0191 15656.6191     2.2912     0.9074     0.9074     0.8233     1.0000     1.0000     1.0000 -1207.5364    78.9710     0.0191    -999.25
