~Version ---------------------------------------------------
VERS. 2.0 : CWLS log ASCII Standard -VERSION 2.0
WRAP.  NO : 
~Well ------------------------------------------------------
STRT.m                                                 1185.062 : 
STOP.m                                                1563.9284 : 
STEP.m                                                   0.1524 : 
NULL.                                                   -999.25 : 
COMP.                                                           : COMPANY
WELL.                                                    Well-8 : WELL
FLD .                                                           : FIELD
LOC .                                                           : LOCATION
SRVC.                                                           : SERVICE COMPANY
DATE. 2021-01-20 14:34:03   : Log Export Date {yyyy-MM-dd HH:mm : ss}
PROV.                                                           : PROVINCE
UWI .                                                    Well-8 : UNIQUE WELL ID
API .                                                           : API NUMBER
~Curve Information -----------------------------------------
DEPTH             .m        : DEPTH
ACOUSTICIMPEDANCE1.kPa.s/m  : ACOUSTICIMPEDANCE1
AI                .kPa.s/m  : AI
AVG_PIGN          .m3/m3    : AVG_PIGN
AZI1              .deg      : AZI1
CALI              .in       : CALI
CALI[DERIVED]1    .in       : CALI[DERIVED]1
DEVI              .deg      : DEVI
DFL               .ohm.m    : DFL
DT                .us/ft    : DT
FACIES            ._        : FACIES
FLD1              ._        : FLD1
GR                .gAPI     : GR
HDRS              .ohm.m    : HDRS
HMRS              .ohm.m    : HMRS
DEPTH_1           .m        : DEPTH_1
NPHI              .m3/m3    : NPHI
ONE-WAYTIME1      .ms       : ONE-WAYTIME1
PERF_INT          ._        : PERF_INT
PERMEABILITY      .mD       : PERMEABILITY
PIGN              .m3/m3    : PIGN
PIGN_MODELLING    .m3/m3    : PIGN_MODELLING
PIMP              .kPa.s/m  : PIMP
RHOB              .g/cm3    : RHOB
LLD               .ohm.m    : LLD
RT_MODELLING      .ohm.m    : RT_MODELLING
RT_POWER          .ohm.m    : RT_POWER
SUWI              ._        : SUWI
SUWI_MODELLING    ._        : SUWI_MODELLING
SXWI              ._        : SXWI
TDVSS             .m        : TDVSS
VCL               .%        : VCL
WATER_VOL         ._        : WATER_VOL
ZLT               ._        : ZLT
~Params ----------------------------------------------------
~Other -----------------------------------------------------
~ASCII -----------------------------------------------------
# ...
  1537.1060  5344.3081 5344308.0000    -999.25  -639.2500    13.0499    13.0499  -639.2500     2.8752   126.1260     0.0000    -999.25    62.8540     2.3416     2.3309  1537.1061     0.5891  -819.9311    -999.25     0.0572     0.0351     0.0351 17533.8184     2.2115     2.3281     2.3281     5.4200     1.0000     1.0000     1.0000 -1455.7960    78.9510     0.0351    25.0000
  1537.2584  5239.6514 5239651.5000    -999.25  -639.2500    13.0059    13.0059  -639.2500     2.8335   127.8517     0.0000    -999.25    62.0990     2.2152     2.2065  1537.2584     0.6089  -820.0169    -999.25     0.0574     0.0304     0.0304 17190.4570     2.1978     2.1992     2.1992     4.8363     1.0000     1.0000     1.0000 -1455.9485    81.7360     0.0304    25.0000
  1537.4108  5117.8813 5117881.5000    -999.25  -639.2500    13.2087    13.2087  -639.2500     2.6602   129.6460     0.0000    -999.25    61.3015     2.0726     2.0561  1537.4109     0.6266  -820.1027    -999.25     0.0576     0.0266     0.0266 16790.9492     2.1769     2.0674     2.0674     4.2741     1.0000     1.0000     1.0000 -1456.1008    84.0330     0.0266    25.0000
  1537.5632  5063.3281 5063328.0000    -999.25  -639.2500    13.4813    13.4813  -639.2500     2.4737   130.2447     0.0000    -999.25    59.7720     2.0278     2.0129  1537.5632     0.6290  -820.1886    -999.25     0.0578     0.0267     0.0267 16611.9688     2.1636     2.0299     2.0299     4.1203     1.0000     1.0000     1.0000 -1456.2532    83.9890     0.0267    25.0000
  1537.7156  5147.5659 5147566.0000    -999.25  -639.2500    13.5560    13.5560  -639.2500     2.4190   128.9256     0.0000    -999.25    58.6258     2.0466     2.0423  1537.7156     0.6160  -820.2744    -999.25     0.0580     0.0302     0.0302 16888.3398     2.1773     2.0487     2.0487     4.1970     1.0000     1.0000     1.0000 -1456.4056    81.8620     0.0302    25.0000
  1537.8680  5315.0508 5315050.5000    -999.25  -639.2500    13.4922    13.4922  -639.2500     2.4838   126.3770     0.0000    -999.25    57.4582     2.0675     2.0752  1537.8680     0.6010  -820.3602    -999.25     0.0582     0.0343     0.0343 17437.8301     2.2037     2.0727     2.0727     4.2960     1.0000     1.0000     1.0000 -1456.5580    79.4280     0.0343    25.0000
  1538.0204  5557.4937 5557493.5000    -999.25  -639.2500    13.4797    13.4797  -639.2500     2.5006   122.5651     0.0000    -999.25    54.1817     2.1251     2.1377  1538.0204     0.5885  -820.4461    -999.25     0.0584     0.0384     0.0384 18233.2461     2.2348     2.1496     2.1496     4.6207     1.0000     1.0000     1.0000 -1456.7104    76.9660     0.0384    25.0000
  1538.1728  5953.0864 5953086.5000    -999.25  -639.2500    13.4862    13.4862  -639.2500     2.6542   117.2697     0.0000    -999.25    50.2847     2.3651     2.3644  1538.1729     0.5719  -820.5319    -999.25     0.0586     0.0435     0.0435 19531.1230     2.2904     2.4157     2.4157     5.8357     1.0000     1.0000     1.0000 -1456.8628    73.8680     0.0435    25.0000
  1538.3252  6454.6689 6454669.0000    -999.25  -639.2500    13.4542    13.4542  -639.2500     3.2334   112.2453     0.0000    -999.25    48.3896     2.8219     2.7579  1538.3252     0.5484  -820.6177    -999.25     0.0588     0.0466     0.0466 21176.7363     2.3770     2.8495     2.8495     8.1198     1.0000     1.0000     1.0000 -1457.0153    72.0320     0.0466    25.0000
  1538.4776  6750.8906 6750890.5000    -999.25  -639.2500    13.3364    13.3364  -639.2500     4.2602   110.5068     0.0000    -999.25    48.5270     3.0382     2.9265  1538.4777     0.5285  -820.7036    -999.25     0.0589     0.0377     0.0377 22148.5918     2.4476     2.9883     2.9883     8.9302     1.0000     1.0000     1.0000 -1457.1676    77.3830     0.0377    25.0000
  1538.6300  6549.7437 6549743.5000    -999.25  -639.2500    13.1551    13.1551  -639.2500     4.2438   114.0932     0.0000    -999.25    49.9439     2.5713     2.5275  1538.6300     0.5241  -820.7894    -999.25     0.0591     0.0380     0.0380 21488.6602     2.4517     2.5110     2.5110     6.3049     1.0000     1.0000     1.0000 -1457.3201    77.2100     0.0380    25.0000
  1538.7824  5927.5659 5927566.0000    -999.25  -639.2500    13.1472    13.1472  -639.2500     2.9539   122.2040     0.0000    -999.25    52.6266     2.0285     2.0285  1538.7825     0.5423  -820.8752    -999.25     0.0593     0.0451     0.0451 19447.3945     2.3765     1.9996     1.9996     3.9982     1.0000     1.0000     1.0000 -1457.4724    72.9430     0.0451    25.0000
  1538.9348  5254.9995 5254999.5000    -999.25  -639.2500    13.3405    13.3405  -639.2500     2.1902   130.8546     0.0000    -999.25    55.0122     1.7718     1.7664  1538.9348     0.5781  -820.9611    -999.25     0.0595     0.0393     0.0393 17240.8125     2.2560     1.7645     1.7645     3.1133     1.0000     1.0000     1.0000 -1457.6249    76.4490     0.0393    25.0000
  1539.0872  4878.5078 4878507.5000    -999.25  -639.2500    13.4951    13.4951  -639.2500     1.9711   135.7581     0.0000    -999.25    55.6231     1.7101     1.6997  1539.0873     0.6140  -821.0469    -999.25     0.0597     0.0305     0.0305 16005.6025     2.1729     1.7156     1.7156     2.9435     1.0000     1.0000     1.0000 -1457.7772    81.6880     0.0305    25.0000
  1539.2396  4796.5322 4796532.0000    -999.25  -639.2500    13.4811    13.4811  -639.2500     1.9779   136.4693     0.0000    -999.25    55.9241     1.7651     1.7513  1539.2396     0.6332  -821.1328    -999.25     0.0599     0.0264     0.0264 15736.6543     2.1476     1.7780     1.7780     3.1614     1.0000     1.0000     1.0000 -1457.9297    84.1840     0.0264    26.0000
  1539.3920  4877.3481 4877348.0000    -999.25  -639.2500    13.3394    13.3394  -639.2500     2.0710   134.9686     0.0000    -999.25    56.2395     1.8840     1.8528  1539.3921     0.6283  -821.2186    -999.25     0.0601     0.0280     0.0280 16001.7979     2.1597     1.8955     1.8955     3.5928     1.0000     1.0000     1.0000 -1458.0820    83.1840     0.0280    26.0000
  1539.5444  5049.8286 5049828.5000    -999.25  -639.2500    13.2167    13.2167  -639.2500     2.2189   132.9154     0.0000    -999.25    54.9440     1.9861     1.9317  1539.5444     0.6094  -821.3044    -999.25     0.0603     0.0330     0.0330 16567.6797     2.2021     1.9901     1.9901     3.9607     1.0000     1.0000     1.0000 -1458.2344    80.2070     0.0330    26.0000
  1539.6968  5195.0781 5195078.5000    -999.25  -639.2500    13.1803    13.1803  -639.2500     2.3707   131.5789     0.0000    -999.25    53.6436     2.0200     1.9534  1539.6968     0.5954  -821.3903    -999.25     0.0605     0.0364     0.0364 17044.2207     2.2427     2.0177     2.0177     4.0710     1.0000     1.0000     1.0000 -1458.3868    78.1410     0.0364    26.0000
  1539.8492  5245.1543 5245154.5000    -999.25  -639.2500    13.1801    13.1801  -639.2500     2.4377   131.4030     0.0000    -999.25    54.3878     1.9995     1.9387  1539.8492     0.5934  -821.4761    -999.25     0.0607     0.0366     0.0366 17208.5117     2.2613     1.9994     1.9994     3.9976     1.0000     1.0000     1.0000 -1458.5392    78.0120     0.0366    26.0000
  1540.0016  5256.4360 5256436.0000    -999.25  -639.2500    13.1675    13.1675  -639.2500     2.3531   131.5936     0.0000    -999.25    56.0002     2.0048     1.9509  1540.0016     0.5943  -821.5620    -999.25     0.0609     0.0362     0.0362 17245.5254     2.2694     2.0163     2.0163     4.0655     1.0000     1.0000     1.0000 -1458.6916    78.2900     0.0362    26.0000
  1540.1540  5298.6528 5298653.0000    -999.25  -639.2500    13.1626    13.1626  -639.2500     2.3212   131.0668     0.0000    -999.25    57.3620     2.1170     2.0503  1540.1541     0.5853  -821.6478    -999.25     0.0610     0.0377     0.0377 17384.0312     2.2785     2.1394     2.1394     4.5769     1.0000     1.0000     1.0000 -1458.8440    77.3490     0.0377    26.0000
  1540.3064  5364.3101 5364310.0000    -999.25  -639.2500    13.1839    13.1839  -639.2500     2.4517   130.0155     0.0000    -999.25    57.8291     2.3237     2.2275  1540.3064     0.5668  -821.7336    -999.25     0.0612     0.0421     0.0421 17599.4434     2.2882     2.3451     2.3451     5.4997     1.0000     1.0000     1.0000 -1458.9965    74.7080     0.0421    26.0000
