~Version ---------------------------------------------------
VERS. 2.0 : CWLS log ASCII Standard -VERSION 2.0
WRAP.  NO : 
~Well ------------------------------------------------------
STRT.m                                                 1185.062 : 
STOP.m                                                1563.9284 : 
STEP.m                                                   0.1524 : 
NULL.                                                   -999.25 : 
COMP.                                                           : COMPANY
WELL.                                                    Well-8 : WELL
FLD .                                                           : FIELD
LOC .                                                           : LOCATION
SRVC.                                                           : SERVICE COMPANY
DATE. 2021-01-20 14:34:03   : Log Export Date {yyyy-MM-dd HH:mm : ss}
PROV.                                                           : PROVINCE
UWI .                                                    Well-8 : UNIQUE WELL ID
API .                                                           : API NUMBER
~Curve Information -----------------------------------------
DEPTH             .m        : DEPTH
ACOUSTICIMPEDANCE1.kPa.s/m  : ACOUSTICIMPEDANCE1
AI                .kPa.s/m  : AI
AVG_PIGN          .m3/m3    : AVG_PIGN
AZI1              .deg      : AZI1
CALI              .in       : CALI
CALI[DERIVED]1    .in       : CALI[DERIVED]1
DEVI              .deg      : DEVI
DFL               .ohm.m    : DFL
DT                .us/ft    : DT
FACIES            ._        : FACIES
FLD1              ._        : FLD1
GR                .gAPI     : GR
HDRS              .ohm.m    : HDRS
HMRS              .ohm.m    : HMRS
DEPTH_1           .m        : DEPTH_1
NPHI              .m3/m3    : NPHI
ONE-WAYTIME1      .ms       : ONE-WAYTIME1
PERF_INT          ._        : PERF_INT
PERMEABILITY      .mD       : PERMEABILITY
PIGN              .m3/m3    : PIGN
PIGN_MODELLING    .m3/m3    : PIGN_MODELLING
PIMP              .kPa.s/m  : PIMP
RHOB              .g/cm3    : RHOB
LLD               .ohm.m    : LLD
RT_MODELLING      .ohm.m    : RT_MODELLING
RT_POWER          .ohm.m    : RT_POWER
SUWI              ._        : SUWI
SUWI_MODELLING    ._        : SUWI_MODELLING
SXWI              ._        : SXWI
TDVSS             .m        : TDVSS
VCL               .%        : VCL
WATER_VOL         ._        : WATER_VOL
ZLT               ._        : ZLT
~Params ----------------------------------------------------
~Other -----------------------------------------------------
~ASCII -----------------------------------------------------
  1185.0620  4571.8472 4571847.0000    -999.25  -639.2500    14.1580    14.1580  -639.2500     1.3846   147.5336    -999.25    -999.25    46.3028     1.2806     1.2872  1185.0620     0.6442  -621.6534    -999.25    -999.25     0.0212     0.0212 14999.4980     2.2129     1.2828     1.2828     1.6456     1.0000     1.0000     1.0000 -1103.7521    87.3040     0.0212    -999.25
  1185.2144  4568.8950 4568895.0000    -999.25  -639.2500    14.0581    14.0581  -639.2500     1.4195   147.5495    -999.25    -999.25    44.7025     1.3014     1.3047  1185.2145     0.6301  -621.7393    -999.25    -999.25     0.0254     0.0254 14989.8125     2.2117     1.3035     1.3035     1.6992     1.0000     1.0000     1.0000 -1103.9044    84.7350     0.0254    -999.25
  1185.3668  4614.3896 4614389.5000    -999.25  -639.2500    13.9722    13.9722  -639.2500     1.4543   146.1384     0.0000    -999.25    43.2761     1.3209     1.3232  1185.3668     0.6078  -621.8251    -999.25    -999.25     0.0317     0.0317 15139.0732     2.2124     1.3224     1.3224     1.7487     1.0000     1.0000     1.0000 -1104.0569    80.9900     0.0317    -999.25
  1185.5192  4649.6060 4649606.0000    -999.25  -639.2500    13.9569    13.9569  -639.2500     1.4596   144.9254     0.0000    -999.25    43.0454     1.3347     1.3371  1185.5193     0.5869  -621.9109    -999.25    -999.25     0.0372     0.0372 15254.6123     2.2108     1.3359     1.3359     1.7846     1.0000     1.0000     1.0000 -1104.2092    77.6570     0.0372    -999.25
  1185.6716  4644.2466 4644246.5000    -999.25  -639.2500    13.9893    13.9893  -639.2500     1.4666   145.2015     0.0000    -999.25    44.7305     1.3457     1.3500  1185.6716     0.5761  -621.9968    -999.25    -999.25     0.0398     0.0398 15237.0283     2.2124     1.3468     1.3468     1.8137     1.0000     1.0000     1.0000 -1104.3617    76.1440     0.0398    -999.25
  1185.8240  4616.7476 4616747.5000    -999.25  -639.2500    14.0092    14.0092  -639.2500     1.4837   146.3417     0.0000    -999.25    47.1077     1.3557     1.3636  1185.8240     0.5777  -622.0826    -999.25    -999.25     0.0387     0.0387 15146.8096     2.2166     1.3568     1.3568     1.8409     1.0000     1.0000     1.0000 -1104.5140    76.7590     0.0387    -999.25
  1185.9764  4585.4087 4585408.5000    -999.25  -639.2500    13.9975    13.9975  -639.2500     1.4914   147.4722     0.0000    -999.25    48.4920     1.3654     1.3762  1185.9764     0.5916  -622.1684    -999.25    -999.25     0.0345     0.0345 15043.9912     2.2186     1.3665     1.3665     1.8673     1.0000     1.0000     1.0000 -1104.6664    79.2740     0.0345    -999.25
  1186.1288  4563.5439 4563544.0000    -999.25  -639.2500    14.0168    14.0168  -639.2500     1.5024   148.2495     0.0000    -999.25    48.6375     1.3752     1.3864  1186.1288     0.6114  -622.2543    -999.25    -999.25     0.0291     0.0291 14972.2568     2.2196     1.3763     1.3763     1.8942     1.0000     1.0000     1.0000 -1104.8188    82.5140     0.0291    -999.25
  1186.2812  4559.9766 4559976.5000    -999.25  -639.2500    14.0655    14.0655  -639.2500     1.5028   148.2766     0.0000    -999.25    47.4853     1.3851     1.3945  1186.2812     0.6249  -622.3401    -999.25    -999.25     0.0257     0.0257 14960.5527     2.2183     1.3864     1.3864     1.9222     1.0000     1.0000     1.0000 -1104.9712    84.5530     0.0257    -999.25
  1186.4336  4567.3843 4567384.0000    -999.25  -639.2500    14.0688    14.0688  -639.2500     1.5142   147.7925     0.0000    -999.25    45.4697     1.3971     1.4029  1186.4336     0.6274  -622.4259    -999.25    -999.25     0.0254     0.0254 14984.8555     2.2146     1.3986     1.3986     1.9560     1.0000     1.0000     1.0000 -1105.1237    84.7560     0.0254    -999.25
  1186.5860  4566.0859 4566086.0000    -999.25  -639.2500    14.0094    14.0094  -639.2500     1.5185   147.6597     0.0000    -999.25    44.6015     1.4109     1.4131  1186.5861     0.6214  -622.5118    -999.25    -999.25     0.0271     0.0271 14980.5967     2.2120     1.4121     1.4121     1.9941     1.0000     1.0000     1.0000 -1105.2760    83.7210     0.0271    -999.25
  1186.7384  4551.9580 4551958.0000    -999.25  -639.2500    13.9665    13.9665  -639.2500     1.5174   148.1662     0.0000    -999.25    45.5546     1.4224     1.4238  1186.7384     0.6150  -622.5976    -999.25    -999.25     0.0286     0.0286 14934.2461     2.2127     1.4231     1.4231     2.0251     1.0000     1.0000     1.0000 -1105.4285    82.8480     0.0286    -999.25
  1186.8908  4537.9336 4537933.5000    -999.25  -639.2500    13.9839    13.9839  -639.2500     1.5126   148.8128     0.0000    -999.25    47.0796     1.4286     1.4316  1186.8909     0.6175  -622.6834    -999.25    -999.25     0.0274     0.0274 14888.2334     2.2156     1.4287     1.4287     2.0413     1.0000     1.0000     1.0000 -1105.5808    83.5540     0.0274    -999.25
  1187.0432  4540.0464 4540046.5000    -999.25  -639.2500    14.0038    14.0038  -639.2500     1.5287   148.9423     0.0000    -999.25    48.8024     1.4300     1.4354  1187.0432     0.6318  -622.7693    -999.25    -999.25     0.0230     0.0230 14895.1660     2.2185     1.4299     1.4299     2.0447     1.0000     1.0000     1.0000 -1105.7333    86.1950     0.0230    -999.25
  1187.1956  4568.3862 4568386.0000    -999.25  -639.2500    13.9784    13.9784  -639.2500     1.5439   148.2819     0.0000    -999.25    49.8583     1.4296     1.4365  1187.1957     0.6542  -622.8551    -999.25    -999.25     0.0172     0.0172 14988.1436     2.2225     1.4295     1.4295     2.0434     1.0000     1.0000     1.0000 -1105.8856    90.0110     0.0172    -999.25
  1187.3480  4607.6841 4607684.0000    -999.25  -639.2500    13.9100    13.9100  -639.2500     1.5528   147.2044     0.0000    -999.25    48.8832     1.4288     1.4359  1187.3480     0.6765  -622.9409    -999.25    -999.25     0.0150     0.0150 15117.0732     2.2253     1.4286     1.4286     2.0409     1.0000     1.0000     1.0000 -1106.0381    93.5770     0.0150    -999.25
  1187.5004  4628.8994 4628899.5000    -999.25  -639.2500    13.8184    13.8184  -639.2500     1.5440   146.3869     0.0000    -999.25    47.1405     1.4271     1.4354  1187.5005     0.6887  -623.0268    -999.25    -999.25     0.0150     0.0150 15186.6777     2.2231     1.4274     1.4274     2.0374     1.0000     1.0000     1.0000 -1106.1904    95.2720     0.0150    -999.25
  1187.6528  4621.9487 4621949.0000    -999.25  -639.2500    13.7237    13.7237  -639.2500     1.5395   146.1645     0.0000    -999.25    45.8926     1.4297     1.4397  1187.6528     0.6851  -623.1126    -999.25    -999.25     0.0150     0.0150 15163.8740     2.2164     1.4304     1.4304     2.0462     1.0000     1.0000     1.0000 -1106.3428    94.3880     0.0150    -999.25
  1187.8052  4598.6152 4598615.5000    -999.25  -639.2500    13.6520    13.6520  -639.2500     1.5643   146.5774     0.0000    -999.25    45.0839     1.4360     1.4477  1187.8052     0.6712  -623.1984    -999.25    -999.25     0.0150     0.0150 15087.3203     2.2115     1.4355     1.4355     2.0607     1.0000     1.0000     1.0000 -1106.4952    92.0990     0.0150    -999.25
  1187.9576  4566.3652 4566365.0000    -999.25  -639.2500    13.6359    13.6359  -639.2500     1.5988   147.3075     0.0000    -999.25    45.2574     1.4299     1.4448  1187.9576     0.6632  -623.2843    -999.25    -999.25     0.0153     0.0153 14981.5137     2.2069     1.4271     1.4271     2.0366     1.0000     1.0000     1.0000 -1106.6476    91.0060     0.0153    -999.25
  1188.1100  4538.4268 4538426.5000    -999.25  -639.2500    13.6582    13.6582  -639.2500     1.5835   147.7208     0.0000    -999.25    46.2292     1.4029     1.4196  1188.1100     0.6706  -623.3701    -999.25    -999.25     0.0150     0.0150 14889.8506     2.1995     1.3986     1.3986     1.9561     1.0000     1.0000     1.0000 -1106.8000    92.3290     0.0150    -999.25
  1188.2624  4530.2588 4530258.5000    -999.25  -639.2500    13.6391    13.6391  -639.2500     1.5189   147.6937     0.0000    -999.25    46.6502     1.3636     1.3790  1188.2625     0.6843  -623.4559    -999.25    -999.25     0.0150     0.0150 14863.0537     2.1952     1.3602     1.3602     1.8502     1.0000     1.0000     1.0000 -1106.9524    94.4410     0.0150    -999.25
