~Version ---------------------------------------------------
VERS. 2.0 : CWLS log ASCII Standard -VERSION 2.0
WRAP.  NO : 
~Well ------------------------------------------------------
STRT.m                                                1187.6524 : 
STOP.m                                                1658.2636 : 
STEP.m                                                   0.1524 : 
NULL.                                                   -999.25 : 
COMP.                                                           : COMPANY
WELL.                                                   Well-19 : WELL
FLD .                                                           : FIELD
LOC .                                                           : LOCATION
SRVC.                                                           : SERVICE COMPANY
DATE. 2021-01-20 14:34:11   : Log Export Date {yyyy-MM-dd HH:mm : ss}
PROV.                                                           : PROVINCE
UWI .                                                   Well-19 : UNIQUE WELL ID
API .                                                           : API NUMBER
~Curve Information -----------------------------------------
DEPTH             .m        : DEPTH
ACOUSTICIMPEDANCE1.kPa.s/m  : ACOUSTICIMPEDANCE1
AI                .kPa.s/m  : AI
AVG_PIGN          .m3/m3    : AVG_PIGN
CALI              .in       : CALI
NPHI              .m3/m3    : NPHI
DT                .us/ft    : DT
DT4P              .us/ft    : DT4P
FACIES            ._        : FACIES
FLD1              ._        : FLD1
GR                .gAPI     : GR
M2R2              .ohm.m    : M2R2
LLS               .ohm.m    : LLS
LLD               .ohm.m    : LLD
DEPTH_1           .m        : DEPTH_1
NPHI_1            .m3/m3    : NPHI_1
PEF               .b/e      : PEF
PERF_INT          ._        : PERF_INT
PERMEABILITY      .mD       : PERMEABILITY
PIGN              .m3/m3    : PIGN
PIGN_MODELLING    .m3/m3    : PIGN_MODELLING
PIMP              .kPa.s/m  : PIMP
RHOB              .g/cm3    : RHOB
LLD_1             .ohm.m    : LLD_1
RT_MODELLING      .ohm.m    : RT_MODELLING
RT_POWER          .ohm.m    : RT_POWER
SP                .mV       : SP
SPDH              .mV       : SPDH
SUWI              ._        : SUWI
SUWI_MODELLING    ._        : SUWI_MODELLING
TDVSS             .m        : TDVSS
TEMP              .K        : TEMP
VCL               .%        : VCL
WATER_VOL         ._        : WATER_VOL
RHOB_1            .g/cm3    : RHOB_1
ZLT               ._        : ZLT
~Params ----------------------------------------------------
~Other -----------------------------------------------------
~ASCII -----------------------------------------------------
# ...
  1248.4600  5333.7363 5333736.5000    -999.25     8.9824     0.4946   130.6236   130.6236    -999.25    -999.25    80.8097     1.0383     1.2858     1.3643  1248.4600     0.4946     5.7387    -999.25    -999.25    -999.25    -999.25 17499.1348     2.2858    -999.25    -999.25    -999.25   -42.4394   330.4626    -999.25    -999.25 -1124.4764   145.1890    -999.25    -999.25     2.2858    -999.25
  1248.6124  4959.5518 4959551.5000    -999.25     9.2885     0.4958   138.3278   138.3278    -999.25    -999.25    80.9079     1.2096     1.4689     1.5556  1248.6123     0.4958     5.4904    -999.25    -999.25    -999.25    -999.25 16271.4951     2.2508    -999.25    -999.25    -999.25   -44.6334   327.7165    -999.25    -999.25 -1124.6151   145.1967    -999.25    -999.25     2.2508    -999.25
  1248.7648  4725.8794 4725879.5000    -999.25     9.5958     0.5057   143.2390   143.2390    -999.25    -999.25    82.2094     1.3807     1.6417     1.7328  1248.7648     0.5057     5.4382    -999.25    -999.25    -999.25    -999.25 15504.8545     2.2209    -999.25    -999.25    -999.25   -47.8705   324.0182    -999.25    -999.25 -1124.7538   145.2044    -999.25    -999.25     2.2209    -999.25
  1248.9172  4614.4307 4614431.0000    -999.25     9.7682     0.5059   145.6549   145.6549    -999.25    -999.25    84.1035     1.2595     1.4693     1.5447  1248.9171     0.5059     5.3806    -999.25    -999.25    -999.25    -999.25 15139.2090     2.2051    -999.25    -999.25    -999.25   -51.1911   320.1891    -999.25    -999.25 -1124.8925   145.2121    -999.25    -999.25     2.2051    -999.25
  1249.0696  4551.8999 4551900.0000    -999.25     9.8131     0.5137   147.3344   147.3344    -999.25    -999.25    87.6753     1.0352     1.1879     1.2431  1249.0696     0.5137     5.2150    -999.25    -999.25    -999.25    -999.25 14934.0547     2.2003    -999.25    -999.25    -999.25   -53.6676   317.1609    -999.25    -999.25 -1125.0311   145.2198    -999.25    -999.25     2.2003    -999.25
  1249.2220  4629.9385 4629938.5000    -999.25     9.8132     0.5170   145.0288   145.0288    -999.25    -999.25    91.2573     0.9389     1.0622     1.1061  1249.2219     0.5170     5.1162    -999.25    -999.25    -999.25    -999.25 15190.0879     2.2030    -999.25    -999.25    -999.25   -55.3869   315.0851    -999.25    -999.25 -1125.1698   145.2276    -999.25    -999.25     2.2030    -999.25
  1249.3744  4609.2510 4609251.0000    -999.25     9.8151     0.5138   145.7657   145.7657    -999.25    -999.25    93.6016     0.9391     1.0489     1.0868  1249.3744     0.5138     5.1512    -999.25    -999.25    -999.25    -999.25 15122.2139     2.2043    -999.25    -999.25    -999.25   -56.8014   313.3873    -999.25    -999.25 -1125.3085   145.2353    -999.25    -999.25     2.2043    -999.25
  1249.5268  4663.9492 4663949.5000    -999.25     9.8257     0.5282   143.9712   143.9712    -999.25    -999.25    94.1579     0.9628     1.0628     1.0963  1249.5267     0.5282     5.1821    -999.25    -999.25    -999.25    -999.25 15301.6709     2.2030    -999.25    -999.25    -999.25   -57.9328   311.7164    -999.25    -999.25 -1125.4471   145.2430    -999.25    -999.25     2.2030    -999.25
  1249.6792  4652.1182 4652118.0000    -999.25     9.8278     0.5356   144.1932   144.1932    -999.25    -999.25    92.3446     0.9587     1.0478     1.0763  1249.6792     0.5356     5.1756    -999.25    -999.25    -999.25    -999.25 15262.8545     2.2008    -999.25    -999.25    -999.25   -58.7165   310.2815    -999.25    -999.25 -1125.5858   145.2507    -999.25    -999.25     2.2008    -999.25
  1249.8316  4652.6553 4652655.5000    -999.25     9.8078     0.5208   143.8752   143.8752    -999.25    -999.25    89.7701     0.9285     1.0077     1.0315  1249.8315     0.5208     5.1734    -999.25    -999.25    -999.25    -999.25 15264.6172     2.1962    -999.25    -999.25    -999.25   -59.2486   309.3339    -999.25    -999.25 -1125.7245   145.2584    -999.25    -999.25     2.1962    -999.25
  1249.9840  4391.1831 4391183.0000    -999.25     9.7805     0.5151   152.4006   152.4006    -999.25    -999.25    88.8174     0.8974     0.9697     0.9898  1249.9839     0.5151     5.1742    -999.25    -999.25    -999.25    -999.25 14406.7686     2.1956    -999.25    -999.25    -999.25   -59.5546   308.8971    -999.25    -999.25 -1125.8633   145.2661    -999.25    -999.25     2.1956    -999.25
  1250.1364  4629.9473 4629947.5000    -999.25     9.7835     0.5352   144.8771   144.8771    -999.25    -999.25    88.7009     0.8839     0.9524     0.9703  1250.1364     0.5352     5.1606    -999.25    -999.25    -999.25    -999.25 15190.1162     2.2007    -999.25    -999.25    -999.25   -59.8599   308.7105    -999.25    -999.25 -1126.0020   145.2738    -999.25    -999.25     2.2007    -999.25
  1250.2888  4593.1929 4593193.0000    -999.25     9.8042     0.5536   146.4412   146.4412    -999.25    -999.25    87.0247     0.8949     0.9614     0.9782  1250.2887     0.5536     5.1356    -999.25    -999.25    -999.25    -999.25 15069.5303     2.2068    -999.25    -999.25    -999.25   -60.3689   308.2955    -999.25    -999.25 -1126.1406   145.2815    -999.25    -999.25     2.2068    -999.25
  1250.4412  4618.7329 4618733.0000    -999.25     9.7646     0.5382   145.7964   145.7964    -999.25    -999.25    86.4404     0.9263     0.9910     1.0080  1250.4412     0.5382     5.1217    -999.25    -999.25    -999.25    -999.25 15153.3232     2.2093    -999.25    -999.25    -999.25   -60.8300   307.4816    -999.25    -999.25 -1126.2793   145.2893    -999.25    -999.25     2.2093    -999.25
  1250.5936  4661.3784 4661378.5000    -999.25     9.6482     0.5068   144.3383   144.3383    -999.25    -999.25    87.8682     0.9556     1.0175     1.0354  1250.5935     0.5068     5.1202    -999.25    -999.25    -999.25    -999.25 15293.2373     2.2074    -999.25    -999.25    -999.25   -60.9193   306.6546    -999.25    -999.25 -1126.4180   145.2970    -999.25    -999.25     2.2074    -999.25
  1250.7460  4677.9995 4677999.5000    -999.25     9.5064     0.4918   143.6235   143.6235    -999.25    -999.25    90.1313     0.9526     1.0102     1.0292  1250.7460     0.4918     5.1508    -999.25    -999.25    -999.25    -999.25 15347.7676     2.2043    -999.25    -999.25    -999.25   -60.7351   306.0837    -999.25    -999.25 -1126.5566   145.3047    -999.25    -999.25     2.2043    -999.25
  1250.8984  4742.5312 4742531.5000    -999.25     9.3544     0.4972   141.7399   141.7399    -999.25    -999.25    92.1499     0.9183     0.9713     0.9915  1250.8983     0.4972     5.2095    -999.25    -999.25    -999.25    -999.25 15559.4863     2.2054    -999.25    -999.25    -999.25   -60.6279   305.5228    -999.25    -999.25 -1126.6953   145.3124    -999.25    -999.25     2.2054    -999.25
  1251.0508  4816.9180 4816918.0000    -999.25     9.1967     0.5161   140.2724   140.2724    -999.25    -999.25    94.6184     0.8880     0.9388     0.9607  1251.0508     0.5161     5.3669    -999.25    -999.25    -999.25    -999.25 15803.5361     2.2168    -999.25    -999.25    -999.25   -60.7396   304.7726    -999.25    -999.25 -1126.8340   145.3201    -999.25    -999.25     2.2168    -999.25
  1251.2032  4997.2886 4997288.5000    -999.25     9.0955     0.5451   136.5025   136.5025    -999.25    -999.25    95.4358     0.8849     0.9366     0.9612  1251.2031     0.5451     5.6164    -999.25    -999.25    -999.25    -999.25 16395.3027     2.2380    -999.25    -999.25    -999.25   -60.8968   304.0540    -999.25    -999.25 -1126.9727   145.3278    -999.25    -999.25     2.2380    -999.25
  1251.3556  5128.6362 5128636.5000    -999.25     9.0671     0.5648   134.0288   134.0288    -999.25    -999.25    93.4976     0.8824     0.9363     0.9640  1251.3556     0.5648     5.8091    -999.25    -999.25    -999.25    -999.25 16826.2344     2.2552    -999.25    -999.25    -999.25   -60.9545   303.5229    -999.25    -999.25 -1127.1113   145.3355    -999.25    -999.25     2.2552    -999.25
  1251.5080  5140.7842 5140784.0000    -999.25     9.0665     0.5598   133.4927   133.4927    -999.25    -999.25    89.4075     0.8320     0.8852     0.9142  1251.5079     0.5598     5.8068    -999.25    -999.25    -999.25    -999.25 16866.0898     2.2515    -999.25    -999.25    -999.25   -61.0310   303.1048    -999.25    -999.25 -1127.2501   145.3432    -999.25    -999.25     2.2515    -999.25
