~Version ---------------------------------------------------
VERS. 2.0 : CWLS log ASCII Standard -VERSION 2.0
WRAP.  NO : 
~Well ------------------------------------------------------
STRT.m                                                1187.6524 : 
STOP.m                                                1658.2636 : 
STEP.m                                                   0.1524 : 
NULL.                                                   -999.25 : 
COMP.                                                           : COMPANY
WELL.                                                   Well-19 : WELL
FLD .                                                           : FIELD
LOC .                                                           : LOCATION
SRVC.                                                           : SERVICE COMPANY
DATE. 2021-01-20 14:34:11   : Log Export Date {yyyy-MM-dd HH:mm : ss}
PROV.                                                           : PROVINCE
UWI .                                                   Well-19 : UNIQUE WELL ID
API .                                                           : API NUMBER
~Curve Information -----------------------------------------
DEPTH             .m        : DEPTH
ACOUSTICIMPEDANCE1.kPa.s/m  : ACOUSTICIMPEDANCE1
AI                .kPa.s/m  : AI
AVG_PIGN          .m3/m3    : AVG_PIGN
CALI              .in       : CALI
NPHI              .m3/m3    : NPHI
DT                .us/ft    : DT
DT4P              .us/ft    : DT4P
FACIES            ._        : FACIES
FLD1              ._        : FLD1
GR                .gAPI     : GR
M2R2              .ohm.m    : M2R2
LLS               .ohm.m    : LLS
LLD               .ohm.m    : LLD
DEPTH_1           .m        : DEPTH_1
NPHI_1            .m3/m3    : NPHI_1
PEF               .b/e      : PEF
PERF_INT          ._        : PERF_INT
PERMEABILITY      .mD       : PERMEABILITY
PIGN              .m3/m3    : PIGN
PIGN_MODELLING    .m3/m3    : PIGN_MODELLING
PIMP              .kPa.s/m  : PIMP
RHOB              .g/cm3    : RHOB
LLD_1             .ohm.m    : LLD_1
RT_MODELLING      .ohm.m    : RT_MODELLING
RT_POWER          .ohm.m    : RT_POWER
SP                .mV       : SP
SPDH              .mV       : SPDH
SUWI              ._        : SUWI
SUWI_MODELLING    ._        : SUWI_MODELLING
TDVSS             .m        : TDVSS
TEMP              .K        : TEMP
VCL               .%        : VCL
WATER_VOL         ._        : WATER_VOL
RHOB_1            .g/cm3    : RHOB_1
ZLT               ._        : ZLT
~Params ----------------------------------------------------
~Other -----------------------------------------------------
~ASCII -----------------------------------------------------
# ...
  1651.7104  3099.9883 3099988.2500    -999.25     9.0089    -999.25   110.9378   110.9378    -999.25    -999.25    -999.25    22.9653   102.6603   238.9913  1651.7103    -999.25     2.2891    -999.25    -999.25    -999.25    -999.25 10170.5645     1.1283    -999.25    -999.25    -999.25   -94.1819   258.1111    -999.25    -999.25 -1491.3466   165.5989    -999.25    -999.25     1.1283    21.0000
  1651.8628  3103.0103 3103010.2500    -999.25     9.0124    -999.25   110.9378   110.9378    -999.25    -999.25    -999.25    21.3482   101.4341   232.9803  1651.8628    -999.25     2.2452    -999.25    -999.25    -999.25    -999.25 10180.4795     1.1294    -999.25    -999.25    -999.25   -95.2101   257.4840    -999.25    -999.25 -1491.4857   165.6066    -999.25    -999.25     1.1294    21.0000
  1652.0152  3104.9336 3104933.5000    -999.25     9.0346    -999.25   110.9378   110.9378    -999.25    -999.25    -999.25    19.0961    97.1417   211.8005  1652.0151    -999.25     2.2318    -999.25    -999.25    -999.25    -999.25 10186.7900     1.1301    -999.25    -999.25    -999.25   -96.1015   257.1474    -999.25    -999.25 -1491.6248   165.6143    -999.25    -999.25     1.1301    21.0000
  1652.1676  3108.5051 3108505.2500    -999.25     9.0811    -999.25   110.9378   110.9378    -999.25    -999.25    -999.25    15.8108    83.0025   161.4129  1652.1676    -999.25     2.2585    -999.25    -999.25    -999.25    -999.25 10198.5078     1.1314    -999.25    -999.25    -999.25   -96.6957   256.6845    -999.25    -999.25 -1491.7639   165.6220    -999.25    -999.25     1.1314    21.0000
  1652.3200  3114.2749 3114274.7500    -999.25     9.1264    -999.25   110.9378   110.9378    -999.25    -999.25    -999.25    16.3076    83.5958   142.6462  1652.3199    -999.25     2.2502    -999.25    -999.25    -999.25    -999.25 10217.4375     1.1335    -999.25    -999.25    -999.25   -97.1852   255.9475    -999.25    -999.25 -1491.9030   165.6297    -999.25    -999.25     1.1335    21.0000
  1652.4724  3113.7256 3113725.5000    -999.25     9.1417    -999.25   110.9378   110.9378    -999.25    -999.25    -999.25    19.8743    96.4263   144.6831  1652.4723    -999.25     2.1611    -999.25    -999.25    -999.25    -999.25 10215.6348     1.1333    -999.25    -999.25    -999.25   -97.7139   255.1659    -999.25    -999.25 -1492.0421   165.6375    -999.25    -999.25     1.1333    21.0000
  1652.6248  3101.9111 3101911.0000    -999.25     9.1401    -999.25   110.9378   110.9378    -999.25    -999.25    -999.25    27.6110   127.8052   172.0418  1652.6248    -999.25     2.1018    -999.25    -999.25    -999.25    -999.25 10176.8740     1.1290    -999.25    -999.25    -999.25   -98.1705   254.7985    -999.25    -999.25 -1492.1813   165.6452    -999.25    -999.25     1.1290    21.0000
  1652.7772  3092.8445 3092844.5000    -999.25     9.1479    -999.25   110.9378   110.9378    -999.25    -999.25    -999.25    45.7700   197.1862   244.6443  1652.7771    -999.25     2.1436    -999.25    -999.25    -999.25    -999.25 10147.1279     1.1257    -999.25    -999.25    -999.25   -98.5812   254.9522    -999.25    -999.25 -1492.3203   165.6529    -999.25    -999.25     1.1257    21.0000
  1652.9296  3100.5374 3100537.5000    -999.25     9.1422    -999.25   110.9378   110.9378    -999.25    -999.25    -999.25    45.4779   147.8284   167.5977  1652.9296    -999.25     2.2516    -999.25    -999.25    -999.25    -999.25 10172.3672     1.1285    -999.25    -999.25    -999.25   -98.9195   255.2507    -999.25    -999.25 -1492.4595   165.6606    -999.25    -999.25     1.1285    21.0000
  1653.0820  3114.0005 3114000.5000    -999.25     9.0933    -999.25   110.9378   110.9378    -999.25    -999.25    -999.25    20.6588    64.0351    66.4382  1653.0819    -999.25     2.3677    -999.25    -999.25    -999.25    -999.25 10216.5371     1.1334    -999.25    -999.25    -999.25   -98.8086   255.4796    -999.25    -999.25 -1492.5985   165.6683    -999.25    -999.25     1.1334    21.0000
  1653.2344  3118.3960 3118396.0000    -999.25     9.0332    -999.25   110.9378   110.9378    -999.25    -999.25    -999.25    12.7090    38.1566    37.4327  1653.2344    -999.25     2.4061    -999.25    -999.25    -999.25    -999.25 10230.9580     1.1350    -999.25    -999.25    -999.25   -98.5351   255.5152    -999.25    -999.25 -1492.7377   165.6760    -999.25    -999.25     1.1350    21.0000
  1653.3868  3120.8689 3120869.0000    -999.25     9.0087    -999.25   110.9378   110.9378    -999.25    -999.25    -999.25    13.0738    37.5796    35.1991  1653.3867    -999.25     2.3247    -999.25    -999.25    -999.25    -999.25 10239.0713     1.1359    -999.25    -999.25    -999.25   -98.8074   255.2775    -999.25    -999.25 -1492.8767   165.6837    -999.25    -999.25     1.1359    21.0000
  1653.5392  3129.3862 3129386.2500    -999.25     9.0131    -999.25   110.9378   110.9378    -999.25    -999.25    -999.25    22.7201    68.9357    62.2012  1653.5392    -999.25     2.2247    -999.25    -999.25    -999.25    -999.25 10267.0156     1.1390    -999.25    -999.25    -999.25   -99.3926   255.0034    -999.25    -999.25 -1493.0159   165.6915    -999.25    -999.25     1.1390    21.0000
  1653.6916  3140.6509 3140650.7500    -999.25     9.0199    -999.25   110.9378   110.9378    -999.25    -999.25    -999.25    42.0330   146.3618   128.4312  1653.6915    -999.25     2.2060    -999.25    -999.25    -999.25    -999.25 10303.9727     1.1431    -999.25    -999.25    -999.25   -99.4991   255.1940    -999.25    -999.25 -1493.1549   165.6992    -999.25    -999.25     1.1431    21.0000
  1653.8440  3156.0366 3156036.7500    -999.25     9.0353    -999.25   110.9378   110.9378    -999.25    -999.25    -999.25    63.4681   207.9576   175.7832  1653.8440    -999.25     2.2355    -999.25    -999.25    -999.25    -999.25 10354.4512     1.1487    -999.25    -999.25    -999.25   -99.1441   255.8298    -999.25    -999.25 -1493.2941   165.7069    -999.25    -999.25     1.1487    21.0000
  1653.9964  3171.9722 3171972.2500    -999.25     9.0847    -999.25   110.9378   110.9378    -999.25    -999.25    -999.25    59.4117   222.8651   176.3921  1653.9963    -999.25     2.2576    -999.25    -999.25    -999.25    -999.25 10406.7324     1.1545    -999.25    -999.25    -999.25   -99.0339   256.1462    -999.25    -999.25 -1493.4331   165.7146    -999.25    -999.25     1.1545    21.0000
  1654.1488  3173.6206 3173620.5000    -999.25     9.1624    -999.25   110.9378   110.9378    -999.25    -999.25    -999.25    39.0126   173.8612   124.1776  1654.1488    -999.25     2.2721    -999.25    -999.25    -999.25    -999.25 10412.1406     1.1551    -999.25    -999.25    -999.25   -99.4478   255.7009    -999.25    -999.25 -1493.5723   165.7223    -999.25    -999.25     1.1551    21.0000
  1654.3012  3156.3115 3156311.5000    -999.25     9.2088    -999.25   110.9378   110.9378    -999.25    -999.25    -999.25    22.4687   107.4030    68.9837  1654.3011    -999.25     2.2935    -999.25    -999.25    -999.25    -999.25 10355.3525     1.1488    -999.25    -999.25    -999.25   -99.9128   255.2215    -999.25    -999.25 -1493.7114   165.7300    -999.25    -999.25     1.1488    21.0000
  1654.4536  3133.7820 3133782.0000    -999.25     9.1898    -999.25   110.9378   110.9378    -999.25    -999.25    -999.25    19.6052    84.6402    50.8920  1654.4535    -999.25     2.3018    -999.25    -999.25    -999.25    -999.25 10281.4365     1.1406    -999.25    -999.25    -999.25   -99.9997   255.2834    -999.25    -999.25 -1493.8505   165.7377    -999.25    -999.25     1.1406    21.0000
  1654.6060  3124.9902 3124990.2500    -999.25     9.1439    -999.25   110.9378   110.9378    -999.25    -999.25    -999.25    26.4602    93.2714    54.0550  1654.6060    -999.25     2.2634    -999.25    -999.25    -999.25    -999.25 10252.5928     1.1374    -999.25    -999.25    -999.25   -99.9171   255.3843    -999.25    -999.25 -1493.9896   165.7455    -999.25    -999.25     1.1374    21.0000
  1654.7584  3141.7498 3141749.7500    -999.25     9.1260    -999.25   110.9378   110.9378    -999.25    -999.25    -999.25    53.6755   145.1696    82.7481  1654.7583    -999.25     2.2100    -999.25    -999.25    -999.25    -999.25 10307.5781     1.1435    -999.25    -999.25    -999.25   -99.7005   255.4214    -999.25    -999.25 -1494.1287   165.7532    -999.25    -999.25     1.1435    21.0000
