~Version ---------------------------------------------------
VERS. 2.0 : CWLS log ASCII Standard -VERSION 2.0
WRAP.  NO : 
~Well ------------------------------------------------------
STRT.m                                                1187.6524 : 
STOP.m                                                1658.2636 : 
STEP.m                                                   0.1524 : 
NULL.                                                   -999.25 : 
COMP.                                                           : COMPANY
WELL.                                                   Well-19 : WELL
FLD .                                                           : FIELD
LOC .                                                           : LOCATION
SRVC.                                                           : SERVICE COMPANY
DATE. 2021-01-20 14:34:11   : Log Export Date {yyyy-MM-dd HH:mm : ss}
PROV.                                                           : PROVINCE
UWI .                                                   Well-19 : UNIQUE WELL ID
API .                                                           : API NUMBER
~Curve Information -----------------------------------------
DEPTH             .m        : DEPTH
ACOUSTICIMPEDANCE1.kPa.s/m  : ACOUSTICIMPEDANCE1
AI                .kPa.s/m  : AI
AVG_PIGN          .m3/m3    : AVG_PIGN
CALI              .in       : CALI
NPHI              .m3/m3    : NPHI
DT                .us/ft    : DT
DT4P              .us/ft    : DT4P
FACIES            ._        : FACIES
FLD1              ._        : FLD1
GR                .gAPI     : GR
M2R2              .ohm.m    : M2R2
LLS               .ohm.m    : LLS
LLD               .ohm.m    : LLD
DEPTH_1           .m        : DEPTH_1
NPHI_1            .m3/m3    : NPHI_1
PEF               .b/e      : PEF
PERF_INT          ._        : PERF_INT
PERMEABILITY      .mD       : PERMEABILITY
PIGN              .m3/m3    : PIGN
PIGN_MODELLING    .m3/m3    : PIGN_MODELLING
PIMP              .kPa.s/m  : PIMP
RHOB              .g/cm3    : RHOB
LLD_1             .ohm.m    : LLD_1
RT_MODELLING      .ohm.m    : RT_MODELLING
RT_POWER          .ohm.m    : RT_POWER
SP                .mV       : SP
SPDH              .mV       : SPDH
SUWI              ._        : SUWI
SUWI_MODELLING    ._        : SUWI_MODELLING
TDVSS             .m        : TDVSS
TEMP              .K        : TEMP
VCL               .%        : VCL
WATER_VOL         ._        : WATER_VOL
RHOB_1            .g/cm3    : RHOB_1
ZLT               ._        : ZLT
~Params ----------------------------------------------------
~Other -----------------------------------------------------
~ASCII -----------------------------------------------------
# ...
  1526.8948  5702.0830 5702083.0000    -999.25     9.0981     0.5197   127.4454   127.4454     0.0000    -999.25   148.2123     1.5728     1.5344     1.5655  1526.8948     0.5197     6.0102    -999.25     0.8572     0.0464     0.0464 18707.6211     2.3842     1.3655     1.3655     1.8646   -63.3209   290.2140     1.0000     1.0000 -1377.8044   159.2815    70.6660     0.0464     2.3842    12.0000
  1527.0472  5688.6035 5688603.5000    -999.25     9.1033     0.5192   126.5579   126.5579     0.0000    -999.25   152.2294     1.4540     1.4290     1.4527  1527.0471     0.5192     5.6292    -999.25     0.8281     0.0458     0.0458 18663.3984     2.3620     1.2670     1.2670     1.6053   -63.7508   290.4229     1.0000     1.0000 -1377.9429   159.2893    71.0440     0.0458     2.3620    12.0000
  1527.1996  5692.4707 5692471.0000    -999.25     9.1094     0.4911   125.3421   125.3421     0.0000    -999.25   145.3681     1.3601     1.3429     1.3602  1527.1996     0.4911     5.5164    -999.25     0.3876     0.0391     0.0391 18676.0859     2.3409     1.1863     1.1863     1.4073   -63.9911   290.7158     1.0000     1.0000 -1378.0813   159.2970    75.2200     0.0391     2.3409    12.0000
  1527.3520  5422.8296 5422829.5000    -999.25     9.1081     0.4623   131.4958   131.4958     0.0000    -999.25   133.8156     1.3569     1.3397     1.3533  1527.3519     0.4623     5.5722    -999.25     0.1513     0.0323     0.0323 17791.4355     2.3395     1.1801     1.1801     1.3926   -63.9699   291.0293     1.0000     1.0000 -1378.2197   159.3047    79.4900     0.0323     2.3395    12.0000
  1527.5044  5280.3271 5280327.5000    -999.25     9.0966     0.4586   136.8975   136.8975     0.0000    -999.25   122.1525     1.5280     1.5001     1.5130  1527.5044     0.4586     5.6119    -999.25     0.3901     0.0465     0.0465 17323.9082     2.3716     1.3190     1.3190     1.7397   -63.9042   291.2741     1.0000     1.0000 -1378.3582   159.3124    71.1720     0.0465     2.3716    12.0000
  1527.6568  5625.1826 5625182.5000    -999.25     9.0794     0.4818   130.7699   130.7699     0.0000    -999.25   113.4640     1.9023     1.8434     1.8575  1527.6567     0.4818     5.9758    -999.25     1.5062     0.0699     0.0699 18455.3242     2.4134     1.6190     1.6190     2.6211   -63.8948   291.4435     1.0000     1.0000 -1378.4966   159.3201    57.3160     0.0699     2.4134    12.0000
  1527.8092  6024.5464 6024546.5000    -999.25     9.0704     0.5107   122.7741   122.7741     0.0000    -999.25   109.2901     2.0902     1.9991     2.0114  1527.8092     0.5107     6.2952    -999.25     1.4429     0.0658     0.0658 19765.5723     2.4267     1.7536     1.7536     3.0751   -64.0274   291.4854     1.0000     1.0000 -1378.6350   159.3278    59.8990     0.0658     2.4267    12.0000
  1527.9616  5989.4272 5989427.5000    -999.25     9.1124     0.5181   123.1937   123.1937     0.0000    -999.25   111.4723     1.7417     1.6679     1.6743  1527.9615     0.5181     6.2854    -999.25     1.4765     0.0662     0.0662 19650.3516     2.4208     1.4607     1.4607     2.1338   -64.3600   291.4140     1.0000     1.0000 -1378.7734   159.3355    59.6490     0.0662     2.4208    12.0000
  1528.1140  6103.2417 6103242.0000    -999.25     9.2164     0.5116   121.5806   121.5806     0.0000    -999.25   121.1907     1.3990     1.3474     1.3516  1528.1139     0.5116     6.2828    -999.25     1.6543     0.0659     0.0659 20023.7598     2.4345     1.1793     1.1793     1.3908   -64.7176   291.3700     1.0000     1.0000 -1378.9119   159.3432    59.5290     0.0659     2.4345    12.0000
  1528.2664  6219.5249 6219525.0000    -999.25     9.3173     0.5264   119.3662   119.3662     0.0000    -999.25   132.0179     1.3640     1.3135     1.3184  1528.2664     0.5264     6.3037    -999.25     1.6402     0.0605     0.0605 20405.2656     2.4357     1.1497     1.1497     1.3219   -64.9001   291.3345     1.0000     1.0000 -1379.0503   159.3510    62.5000     0.0605     2.4357    12.0000
  1528.4188  6228.4146 6228415.0000    -999.25     9.3594     0.5437   118.9952   118.9952     0.0000    -999.25   135.5103     1.5353     1.4704     1.4790  1528.4187     0.5437     6.3180    -999.25     1.8137     0.0597     0.0597 20434.4316     2.4316     1.2893     1.2893     1.6624   -64.9098   291.1323     1.0000     1.0000 -1379.1887   159.3587    62.8720     0.0597     2.4316    12.0000
  1528.5712  6289.7402 6289740.5000    -999.25     9.3564     0.5419   117.8738   117.8738     0.0000    -999.25   132.0677     1.7194     1.6388     1.6539  1528.5712     0.5419     6.2468    -999.25     2.0247     0.0627     0.0627 20635.6309     2.4324     1.4418     1.4418     2.0788   -64.8895   290.8351     1.0000     1.0000 -1379.3270   159.3664    61.1880     0.0627     2.4324    12.0000
  1528.7236  6314.6802 6314680.5000    -999.25     9.3488     0.5399   117.2200   117.2200     0.0000    -999.25   126.6883     1.7646     1.6815     1.7030  1528.7235     0.5399     6.1916    -999.25     1.9346     0.0637     0.0637 20717.4551     2.4285     1.4849     1.4849     2.2050   -64.9461   290.6003     1.0000     1.0000 -1379.4655   159.3741    60.7440     0.0637     2.4285    12.0000
  1528.8760  6257.4946 6257494.5000    -999.25     9.3519     0.5609   118.0428   118.0428     0.0000    -999.25   119.7638     1.7145     1.6405     1.6666  1528.8760     0.5609     6.2543    -999.25     2.0175     0.0653     0.0653 20529.8379     2.4234     1.4534     1.4534     2.1123   -65.0228   290.4705     1.0000     1.0000 -1379.6039   159.3818    59.9290     0.0653     2.4234    12.0000
  1529.0284  6298.7964 6298796.0000    -999.25     9.3635     0.5913   117.1381   117.1381     0.0000    -999.25   112.1557     1.6832     1.6191     1.6499  1529.0283     0.5913     6.2862    -999.25     2.0527     0.0656     0.0656 20665.3418     2.4207     1.4388     1.4388     2.0700   -64.8941   290.4596     1.0000     1.0000 -1379.7423   159.3895    59.9550     0.0656     2.4207    12.0000
  1529.1808  6352.8145 6352814.5000    -999.25     9.3792     0.6058   116.0558   116.0558     0.0000    -999.25   107.1816     1.7267     1.6670     1.7049  1529.1808     0.6058     6.2782    -999.25     2.2508     0.0679     0.0679 20842.5664     2.4189     1.4865     1.4865     2.2098   -64.5775   290.4373     1.0000     1.0000 -1379.8807   159.3972    58.6820     0.0679     2.4189    12.0000
  1529.3332  6414.3052 6414305.0000    -999.25     9.3921     0.5997   114.9099   114.9099     0.0000    -999.25   105.4360     1.8069     1.7471     1.7938  1529.3331     0.5997     6.3134    -999.25     2.3725     0.0701     0.0701 21044.3066     2.4182     1.5640     1.5640     2.4461   -64.1870   290.2490     1.0000     1.0000 -1380.0192   159.4050    57.3520     0.0701     2.4182    12.0000
  1529.4856  6439.7119 6439712.0000    -999.25     9.3881     0.5768   114.9772   114.9772     0.0000    -999.25   105.3196     1.8562     1.7941     1.8480  1529.4856     0.5768     6.3994    -999.25     2.4067     0.0723     0.0723 21127.6641     2.4292     1.6113     1.6113     2.5964   -63.9115   290.0088     1.0000     1.0000 -1380.1576   159.4127    56.0230     0.0723     2.4292    12.0000
  1529.6380  6488.9844 6488984.5000    -999.25     9.3751     0.5513   115.4711   115.4711     0.0000    -999.25   106.6186     1.8919     1.8248     1.8850  1529.6379     0.5513     6.4902    -999.25     2.0894     0.0697     0.0697 21289.3184     2.4583     1.6436     1.6436     2.7016   -63.9602   289.9146     1.0000     1.0000 -1380.2960   159.4204    57.5870     0.0697     2.4583    12.0000
  1529.7904  6492.7095 6492709.5000    -999.25     9.3769     0.5464   116.8601   116.8601     0.0000    -999.25   110.1325     1.9708     1.8940     1.9638  1529.7904     0.5464     6.5233    -999.25     1.4386     0.0594     0.0594 21301.5410     2.4893     1.7123     1.7123     2.9318   -64.2040   289.9611     1.0000     1.0000 -1380.4344   159.4281    63.8610     0.0594     2.4893    12.0000
  1529.9428  6377.4478 6377447.5000    -999.25     9.3931     0.5671   119.1585   119.1585     0.0000    -999.25   115.7987     2.0241     1.9403     2.0190  1529.9427     0.5671     6.3538    -999.25     0.8310     0.0464     0.0464 20923.3848     2.4932     1.7605     1.7605     3.0992   -64.2823   290.0676     1.0000     1.0000 -1380.5729   159.4358    71.6380     0.0464     2.4932    12.0000
