~Version ---------------------------------------------------
VERS. 2.0 : CWLS log ASCII Standard -VERSION 2.0
WRAP.  NO : 
~Well ------------------------------------------------------
STRT.m                                                 1185.062 : 
STOP.m                                                1563.9284 : 
STEP.m                                                   0.1524 : 
NULL.                                                   -999.25 : 
COMP.                                                           : COMPANY
WELL.                                                    Well-8 : WELL
FLD .                                                           : FIELD
LOC .                                                           : LOCATION
SRVC.                                                           : SERVICE COMPANY
DATE. 2021-01-20 14:34:03   : Log Export Date {yyyy-MM-dd HH:mm : ss}
PROV.                                                           : PROVINCE
UWI .                                                    Well-8 : UNIQUE WELL ID
API .                                                           : API NUMBER
~Curve Information -----------------------------------------
DEPTH             .m        : DEPTH
ACOUSTICIMPEDANCE1.kPa.s/m  : ACOUSTICIMPEDANCE1
AI                .kPa.s/m  : AI
AVG_PIGN          .m3/m3    : AVG_PIGN
AZI1              .deg      : AZI1
CALI              .in       : CALI
CALI[DERIVED]1    .in       : CALI[DERIVED]1
DEVI              .deg      : DEVI
DFL               .ohm.m    : DFL
DT                .us/ft    : DT
FACIES            ._        : FACIES
FLD1              ._        : FLD1
GR                .gAPI     : GR
HDRS              .ohm.m    : HDRS
HMRS              .ohm.m    : HMRS
DEPTH_1           .m        : DEPTH_1
NPHI              .m3/m3    : NPHI
ONE-WAYTIME1      .ms       : ONE-WAYTIME1
PERF_INT          ._        : PERF_INT
PERMEABILITY      .mD       : PERMEABILITY
PIGN              .m3/m3    : PIGN
PIGN_MODELLING    .m3/m3    : PIGN_MODELLING
PIMP              .kPa.s/m  : PIMP
RHOB              .g/cm3    : RHOB
LLD               .ohm.m    : LLD
RT_MODELLING      .ohm.m    : RT_MODELLING
RT_POWER          .ohm.m    : RT_POWER
SUWI              ._        : SUWI
SUWI_MODELLING    ._        : SUWI_MODELLING
SXWI              ._        : SXWI
TDVSS             .m        : TDVSS
VCL               .%        : VCL
WATER_VOL         ._        : WATER_VOL
ZLT               ._        : ZLT
~Params ----------------------------------------------------
~Other -----------------------------------------------------
~ASCII -----------------------------------------------------
# ...
  1386.2300  6211.7612 6211761.0000    -999.25  -639.2500    12.7731    12.7731  -639.2500     1.7796   103.6684     1.0000     0.5161    25.0753     1.7087     1.7655  1386.2300     0.2989  -734.9550    -999.25   169.3015     0.3191     0.3191 20379.7930     2.1127     1.7027     1.7027     2.8993     1.0000     1.0000     1.0000 -1304.9200     3.9920     0.3191     6.0000
  1386.3824  6243.8979 6243898.0000    -999.25  -639.2500    12.7793    12.7793  -639.2500     1.6624   103.0904     1.0000     0.5094    24.7848     1.6545     1.7131  1386.3824     0.2985  -735.0408    -999.25   180.8370     0.3210     0.3210 20485.2285     2.1118     1.6515     1.6515     2.7274     1.0000     1.0000     1.0000 -1305.0724     3.6230     0.3210     6.0000
  1386.5348  6284.5464 6284546.0000    -999.25  -639.2500    12.7512    12.7512  -639.2500     1.5854   102.5400     1.0000     0.5026    25.3398     1.6273     1.6881  1386.5348     0.3004  -735.1266    -999.25   180.0622     0.3213     0.3213 20618.5898     2.1142     1.6264     1.6264     2.6450     1.0000     1.0000     1.0000 -1305.2249     4.1830     0.3213     6.0000
  1386.6872  6322.9878 6322988.0000    -999.25  -639.2500    12.6854    12.6854  -639.2500     1.5748   102.0183     1.0000     0.4959    25.0858     1.6190     1.6828  1386.6873     0.3036  -735.2125    -999.25   177.7179     0.3217     0.3217 20744.7109     2.1163     1.6190     1.6190     2.6210     1.0000     1.0000     1.0000 -1305.3772     4.8350     0.3217     6.0000
  1386.8396  6348.4272 6348427.0000    -999.25  -639.2500    12.6217    12.6217  -639.2500     1.5894   101.5629     1.0000     0.4892    23.6304     1.6189     1.6862  1386.8396     0.3041  -735.2983    -999.25   181.4624     0.3234     0.3234 20828.1719     2.1154     1.6192     1.6192     2.6218     1.0000     1.0000     1.0000 -1305.5297     4.6630     0.3234     6.0000
  1386.9920  6358.8252 6358825.0000    -999.25  -639.2500    12.5948    12.5948  -639.2500     1.6089   101.3710     1.0000     0.4825    21.5647     1.6219     1.6919  1386.9921     0.2993  -735.3841    -999.25   182.5955     0.3242     0.3242 20862.2871     2.1148     1.6220     1.6220     2.6309     1.0000     1.0000     1.0000 -1305.6820     3.6420     0.3242     6.0000
  1387.1444  6357.3267 6357326.5000    -999.25  -639.2500    12.6053    12.6053  -639.2500     1.6334   101.4203     1.0000     0.4758    19.5270     1.6231     1.6951  1387.1444     0.2906  -735.4700    -999.25   180.5903     0.3239     0.3239 20857.3711     2.1154     1.6232     1.6232     2.6347     1.0000     1.0000     1.0000 -1305.8345     2.1570     0.3239     6.0000
  1387.2968  6369.9111 6369911.0000    -999.25  -639.2500    12.6209    12.6209  -639.2500     1.6625   101.2811     1.0000     0.4690    18.2843     1.6239     1.6982  1387.2969     0.2828  -735.5558    -999.25   177.7337     0.3235     0.3235 20898.6582     2.1166     1.6246     1.6246     2.6392     1.0000     1.0000     1.0000 -1305.9868     1.0790     0.3235     6.0000
  1387.4492  6416.3540 6416354.0000    -999.25  -639.2500    12.5990    12.5990  -639.2500     1.6682   100.7533     1.0000     0.4623    17.9865     1.6305     1.7068  1387.4492     0.2789  -735.6416    -999.25   165.4472     0.3215     0.3215 21051.0293     2.1210     1.6313     1.6313     2.6612     1.0000     1.0000     1.0000 -1306.1393     0.9280     0.3215     6.0000
  1387.6016  6465.7642 6465764.0000    -999.25  -639.2500    12.5355    12.5355  -639.2500     1.6599   100.2049     1.0000     0.4556    18.3416     1.6382     1.7172  1387.6017     0.2800  -735.7274    -999.25   152.4342     0.3193     0.3193 21213.1367     2.1257     1.6384     1.6384     2.6845     1.0000     1.0000     1.0000 -1306.2916     1.6440     0.3193     6.0000
  1387.7540  6489.6157 6489616.0000    -999.25  -639.2500    12.4747    12.4747  -639.2500     1.6457   100.0583     1.0000     0.4489    18.7363     1.6401     1.7222  1387.7540     0.2853  -735.8133    -999.25   140.8721     0.3171     0.3171 21291.3906     2.1304     1.6399     1.6399     2.6892     1.0000     1.0000     1.0000 -1306.4441     3.0490     0.3171     6.0000
  1387.9064  6480.5933 6480593.5000    -999.25  -639.2500    12.4421    12.4421  -639.2500     1.6412   100.3326     1.0000     0.4422    18.7409     1.6381     1.7226  1387.9065     0.2915  -735.8991    -999.25   135.2537     0.3157     0.3157 21261.7891     2.1332     1.6378     1.6378     2.6823     1.0000     1.0000     1.0000 -1306.5964     4.3200     0.3157     6.0000
  1388.0588  6447.8438 6447844.0000    -999.25  -639.2500    12.4248    12.4248  -639.2500     1.6309   100.7127     1.0000     0.4354    18.9419     1.6350     1.7209  1388.0588     0.2958  -735.9849    -999.25   142.1210     0.3168     0.3168 21154.3438     2.1305     1.6347     1.6347     2.6721     1.0000     1.0000     1.0000 -1306.7488     4.7010     0.3168     6.0000
  1388.2112  6413.6406 6413640.5000    -999.25  -639.2500    12.4100    12.4100  -639.2500     1.6484   101.0853     1.0000     0.4287    19.9155     1.6326     1.7192  1388.2112     0.2966  -736.0708    -999.25   149.8434     0.3178     0.3178 21042.1270     2.1271     1.6330     1.6330     2.6667     1.0000     1.0000     1.0000 -1306.9012     4.5100     0.3178     6.0000
  1388.3636  6378.7246 6378725.0000    -999.25  -639.2500    12.3992    12.3992  -639.2500     1.6783   101.5101     1.0000     0.4220    21.7962     1.6367     1.7236  1388.3636     0.2955  -736.1566    -999.25   153.8773     0.3178     0.3178 20927.5742     2.1244     1.6380     1.6380     2.6831     1.0000     1.0000     1.0000 -1307.0536     4.1550     0.3178     6.0000
  1388.5160  6353.2656 6353265.5000    -999.25  -639.2500    12.3928    12.3928  -639.2500     1.7007   101.8876     1.0000     0.4153    23.4492     1.6482     1.7370  1388.5160     0.2946  -736.2424    -999.25   152.2105     0.3166     0.3166 20844.0469     2.1237     1.6488     1.6488     2.7185     1.0000     1.0000     1.0000 -1307.2061     4.0370     0.3166     6.0000
  1388.6684  6347.0449 6347045.0000    -999.25  -639.2500    12.3887    12.3887  -639.2500     1.7464   102.0302     1.0000     0.4086    23.9047     1.6527     1.7488  1388.6685     0.2944  -736.3283    -999.25   149.9162     0.3159     0.3159 20823.6387     2.1246     1.6512     1.6512     2.7265     1.0000     1.0000     1.0000 -1307.3584     4.1320     0.3159     6.0000
  1388.8208  6360.5942 6360594.5000    -999.25  -639.2500    12.3847    12.3847  -639.2500     1.7526   101.7716     1.0000     0.4018    23.5849     1.6386     1.7413  1388.8208     0.2964  -736.4141    -999.25   154.7604     0.3173     0.3173 20868.0918     2.1238     1.6360     1.6360     2.6765     1.0000     1.0000     1.0000 -1307.5109     4.4450     0.3173     6.0000
  1388.9732  6405.8398 6405840.0000    -999.25  -639.2500    12.3692    12.3692  -639.2500     1.7805   101.2208     1.0000     0.3951    23.0973     1.6150     1.7170  1388.9733     0.3009  -736.4999    -999.25   148.7341     0.3170     0.3170 21016.5352     2.1273     1.6141     1.6141     2.6054     1.0000     1.0000     1.0000 -1307.6632     5.5670     0.3170     6.0000
  1389.1256  6461.6318 6461631.5000    -999.25  -639.2500    12.3289    12.3289  -639.2500     1.7188   100.6888     1.0000     0.3884    23.5493     1.6084     1.7057  1389.1256     0.3059  -736.5858    -999.25   130.9950     0.3142     0.3142 21199.5781     2.1346     1.6110     1.6110     2.5954     1.0000     1.0000     1.0000 -1307.8157     7.0870     0.3142     6.0000
  1389.2780  6479.7383 6479738.0000    -999.25  -639.2500    12.2784    12.2784  -639.2500     1.6968   100.5232     1.0000     0.3817    25.2099     1.6344     1.7250  1389.2781     0.3088  -736.6716    -999.25   122.3239     0.3122     0.3122 21258.9844     2.1370     1.6394     1.6394     2.6876     1.0000     1.0000     1.0000 -1307.9680     7.8300     0.3122     6.0000
  1389.4304  6447.0469 6447047.0000    -999.25  -639.2500    12.3019    12.3019  -639.2500     1.7244   100.7866     1.0000     0.3750    26.8885     1.6812     1.7610  1389.4304     0.3098  -736.7574    -999.25   128.3512     0.3133     0.3133 21151.7285     2.1318     1.6866     1.6866     2.8447     1.0000     1.0000     1.0000 -1308.1205     7.5750     0.3133     6.0000
