~Version ---------------------------------------------------
VERS. 2.0 : CWLS log ASCII Standard -VERSION 2.0
WRAP.  NO : 
~Well ------------------------------------------------------
STRT.m                                                 1185.062 : 
STOP.m                                                1563.9284 : 
STEP.m                                                   0.1524 : 
NULL.                                                   -999.25 : 
COMP.                                                           : COMPANY
WELL.                                                    Well-8 : WELL
FLD .                                                           : FIELD
LOC .                                                           : LOCATION
SRVC.                                                           : SERVICE COMPANY
DATE. 2021-01-20 14:34:03   : Log Export Date {yyyy-MM-dd HH:mm : ss}
PROV.                                                           : PROVINCE
UWI .                                                    Well-8 : UNIQUE WELL ID
API .                                                           : API NUMBER
~Curve Information -----------------------------------------
DEPTH             .m        : DEPTH
ACOUSTICIMPEDANCE1.kPa.s/m  : ACOUSTICIMPEDANCE1
AI                .kPa.s/m  : AI
AVG_PIGN          .m3/m3    : AVG_PIGN
AZI1              .deg      : AZI1
CALI              .in       : CALI
CALI[DERIVED]1    .in       : CALI[DERIVED]1
DEVI              .deg      : DEVI
DFL               .ohm.m    : DFL
DT                .us/ft    : DT
FACIES            ._        : FACIES
FLD1              ._        : FLD1
GR                .gAPI     : GR
HDRS              .ohm.m    : HDRS
HMRS              .ohm.m    : HMRS
DEPTH_1           .m        : DEPTH_1
NPHI              .m3/m3    : NPHI
ONE-WAYTIME1      .ms       : ONE-WAYTIME1
PERF_INT          ._        : PERF_INT
PERMEABILITY      .mD       : PERMEABILITY
PIGN              .m3/m3    : PIGN
PIGN_MODELLING    .m3/m3    : PIGN_MODELLING
PIMP              .kPa.s/m  : PIMP
RHOB              .g/cm3    : RHOB
LLD               .ohm.m    : LLD
RT_MODELLING      .ohm.m    : RT_MODELLING
RT_POWER          .ohm.m    : RT_POWER
SUWI              ._        : SUWI
SUWI_MODELLING    ._        : SUWI_MODELLING
SXWI              ._        : SXWI
TDVSS             .m        : TDVSS
VCL               .%        : VCL
WATER_VOL         ._        : WATER_VOL
ZLT               ._        : ZLT
~Params ----------------------------------------------------
~Other -----------------------------------------------------
~ASCII -----------------------------------------------------
# ...
  1560.5756  5270.6626 5270663.0000    -999.25  -639.2500    12.9998    12.9998  -639.2500     2.1958   129.6741     0.0000    -999.25    31.0340     1.8492 20000.0000  1560.5757     0.6528  -833.1496    -999.25    -999.25     0.0231     0.0231 17292.2012     2.2424     1.8545     1.8545     3.4390     1.0000     1.0000     1.0000 -1479.2656    86.1380     0.0231    -999.25
  1560.7280  5907.1543 5907154.5000    -999.25  -639.2500    13.0390    13.0390  -639.2500     2.2925   117.3720     0.0000    -999.25    31.3358     1.8982 20000.0000  1560.7280     0.6644  -833.2354    -999.25    -999.25     0.0191     0.0191 19380.4277     2.2747     1.9039     1.9039     3.6249     1.0000     1.0000     1.0000 -1479.4181    88.5250     0.0191    -999.25
  1560.8804  6749.5557 6749555.5000    -999.25  -639.2500    13.0327    13.0327  -639.2500     2.4563   104.5962     0.0000    -999.25    32.0390     1.9426 20000.0000  1560.8805     0.6666  -833.3212    -999.25    -999.25     0.0169     0.0169 22144.2109     2.3162     1.9319     1.9319     3.7322     1.0000     1.0000     1.0000 -1479.5704    89.8870     0.0169    -999.25
  1561.0328  7340.0942 7340094.0000    -999.25  -639.2500    13.0211    13.0211  -639.2500     2.5036    97.3325     0.0000    -999.25    32.2165     1.8398 20000.0000  1561.0328     0.6587  -833.4071    -999.25    -999.25     0.0172     0.0172 24081.6738     2.3439     1.8223     1.8223     3.3207     1.0000     1.0000     1.0000 -1479.7228    89.7050     0.0172    -999.25
  1561.1852  8185.4141 8185414.0000    -999.25  -639.2500    13.1258    13.1258  -639.2500     2.2393    87.3803     0.0000    -999.25    30.9317     1.6873 20000.0000  1561.1852     0.6428  -833.4929    -999.25    -999.25     0.0208     0.0208 26855.0332     2.3466     1.6884     1.6884     2.8507     1.0000     1.0000     1.0000 -1479.8752    87.5110     0.0208    -999.25
  1561.3376 10792.9990 10792999.0000    -999.25  -639.2500    13.2650    13.2650  -639.2500     2.0330    65.5779     0.0000    -999.25    29.2421     1.7059 20000.0000  1561.3376     0.6255  -833.5787    -999.25    -999.25     0.0270     0.0270 35410.1016     2.3221     1.7229     1.7229     2.9683     1.0000     1.0000     1.0000 -1480.0276    83.7830     0.0270    -999.25
  1561.4900 12434.1592 12434160.0000    -999.25  -639.2500    13.2039    13.2039  -639.2500     2.1458    55.9929     0.0000    -999.25    27.6169     1.8632 20000.0000  1561.4900     0.6133  -833.6646    -999.25    -999.25     0.0328     0.0328 40794.4883     2.2842     1.8798     1.8798     3.5335     1.0000     1.0000     1.0000 -1480.1801    80.3380     0.0328    -999.25
  1561.6424 12435.6670 12435667.0000    -999.25  -639.2500    12.9881    12.9881  -639.2500     2.4187    55.8103     0.0000    -999.25    25.9460     2.0121 20000.0000  1561.6425     0.6060  -833.7504    -999.25    -999.25     0.0356     0.0356 40799.4297     2.2770     2.0194     2.0194     4.0781     1.0000     1.0000     1.0000 -1480.3324    78.6130     0.0356    -999.25
  1561.7948 12488.9023 12488903.0000    -999.25  -639.2500    12.8653    12.8653  -639.2500     2.6294    56.1958     0.0000    -999.25    25.3195     2.0772 20000.0000  1561.7948     0.5983  -833.8362    -999.25    -999.25     0.0369     0.0369 40974.0898     2.3026     2.0783     2.0783     4.3194     1.0000     1.0000     1.0000 -1480.4849    77.8610     0.0369    -999.25
  1561.9472 12366.5967 12366597.0000    -999.25  -639.2500    12.8725    12.8725  -639.2500     2.6273    57.2102     0.0000    -999.25    26.1275     2.0868 20000.0000  1561.9473     0.5871  -833.9221    -999.25    -999.25     0.0388     0.0388 40572.8242     2.3212     2.0862     2.0862     4.3522     1.0000     1.0000     1.0000 -1480.6372    76.6900     0.0388    -999.25
  1562.0996 10717.6865 10717687.0000    -999.25  -639.2500    12.8908    12.8908  -639.2500     2.6409    66.1573     0.0000    -999.25    27.2153     2.0802 20000.0000  1562.0996     0.5736  -834.0079    -999.25    -999.25     0.0417     0.0417 35163.0117     2.3263     2.0775     2.0775     4.3159     1.0000     1.0000     1.0000 -1480.7897    74.9920     0.0417    -999.25
  1562.2520  7917.2461 7917246.0000    -999.25  -639.2500    12.9001    12.9001  -639.2500     2.6780    89.7540     0.0000    -999.25    29.3314     2.0537 20000.0000  1562.2521     0.5617  -834.0938    -999.25    -999.25     0.0437     0.0437 25975.2168     2.3314     2.0487     2.0487     4.1971     1.0000     1.0000     1.0000 -1480.9420    73.8020     0.0437    -999.25
  1562.4044  5826.3384 5826338.5000    -999.25  -639.2500    12.8998    12.8998  -639.2500     2.6259   122.1107     0.0000    -999.25    32.5654     2.0063 20000.0000  1562.4044     0.5578  -834.1796    -999.25    -999.25     0.0434     0.0434 19115.2832     2.3342     1.9999     1.9999     3.9994     1.0000     1.0000     1.0000 -1481.0945    73.9420     0.0434    -999.25
  1562.5568  4855.1670 4855167.0000    -999.25  -639.2500    12.8983    12.8983  -639.2500     2.4495   146.2814     0.0000    -999.25    34.8830     1.9474 20000.0000  1562.5569     0.5654  -834.2654    -999.25    -999.25     0.0408     0.0408 15929.0244     2.3301     1.9424     1.9424     3.7729     1.0000     1.0000     1.0000 -1481.2468    75.4900     0.0408    -999.25
  1562.7092  4590.0161 4590016.0000    -999.25  -639.2500    12.9019    12.9019  -639.2500     2.3170   154.4062     0.0000    -999.25    35.7589     1.9025 20000.0000  1562.7092     0.5800  -834.3513    -999.25    -999.25     0.0371     0.0371 15059.1074     2.3252     1.8998     1.8998     3.6093     1.0000     1.0000     1.0000 -1481.3993    77.7290     0.0371    -999.25
  1562.8616  4568.4878 4568488.0000    -999.25  -639.2500    12.9009    12.9009  -639.2500     2.2724   154.9370     0.0000    -999.25    35.5522     1.8789 20000.0000  1562.8617     0.5923  -834.4371    -999.25    -999.25     0.0344     0.0344 14988.4775     2.3223     1.8790     1.8790     3.5306     1.0000     1.0000     1.0000 -1481.5516    79.3770     0.0344    -999.25
  1563.0140  4596.4839 4596484.0000    -999.25  -639.2500    12.8975    12.8975  -639.2500     2.2554   154.1777     0.0000    -999.25    34.3176     1.8842 20000.0000  1563.0140     0.5952  -834.5229    -999.25    -999.25     0.0340     0.0340 15080.3281     2.3251     1.8926     1.8926     3.5820     1.0000     1.0000     1.0000 -1481.7040    79.6280     0.0340    -999.25
  1563.1664  4690.4478 4690448.0000    -999.25  -639.2500    12.8991    12.8991  -639.2500     2.2888   153.0515     0.0000    -999.25    32.4983     1.9669 20000.0000  1563.1664     0.5874  -834.6088    -999.25    -999.25     0.0350     0.0350 15388.6084     2.3552     1.9844     1.9844     3.9380     1.0000     1.0000     1.0000 -1481.8564    78.9760     0.0350    -999.25
  1563.3188  4865.2720 4865272.0000    -999.25  -639.2500    12.9023    12.9023  -639.2500     2.5787   151.7186     0.0000    -999.25    31.4900     2.1267 20000.0000  1563.3188     0.5698  -834.6946    -999.25    -999.25     0.0364     0.0364 15962.1787     2.4218     2.1384     2.1384     4.5725     1.0000     1.0000     1.0000 -1482.0088    78.1850     0.0364    -999.25
  1563.4712  5031.9082 5031908.0000    -999.25  -639.2500    12.9032    12.9032  -639.2500     2.9814   150.7873     0.0000    -999.25    30.8619     2.2237 20000.0000  1563.4712     0.5482  -834.7805    -999.25    -999.25     0.0375     0.0375 16508.8848     2.4893     2.2136     2.2136     4.8999     1.0000     1.0000     1.0000 -1482.1613    76.9030     0.0375    -999.25
  1563.6236  5079.7432 5079743.0000    -999.25  -639.2500    12.9121    12.9121  -639.2500     3.0027   150.6112     0.0000    -999.25    29.9548     2.1251 20000.0000  1563.6237     0.5339  -834.8663    -999.25    -999.25     0.0383     0.0383 16665.8242     2.5101     2.1059     2.1059     4.4348     1.0000     1.0000     1.0000 -1482.3136    73.8980     0.0383    -999.25
  1563.7760  4993.3301 4993330.0000    -999.25  -639.2500    12.8231    12.8231  -639.2500     2.5969   150.2168     0.0000    -999.25    29.1019     1.9501 19907.5703  1563.7760     0.5405  -834.9521    -999.25    -999.25     0.0396     0.0396 16382.3164     2.4609     1.9365     1.9365     3.7500     1.0000     1.0000     1.0000 -1482.4661    76.2250     0.0396    -999.25
