~Version ---------------------------------------------------
VERS. 2.0 : CWLS log ASCII Standard -VERSION 2.0
WRAP.  NO : 
~Well ------------------------------------------------------
STRT.m                                                 1185.062 : 
STOP.m                                                1563.9284 : 
STEP.m                                                   0.1524 : 
NULL.                                                   -999.25 : 
COMP.                                                           : COMPANY
WELL.                                                    Well-8 : WELL
FLD .                                                           : FIELD
LOC .                                                           : LOCATION
SRVC.                                                           : SERVICE COMPANY
DATE. 2021-01-20 14:34:03   : Log Export Date {yyyy-MM-dd HH:mm : ss}
PROV.                                                           : PROVINCE
UWI .                                                    Well-8 : UNIQUE WELL ID
API .                                                           : API NUMBER
~Curve Information -----------------------------------------
DEPTH             .m        : DEPTH
ACOUSTICIMPEDANCE1.kPa.s/m  : ACOUSTICIMPEDANCE1
AI                .kPa.s/m  : AI
AVG_PIGN          .m3/m3    : AVG_PIGN
AZI1              .deg      : AZI1
CALI              .in       : CALI
CALI[DERIVED]1    .in       : CALI[DERIVED]1
DEVI              .deg      : DEVI
DFL               .ohm.m    : DFL
DT                .us/ft    : DT
FACIES            ._        : FACIES
FLD1              ._        : FLD1
GR                .gAPI     : GR
HDRS              .ohm.m    : HDRS
HMRS              .ohm.m    : HMRS
DEPTH_1           .m        : DEPTH_1
NPHI              .m3/m3    : NPHI
ONE-WAYTIME1      .ms       : ONE-WAYTIME1
PERF_INT          ._        : PERF_INT
PERMEABILITY      .mD       : PERMEABILITY
PIGN              .m3/m3    : PIGN
PIGN_MODELLING    .m3/m3    : PIGN_MODELLING
PIMP              .kPa.s/m  : PIMP
RHOB              .g/cm3    : RHOB
LLD               .ohm.m    : LLD
RT_MODELLING      .ohm.m    : RT_MODELLING
RT_POWER          .ohm.m    : RT_POWER
SUWI              ._        : SUWI
SUWI_MODELLING    ._        : SUWI_MODELLING
SXWI              ._        : SXWI
TDVSS             .m        : TDVSS
VCL               .%        : VCL
WATER_VOL         ._        : WATER_VOL
ZLT               ._        : ZLT
~Params ----------------------------------------------------
~Other -----------------------------------------------------
~ASCII -----------------------------------------------------
# ...
  1258.8236  4755.7095 4755709.5000    -999.25  -639.2500    12.6674    12.6674  -639.2500     1.0682   142.2489     0.0000    -999.25    44.3329     0.9356     0.9379  1258.8236     0.6999  -663.1973    -999.25    -999.25     0.0150     0.0150 15602.7217     2.2195     0.9352     0.9352     0.8745     1.0000     1.0000     1.0000 -1177.5137    96.5620     0.0150    -999.25
  1258.9760  4759.1641 4759164.0000    -999.25  -639.2500    12.6402    12.6402  -639.2500     1.0498   141.1427     0.0000    -999.25    43.3374     0.9321     0.9434  1258.9761     0.7179  -663.2831    -999.25    -999.25     0.0150     0.0150 15614.0557     2.2038     0.9324     0.9324     0.8694     1.0000     1.0000     1.0000 -1177.6660    99.1910     0.0150    -999.25
  1259.1284  4804.9756 4804975.5000    -999.25  -639.2500    12.6278    12.6278  -639.2500     1.0323   140.0482     0.0000    -999.25    43.6948     0.9357     0.9548  1259.1284     0.7295  -663.3690    -999.25    -999.25     0.0150     0.0150 15764.3555     2.2078     0.9374     0.9374     0.8787     1.0000     1.0000     1.0000 -1177.8185    99.9530     0.0150    -999.25
  1259.2808  4833.6099 4833610.0000    -999.25  -639.2500    12.6352    12.6352  -639.2500     1.0653   139.6089     0.0000    -999.25    45.0677     0.9518     0.9751  1259.2809     0.7185  -663.4548    -999.25    -999.25     0.0150     0.0150 15858.3008     2.2140     0.9551     0.9551     0.9121     1.0000     1.0000     1.0000 -1177.9708    98.7600     0.0150    -999.25
  1259.4332  4816.2495 4816249.5000    -999.25  -639.2500    12.6718    12.6718  -639.2500     1.0891   139.8476     0.0000    -999.25    46.0382     0.9837     1.0086  1259.4332     0.6816  -663.5406    -999.25    -999.25     0.0163     0.0163 15801.3438     2.2098     0.9898     0.9898     0.9797     1.0000     1.0000     1.0000 -1178.1233    92.4530     0.0163    -999.25
  1259.5856  4804.9644 4804964.5000    -999.25  -639.2500    12.7183    12.7183  -639.2500     1.1237   140.2350     0.0000    -999.25    45.9908     1.0421     1.0642  1259.5857     0.6357  -663.6265    -999.25    -999.25     0.0250     0.0250 15764.3193     2.2107     1.0510     1.0510     1.1046     1.0000     1.0000     1.0000 -1178.2756    85.0160     0.0250    -999.25
  1259.7380  4841.8643 4841864.5000    -999.25  -639.2500    12.7336    12.7336  -639.2500     1.2407   140.7105     0.0000    -999.25    45.7628     1.1236     1.1399  1259.7380     0.5984  -663.7123    -999.25    -999.25     0.0342     0.0342 15885.3818     2.2352     1.1310     1.1310     1.2791     1.0000     1.0000     1.0000 -1178.4280    79.3480     0.0342    -999.25
  1259.8904  4904.4043 4904404.5000    -999.25  -639.2500    12.6941    12.6941  -639.2500     1.4355   141.1777     0.0000    -999.25    46.8908     1.1884     1.2023  1259.8904     0.5764  -663.7982    -999.25    -999.25     0.0348     0.0348 16090.5654     2.2716     1.1888     1.1888     1.4132     1.0000     1.0000     1.0000 -1178.5804    76.8430     0.0348    -999.25
  1260.0428  4971.8813 4971881.5000    -999.25  -639.2500    12.6237    12.6237  -639.2500     1.5346   140.6908     0.0000    -999.25    48.8617     1.1882     1.2003  1260.0428     0.5677  -663.8840    -999.25    -999.25     0.0199     0.0199 16311.9463     2.2949     1.1810     1.1810     1.3948     1.0000     1.0000     1.0000 -1178.7328    78.1660     0.0199    -999.25
  1260.1952  4980.9385 4980938.5000    -999.25  -639.2500    12.5564    12.5564  -639.2500     1.4941   140.8590     0.0000    -999.25    49.9138     1.1204     1.1314  1260.1952     0.5659  -663.9698    -999.25    -999.25     0.0196     0.0196 16341.6621     2.3019     1.1100     1.1100     1.2322     1.0000     1.0000     1.0000 -1178.8853    78.4220     0.0196    -999.25
  1260.3476  4796.6489 4796649.0000    -999.25  -639.2500    12.4978    12.4978  -639.2500     1.3077   145.5744     0.0000    -999.25    49.8883     1.0256     1.0376  1260.3477     0.5645  -664.0557    -999.25    -999.25     0.0218     0.0218 15737.0371     2.2909     1.0178     1.0178     1.0358     1.0000     1.0000     1.0000 -1179.0376    77.4580     0.0218    -999.25
  1260.5000  4456.6436 4456643.5000    -999.25  -639.2500    12.4335    12.4335  -639.2500     1.0813   154.4318     0.0000    -999.25    48.1066     0.9556     0.9692  1260.5000     0.5611  -664.1415    -999.25    -999.25     0.0335     0.0335 14621.5342     2.2580     0.9528     0.9528     0.9078     1.0000     1.0000     1.0000 -1179.1901    74.5210     0.0335    -999.25
  1260.6524  4265.3496 4265349.5000    -999.25  -639.2500    12.3716    12.3716  -639.2500     0.9963   160.8004     0.0000    -999.25    44.5823     0.9309     0.9445  1260.6525     0.5566  -664.2273    -999.25    -999.25     0.0425     0.0425 13993.9297     2.2502     0.9305     0.9305     0.8659     1.0000     1.0000     1.0000 -1179.3424    72.6780     0.0425    -999.25
  1260.8048  4343.5635 4343563.5000    -999.25  -639.2500    12.3203    12.3203  -639.2500     0.9949   160.3715     0.0000    -999.25    42.0042     0.9278     0.9378  1260.8048     0.5521  -664.3132    -999.25    -999.25     0.0233     0.0233 14250.5361     2.2854     0.9281     0.9281     0.8615     1.0000     1.0000     1.0000 -1179.4949    74.6740     0.0233    -999.25
  1260.9572  4540.1792 4540179.5000    -999.25  -639.2500    12.2721    12.2721  -639.2500     1.0120   155.8359     0.0000    -999.25    41.1386     0.9324     0.9396  1260.9573     0.5491  -664.3990    -999.25    -999.25     0.0228     0.0228 14895.6016     2.3213     0.9352     0.9352     0.8746     1.0000     1.0000     1.0000 -1179.6472    74.9180     0.0228    -999.25
  1261.1096  4705.9673 4705967.5000    -999.25  -639.2500    12.2628    12.2628  -639.2500     1.0194   152.5831     0.0000    -999.25    40.7415     0.9597     0.9634  1261.1096     0.5482  -664.4848    -999.25    -999.25     0.0216     0.0216 15439.5254     2.3558     0.9655     0.9655     0.9321     1.0000     1.0000     1.0000 -1179.7997    76.2870     0.0216    -999.25
  1261.2620  4781.4253 4781425.0000    -999.25  -639.2500    12.3735    12.3735  -639.2500     1.1297   152.8116     0.0000    -999.25    40.1515     1.0125     1.0128  1261.2621     0.5457  -664.5707    -999.25    -999.25     0.0205     0.0205 15687.0898     2.3972     1.0165     1.0165     1.0333     1.0000     1.0000     1.0000 -1179.9520    77.4750     0.0205    -999.25
  1261.4144  4718.1011 4718101.0000    -999.25  -639.2500    12.5779    12.5779  -639.2500     1.2674   154.7360     0.0000    -999.25    39.6490     1.0470     1.0498  1261.4144     0.5426  -664.6565    -999.25    -999.25     0.0212     0.0212 15479.3330     2.3952     1.0465     1.0465     1.0952     1.0000     1.0000     1.0000 -1180.1045    76.7350     0.0212    -999.25
  1261.5668  4601.1060 4601105.5000    -999.25  -639.2500    12.7385    12.7385  -639.2500     1.2632   154.9668     0.0000    -999.25    40.4035     1.0410     1.0505  1261.5669     0.5496  -664.7423    -999.25    -999.25     0.0222     0.0222 15095.4912     2.3393     1.0384     1.0384     1.0782     1.0000     1.0000     1.0000 -1180.2568    75.8560     0.0222    -999.25
  1261.7192  4585.6440 4585644.5000    -999.25  -639.2500    12.7761    12.7761  -639.2500     1.2162   152.0383     0.0000    -999.25    42.2040     1.0152     1.0282  1261.7192     0.5757  -664.8282    -999.25    -999.25     0.0231     0.0231 15044.7646     2.2874     1.0106     1.0106     1.0212     1.0000     1.0000     1.0000 -1180.4092    78.5270     0.0231    -999.25
  1261.8716  4627.8477 4627847.5000    -999.25  -639.2500    12.7070    12.7070  -639.2500     1.1804   148.1635     0.0000    -999.25    43.7541     0.9715     0.9827  1261.8716     0.6143  -664.9140    -999.25    -999.25     0.0289     0.0289 15183.2266     2.2496     0.9659     0.9659     0.9330     1.0000     1.0000     1.0000 -1180.5616    82.6850     0.0289    -999.25
  1262.0240  4652.1079 4652108.0000    -999.25  -639.2500    12.6121    12.6121  -639.2500     1.1002   145.9009     0.0000    -999.25    44.5592     0.9209     0.9286  1262.0240     0.6492  -664.9998    -999.25    -999.25     0.0200     0.0200 15262.8223     2.2269     0.9179     0.9179     0.8425     1.0000     1.0000     1.0000 -1180.7140    88.0050     0.0200    -999.25
