~Version ---------------------------------------------------
VERS. 2.0 : CWLS log ASCII Standard -VERSION 2.0
WRAP.  NO : 
~Well ------------------------------------------------------
STRT.m                                                1187.6524 : 
STOP.m                                                1658.2636 : 
STEP.m                                                   0.1524 : 
NULL.                                                   -999.25 : 
COMP.                                                           : COMPANY
WELL.                                                   Well-19 : WELL
FLD .                                                           : FIELD
LOC .                                                           : LOCATION
SRVC.                                                           : SERVICE COMPANY
DATE. 2021-01-20 14:34:11   : Log Export Date {yyyy-MM-dd HH:mm : ss}
PROV.                                                           : PROVINCE
UWI .                                                   Well-19 : UNIQUE WELL ID
API .                                                           : API NUMBER
~Curve Information -----------------------------------------
DEPTH             .m        : DEPTH
ACOUSTICIMPEDANCE1.kPa.s/m  : ACOUSTICIMPEDANCE1
AI                .kPa.s/m  : AI
AVG_PIGN          .m3/m3    : AVG_PIGN
CALI              .in       : CALI
NPHI              .m3/m3    : NPHI
DT                .us/ft    : DT
DT4P              .us/ft    : DT4P
FACIES            ._        : FACIES
FLD1              ._        : FLD1
GR                .gAPI     : GR
M2R2              .ohm.m    : M2R2
LLS               .ohm.m    : LLS
LLD               .ohm.m    : LLD
DEPTH_1           .m        : DEPTH_1
NPHI_1            .m3/m3    : NPHI_1
PEF               .b/e      : PEF
PERF_INT          ._        : PERF_INT
PERMEABILITY      .mD       : PERMEABILITY
PIGN              .m3/m3    : PIGN
PIGN_MODELLING    .m3/m3    : PIGN_MODELLING
PIMP              .kPa.s/m  : PIMP
RHOB              .g/cm3    : RHOB
LLD_1             .ohm.m    : LLD_1
RT_MODELLING      .ohm.m    : RT_MODELLING
RT_POWER          .ohm.m    : RT_POWER
SP                .mV       : SP
SPDH              .mV       : SPDH
SUWI              ._        : SUWI
SUWI_MODELLING    ._        : SUWI_MODELLING
TDVSS             .m        : TDVSS
TEMP              .K        : TEMP
VCL               .%        : VCL
WATER_VOL         ._        : WATER_VOL
RHOB_1            .g/cm3    : RHOB_1
ZLT               ._        : ZLT
~Params ----------------------------------------------------
~Other -----------------------------------------------------
~ASCII -----------------------------------------------------
# ...
  1373.2756  5574.0791 5574079.0000    -999.25     9.7210     0.4786   129.5245   129.5245     0.0000    -999.25   112.3802     1.3648     1.3611     1.4040  1373.2755     0.4786     6.1729    -999.25    -999.25     0.0584     0.0584 18287.6621     2.3687     1.2242     1.2242     1.4986   -61.0096   307.9480     1.0000     1.0000 -1238.2090   151.5063    63.9170     0.0584     2.3687     0.0000
  1373.4280  5597.8076 5597807.5000    -999.25     9.7004     0.4681   128.9972   128.9972     0.0000    -999.25   113.8965     1.4167     1.4077     1.4534  1373.4280     0.4681     6.1448    -999.25    -999.25     0.0591     0.0591 18365.5098     2.3691     1.2672     1.2672     1.6059   -61.3412   307.9969     1.0000     1.0000 -1238.3480   151.5141    63.4170     0.0591     2.3691     0.0000
  1373.5804  5539.2979 5539297.5000    -999.25     9.6888     0.4857   129.7050   129.7050     0.0000    -999.25   115.7481     1.4409     1.4281     1.4749  1373.5803     0.4857     6.1832    -999.25    -999.25     0.0550     0.0550 18173.5488     2.3572     1.2861     1.2861     1.6540   -61.9057   307.3282     1.0000     1.0000 -1238.4871   151.5218    65.9420     0.0550     2.3572     0.0000
  1373.7328  5466.6665 5466666.5000    -999.25     9.6876     0.5238   130.6756   130.6756     0.0000    -999.25   118.1826     1.4401     1.4246     1.4709  1373.7328     0.5238     6.1603    -999.25    -999.25     0.0522     0.0522 17935.2578     2.3437     1.2826     1.2826     1.6451   -62.4287   306.4118     1.0000     1.0000 -1238.6262   151.5295    67.7200     0.0522     2.3437     0.0000
  1373.8852  5407.3599 5407360.0000    -999.25     9.6970     0.5572   131.4831   131.4831     0.0000    -999.25   119.5362     1.4124     1.3942     1.4381  1373.8851     0.5572     6.1416    -999.25    -999.25     0.0398     0.0398 17740.6836     2.3326     1.2541     1.2541     1.5728   -62.5611   305.7992     1.0000     1.0000 -1238.7653   151.5372    75.2540     0.0398     2.3326     0.0000
  1374.0376  5352.3267 5352327.0000    -999.25     9.6988     0.5782   132.3965   132.3965     0.0000    -999.25   117.9118     1.3803     1.3582     1.3990  1374.0376     0.5782     6.1079    -999.25    -999.25     0.0327     0.0327 17560.1270     2.3249     1.2200     1.2200     1.4884   -62.4423   305.5792     1.0000     1.0000 -1238.9043   151.5449    79.6730     0.0327     2.3249     0.0000
  1374.1900  5346.0469 5346047.0000    -999.25     9.6852     0.5679   132.3924   132.3924     0.0000    -999.25   114.8812     1.3784     1.3499     1.3890  1374.1899     0.5679     6.0671    -999.25    -999.25     0.0373     0.0373 17539.5234     2.3221     1.2112     1.2112     1.4671   -62.3294   305.7161     1.0000     1.0000 -1239.0433   151.5526    76.9550     0.0373     2.3221     0.0000
  1374.3424  5411.4985 5411498.5000    -999.25     9.6746     0.5258   131.1516   131.1516     0.0000    -999.25   112.8199     1.4234     1.3846     1.4245  1374.3423     0.5258     6.0638    -999.25    -999.25     0.0473     0.0473 17754.2598     2.3285     1.2421     1.2421     1.5428   -62.2761   306.1071     1.0000     1.0000 -1239.1824   151.5603    70.8060     0.0473     2.3285     0.0000
  1374.4948  5511.0459 5511046.0000    -999.25     9.6971     0.5022   129.4518   129.4518     0.0000    -999.25   111.4359     1.4840     1.4323     1.4732  1374.4948     0.5022     6.0813    -999.25    -999.25     0.0521     0.0521 18080.8594     2.3406     1.2845     1.2845     1.6500   -62.3681   306.3418     1.0000     1.0000 -1239.3215   151.5680    67.8140     0.0521     2.3406     0.0000
  1374.6472  5579.9287 5579929.0000    -999.25     9.7444     0.4990   128.0886   128.0886     0.0000    -999.25   110.6568     1.4491     1.3919     1.4285  1374.6471     0.4990     6.1237    -999.25    -999.25     0.0489     0.0489 18306.8535     2.3449     1.2457     1.2457     1.5519   -62.5182   306.1420     1.0000     1.0000 -1239.4606   151.5758    69.7900     0.0489     2.3449     0.0000
  1374.7996  5501.5327 5501532.5000    -999.25     9.7749     0.4984   130.4181   130.4181     0.0000    -999.25   112.3027     1.3597     1.3043     1.3343  1374.7996     0.4984     6.2382    -999.25    -999.25     0.0517     0.0517 18049.6484     2.3540     1.1637     1.1637     1.3542   -62.4885   305.7741     1.0000     1.0000 -1239.5996   151.5835    68.0480     0.0517     2.3540     0.0000
  1374.9520  5507.1704 5507170.5000    -999.25     9.7861     0.5033   130.2347   130.2347     0.0000    -999.25   115.9035     1.3579     1.2998     1.3275  1374.9519     0.5033     6.4245    -999.25    -999.25     0.0523     0.0523 18068.1445     2.3531     1.1576     1.1576     1.3400   -62.4247   305.4073     1.0000     1.0000 -1239.7386   151.5912    67.5660     0.0523     2.3531     0.0000
  1375.1044  5504.4966 5504496.5000    -999.25     9.8571     0.5222   129.9159   129.9159     0.0000    -999.25   117.0949     1.4353     1.3687     1.3973  1375.1044     0.5222     6.7148    -999.25    -999.25     0.0353     0.0353 18059.3711     2.3462     1.2183     1.2183     1.4842   -62.5611   305.0601     1.0000     1.0000 -1239.8777   151.5989    77.8780     0.0353     2.3462     0.0000
  1375.2568  5229.6782 5229678.0000    -999.25     9.9500     0.5211   138.3457   138.3457     0.0000    -999.25   115.2049     1.4206     1.3538     1.3798  1375.2567     0.5211     7.0566    -999.25    -999.25     0.0348     0.0348 17157.7363     2.3737     1.2032     1.2032     1.4477   -62.7840   304.9166     1.0000     1.0000 -1240.0167   151.6066    78.2430     0.0348     2.3737     0.0000
  1375.4092  5313.1885 5313188.5000    -999.25     9.9035     0.4773   140.9901   140.9901     0.0000    -999.25   112.5480     1.2894     1.2324     1.2526  1375.4092     0.4773     7.0158    -999.25    -999.25     0.0472     0.0472 17431.7207     2.4577     1.0926     1.0926     1.1937   -62.9001   305.0052     1.0000     1.0000 -1240.1559   151.6143    70.7930     0.0472     2.4577     0.0000
  1375.5616  5466.4751 5466475.0000    -999.25     9.7260     0.4365   141.1627   141.1627     0.0000    -999.25   107.0091     1.2733     1.2153     1.2343  1375.5615     0.4365     6.5514    -999.25    -999.25     0.0323     0.0323 17934.6289     2.5317     1.0763     1.0763     1.1585   -62.9742   304.9940     1.0000     1.0000 -1240.2949   151.6220    67.7670     0.0323     2.5317     0.0000
  1375.7140  5596.8477 5596848.0000    -999.25     9.5878     0.4280   140.1780   140.1780     0.0000    -999.25    96.0678     1.4928     1.4115     1.4366  1375.7140     0.4280     6.2000    -999.25    -999.25     0.0275     0.0275 18362.3613     2.5740     1.2523     1.2523     1.5682   -63.2102   304.7083     1.0000     1.0000 -1240.4340   151.6297    66.7540     0.0275     2.5740     0.0000
  1375.8664  5480.5645 5480564.5000    -999.25     9.5652     0.4479   139.5262   139.5262     0.0000    -999.25    85.8841     1.7798     1.6671     1.7027  1375.8663     0.4479     6.0893    -999.25    -999.25     0.0516     0.0516 17980.8555     2.5088     1.4842     1.4842     2.2027   -63.5989   304.2934     1.0000     1.0000 -1240.5730   151.6375    65.6690     0.0516     2.5088     0.0000
  1376.0188  5253.9614 5253961.5000    -999.25     9.6164     0.4708   139.5396   139.5396     0.0000    -999.25    86.0084     1.7207     1.6235     1.6581  1376.0188     0.4708     6.0416    -999.25    -999.25     0.0558     0.0558 17237.4062     2.4053     1.4460     1.4460     2.0908   -63.8448   304.1485     1.0000     1.0000 -1240.7120   151.6452    66.3560     0.0558     2.4053     0.0000
  1376.1712  5372.0898 5372090.0000    -999.25     9.7042     0.4862   134.0315   134.0315     0.0000    -999.25    95.2334     1.4221     1.3657     1.3913  1376.1711     0.4862     5.9842    -999.25    -999.25     0.0531     0.0531 17624.9668     2.3623     1.2138     1.2138     1.4733   -63.7307   304.5101     1.0000     1.0000 -1240.8512   151.6529    67.7300     0.0531     2.3623     0.0000
  1376.3236  5494.6895 5494689.5000    -999.25     9.7690     0.5067   130.0757   130.0757     0.0000    -999.25   105.7105     1.2866     1.2505     1.2730  1376.3235     0.5067     5.9387    -999.25    -999.25     0.0510     0.0510 18027.1973     2.3449     1.1103     1.1103     1.2328   -63.4195   305.0185     1.0000     1.0000 -1240.9902   151.6606    68.7320     0.0510     2.3449     0.0000
