~Version ---------------------------------------------------
VERS. 2.0 : CWLS log ASCII Standard -VERSION 2.0
WRAP.  NO : 
~Well ------------------------------------------------------
STRT.m                                                1187.6524 : 
STOP.m                                                1658.2636 : 
STEP.m                                                   0.1524 : 
NULL.                                                   -999.25 : 
COMP.                                                           : COMPANY
WELL.                                                   Well-19 : WELL
FLD .                                                           : FIELD
LOC .                                                           : LOCATION
SRVC.                                                           : SERVICE COMPANY
DATE. 2021-01-20 14:34:11   : Log Export Date {yyyy-MM-dd HH:mm : ss}
PROV.                                                           : PROVINCE
UWI .                                                   Well-19 : UNIQUE WELL ID
API .                                                           : API NUMBER
~Curve Information -----------------------------------------
DEPTH             .m        : DEPTH
ACOUSTICIMPEDANCE1.kPa.s/m  : ACOUSTICIMPEDANCE1
AI                .kPa.s/m  : AI
AVG_PIGN          .m3/m3    : AVG_PIGN
CALI              .in       : CALI
NPHI              .m3/m3    : NPHI
DT                .us/ft    : DT
DT4P              .us/ft    : DT4P
FACIES            ._        : FACIES
FLD1              ._        : FLD1
GR                .gAPI     : GR
M2R2              .ohm.m    : M2R2
LLS               .ohm.m    : LLS
LLD               .ohm.m    : LLD
DEPTH_1           .m        : DEPTH_1
NPHI_1            .m3/m3    : NPHI_1
PEF               .b/e      : PEF
PERF_INT          ._        : PERF_INT
PERMEABILITY      .mD       : PERMEABILITY
PIGN              .m3/m3    : PIGN
PIGN_MODELLING    .m3/m3    : PIGN_MODELLING
PIMP              .kPa.s/m  : PIMP
RHOB              .g/cm3    : RHOB
LLD_1             .ohm.m    : LLD_1
RT_MODELLING      .ohm.m    : RT_MODELLING
RT_POWER          .ohm.m    : RT_POWER
SP                .mV       : SP
SPDH              .mV       : SPDH
SUWI              ._        : SUWI
SUWI_MODELLING    ._        : SUWI_MODELLING
TDVSS             .m        : TDVSS
TEMP              .K        : TEMP
VCL               .%        : VCL
WATER_VOL         ._        : WATER_VOL
RHOB_1            .g/cm3    : RHOB_1
ZLT               ._        : ZLT
~Params ----------------------------------------------------
~Other -----------------------------------------------------
~ASCII -----------------------------------------------------
# ...
  1312.4680  4990.0859 4990086.0000    -999.25     8.9918     0.4782   133.4867   133.4867    -999.25    -999.25    75.8312     0.8281     0.9266     0.9940  1312.4679     0.4782     5.9395    -999.25    -999.25    -999.25    -999.25 16371.6729     2.1854    -999.25    -999.25    -999.25   -62.0193   311.8412    -999.25    -999.25 -1182.6523   148.4286    -999.25    -999.25     2.1854    -999.25
  1312.6204  5165.1968 5165197.0000    -999.25     9.2365     0.5245   129.5867   129.5867    -999.25    -999.25    79.2353     0.8142     0.9118     0.9765  1312.6204     0.5245     5.9906    -999.25    -999.25    -999.25    -999.25 16946.1836     2.1960    -999.25    -999.25    -999.25   -62.1247   311.3218    -999.25    -999.25 -1182.7906   148.4364    -999.25    -999.25     2.1960    -999.25
  1312.7728  5372.9336 5372933.5000    -999.25     9.4177     0.5399   126.7094   126.7094    -999.25    -999.25    83.5004     0.8199     0.9204     0.9843  1312.7727     0.5399     5.8104    -999.25    -999.25    -999.25    -999.25 17627.7344     2.2336    -999.25    -999.25    -999.25   -62.1209   310.8071    -999.25    -999.25 -1182.9290   148.4441    -999.25    -999.25     2.2336    -999.25
  1312.9252  5694.5024 5694502.5000    -999.25     9.5041     0.5169   122.8727   122.8727    -999.25    -999.25    83.6666     0.8413     0.9464     1.0108  1312.9252     0.5169     5.5255    -999.25    -999.25    -999.25    -999.25 18682.7500     2.2956    -999.25    -999.25    -999.25   -61.9724   310.6074    -999.25    -999.25 -1183.0674   148.4518    -999.25    -999.25     2.2956    -999.25
  1313.0776  5812.7793 5812779.5000    -999.25     9.5316     0.5008   121.5156   121.5156    -999.25    -999.25    78.4132     0.8900     1.0016     1.0680  1313.0775     0.5008     5.3429    -999.25    -999.25    -999.25    -999.25 19070.7988     2.3174    -999.25    -999.25    -999.25   -61.8508   310.5214    -999.25    -999.25 -1183.2061   148.4595    -999.25    -999.25     2.3174    -999.25
  1313.2300  5682.1411 5682141.0000    -999.25     9.5362     0.4827   123.7515   123.7515    -999.25    -999.25    72.1630     0.9954     1.1184     1.1901  1313.2300     0.4827     5.3459    -999.25    -999.25    -999.25    -999.25 18642.1953     2.3070    -999.25    -999.25    -999.25   -61.7100   310.4260    -999.25    -999.25 -1183.3450   148.4672    -999.25    -999.25     2.3070    -999.25
  1313.3824  5478.5015 5478501.5000    -999.25     9.5805     0.4631   127.8229   127.8229    -999.25    -999.25    69.5686     1.1101     1.2442     1.3205  1313.3823     0.4631     5.3794    -999.25    -999.25    -999.25    -999.25 17974.0859     2.2975    -999.25    -999.25    -999.25   -61.6242   310.5531    -999.25    -999.25 -1183.4839   148.4749    -999.25    -999.25     2.2975    -999.25
  1313.5348  5222.5229 5222523.0000    -999.25     9.6836     0.4691   133.0901   133.0901    -999.25    -999.25    71.4868     1.1198     1.2541     1.3271  1313.5348     0.4691     5.4477    -999.25    -999.25    -999.25    -999.25 17134.2617     2.2804    -999.25    -999.25    -999.25   -61.8505   310.9179    -999.25    -999.25 -1183.6228   148.4827    -999.25    -999.25     2.2804    -999.25
  1313.6872  5080.0039 5080004.0000    -999.25     9.7226     0.5125   135.1499   135.1499    -999.25    -999.25    73.9999     1.0270     1.1530     1.2161  1313.6871     0.5125     5.5271    -999.25    -999.25    -999.25    -999.25 16666.6797     2.2525    -999.25    -999.25    -999.25   -62.2393   311.1805    -999.25    -999.25 -1183.7617   148.4904    -999.25    -999.25     2.2525    -999.25
  1313.8396  4997.7993 4997799.5000    -999.25     9.6424     0.5651   135.7628   135.7628    -999.25    -999.25    76.2393     0.9189     1.0373     1.0902  1313.8396     0.5651     5.5045    -999.25    -999.25    -999.25    -999.25 16396.9805     2.2261    -999.25    -999.25    -999.25   -62.2708   311.2733    -999.25    -999.25 -1183.9006   148.4981    -999.25    -999.25     2.2261    -999.25
  1313.9920  5014.0645 5014064.5000    -999.25     9.5516     0.5809   134.6416   134.6416    -999.25    -999.25    80.1931     0.8451     0.9604     1.0057  1313.9919     0.5809     5.5047    -999.25    -999.25    -999.25    -999.25 16450.3438     2.2149    -999.25    -999.25    -999.25   -61.9624   311.4010    -999.25    -999.25 -1184.0396   148.5058    -999.25    -999.25     2.2149    -999.25
  1314.1444  5064.8188 5064819.0000    -999.25     9.5099     0.5451   133.3164   133.3164    -999.25    -999.25    85.5188     0.8173     0.9342     0.9749  1314.1443     0.5451     5.5068    -999.25    -999.25    -999.25    -999.25 16616.8594     2.2153    -999.25    -999.25    -999.25   -61.6810   311.5576    -999.25    -999.25 -1184.1785   148.5135    -999.25    -999.25     2.2153    -999.25
  1314.2968  5068.0059 5068006.0000    -999.25     9.4434     0.4983   133.1063   133.1063    -999.25    -999.25    88.3697     0.8287     0.9507     0.9888  1314.2968     0.4983     5.4924    -999.25    -999.25    -999.25    -999.25 16627.3164     2.2132    -999.25    -999.25    -999.25   -61.5245   311.5285    -999.25    -999.25 -1184.3174   148.5212    -999.25    -999.25     2.2132    -999.25
  1314.4492  5010.9653 5010965.5000    -999.25     9.3479     0.4650   134.2626   134.2626    -999.25    -999.25    86.2759     0.8537     0.9806     1.0170  1314.4491     0.4650     5.5011    -999.25    -999.25    -999.25    -999.25 16440.1758     2.2073    -999.25    -999.25    -999.25   -61.4520   311.3056    -999.25    -999.25 -1184.4563   148.5289    -999.25    -999.25     2.2073    -999.25
  1314.6016  4995.3169 4995317.0000    -999.25     9.2885     0.4464   134.4025   134.4025    -999.25    -999.25    82.5729     0.8582     0.9865     1.0201  1314.6016     0.4464     5.4615    -999.25    -999.25    -999.25    -999.25 16388.8359     2.2027    -999.25    -999.25    -999.25   -61.5491   311.1233    -999.25    -999.25 -1184.5952   148.5366    -999.25    -999.25     2.2027    -999.25
  1314.7540  5047.9336 5047933.5000    -999.25     9.2822     0.4587   133.4182   133.4182    -999.25    -999.25    82.1736     0.8501     0.9788     1.0097  1314.7539     0.4587     5.3769    -999.25    -999.25    -999.25    -999.25 16561.4629     2.2096    -999.25    -999.25    -999.25   -61.8015   311.1868    -999.25    -999.25 -1184.7341   148.5444    -999.25    -999.25     2.2096    -999.25
  1314.9064  5087.7617 5087762.0000    -999.25     9.3095     0.4999   133.2903   133.2903    -999.25    -999.25    84.3228     0.8635     0.9978     1.0263  1314.9064     0.4999     5.3534    -999.25    -999.25    -999.25    -999.25 16692.1328     2.2249    -999.25    -999.25    -999.25   -61.9534   311.5113    -999.25    -999.25 -1184.8730   148.5521    -999.25    -999.25     2.2249    -999.25
  1315.0588  5100.0972 5100097.5000    -999.25     9.3422     0.5212   133.5477   133.5477    -999.25    -999.25    84.6945     0.8939     1.0382     1.0645  1315.0587     0.5212     5.4143    -999.25    -999.25    -999.25    -999.25 16732.6035     2.2346    -999.25    -999.25    -999.25   -61.7722   311.9111    -999.25    -999.25 -1185.0120   148.5598    -999.25    -999.25     2.2346    -999.25
  1315.2112  5137.9014 5137901.0000    -999.25     9.3036     0.4918   133.0040   133.0040    -999.25    -999.25    81.6347     0.9200     1.0733     1.0963  1315.2112     0.4918     5.5373    -999.25    -999.25    -999.25    -999.25 16856.6309     2.2420    -999.25    -999.25    -999.25   -61.4557   312.0649    -999.25    -999.25 -1185.1509   148.5675    -999.25    -999.25     2.2420    -999.25
  1315.3636  5199.1567 5199157.0000    -999.25     9.1627     0.4673   131.6715   131.6715    -999.25    -999.25    78.4525     0.9478     1.1073     1.1261  1315.3635     0.4673     5.6298    -999.25    -999.25    -999.25    -999.25 17057.6016     2.2460    -999.25    -999.25    -999.25   -61.3362   311.9513    -999.25    -999.25 -1185.2898   148.5752    -999.25    -999.25     2.2460    -999.25
  1315.5160  5283.7231 5283723.0000    -999.25     9.0327     0.4927   129.3795   129.3795    -999.25    -999.25    77.0545     0.9645     1.1213     1.1343  1315.5160     0.4927     5.7216    -999.25    -999.25    -999.25    -999.25 17335.0488     2.2428    -999.25    -999.25    -999.25   -61.4330   311.8311    -999.25    -999.25 -1185.4287   148.5829    -999.25    -999.25     2.2428    -999.25
