~Version ---------------------------------------------------
VERS. 2.0 : CWLS log ASCII Standard -VERSION 2.0
WRAP.  NO : 
~Well ------------------------------------------------------
STRT.m                                                   1210.0 : 
STOP.m                                                1487.9776 : 
STEP.m                                                   0.1524 : 
NULL.                                                   -999.25 : 
COMP.                                                           : COMPANY
WELL.                                                   Well-14 : WELL
FLD .                                                           : FIELD
LOC .                                                           : LOCATION
SRVC.                                                           : SERVICE COMPANY
DATE. 2021-01-20 14:34:06   : Log Export Date {yyyy-MM-dd HH:mm : ss}
PROV.                                                           : PROVINCE
UWI .                                                   Well-14 : UNIQUE WELL ID
API .                                                           : API NUMBER
~Curve Information -----------------------------------------
DEPTH             .m        : DEPTH
ACOUSTICIMPEDANCE1.kPa.s/m  : ACOUSTICIMPEDANCE1
AI                .kPa.s/m  : AI
AVG_PIGN          .m3/m3    : AVG_PIGN
CALI              .in       : CALI
CALI[DERIVED]1    .in       : CALI[DERIVED]1
DFL               .ohm.m    : DFL
DT                .us/ft    : DT
FACIES            ._        : FACIES
FLD1              ._        : FLD1
GR                .gAPI     : GR
HDRS              .ohm.m    : HDRS
HMRS              .ohm.m    : HMRS
DEPTH_1           .m        : DEPTH_1
NPHI              .m3/m3    : NPHI
PERF_INT          ._        : PERF_INT
PERMEABILITY      .mD       : PERMEABILITY
PHIT              .m3/m3    : PHIT
PIGN              .m3/m3    : PIGN
PIGN_MODELLING    .m3/m3    : PIGN_MODELLING
PIMP              .kPa.s/m  : PIMP
RHOB              .g/cm3    : RHOB
LLD               .ohm.m    : LLD
RT_MODELLING      .ohm.m    : RT_MODELLING
RT_POWER          .ohm.m    : RT_POWER
SP                .mV       : SP
SUWI              ._        : SUWI
SUWI_MODELLING    ._        : SUWI_MODELLING
SXWI              ._        : SXWI
TDVSS             .m        : TDVSS
VCL               .%        : VCL
WATER_VOL         ._        : WATER_VOL
ZLT               ._        : ZLT
~Params ----------------------------------------------------
~Other -----------------------------------------------------
~ASCII -----------------------------------------------------
  1210.0000  4534.5205 4534520.5000    -999.25     9.4887     9.4887     1.1073   152.4000    -999.25    -999.25    66.0059     0.8788     0.8917  1210.0000     0.5742    -999.25    -999.25    -999.25    -999.25    -999.25 14877.0352     2.2673    -999.25    -999.25    -999.25    85.7877    -999.25    -999.25    -999.25 -1143.2700    -999.25    -999.25    -999.25
  1210.1524  4418.7598 4418760.0000    -999.25     9.4286     9.4286     1.1807   152.4000    -999.25    -999.25    68.2981     0.9091     0.9195  1210.1523     0.5564    -999.25    -999.25    -999.25    -999.25    -999.25 14497.2441     2.2094    -999.25    -999.25    -999.25    85.6687    -999.25    -999.25    -999.25 -1143.4224    -999.25    -999.25    -999.25
  1210.3048  4361.9600 4361960.0000    -999.25     9.3941     9.3941     1.2197   152.4000    -999.25    -999.25    69.3208     0.9218     0.9366  1210.3048     0.5338    -999.25    -999.25    -999.25    -999.25    -999.25 14310.8926     2.1810    -999.25    -999.25    -999.25    85.7297    -999.25    -999.25    -999.25 -1143.5748    -999.25    -999.25    -999.25
  1210.4572  4348.1206 4348120.5000    -999.25     9.3379     9.3379     1.2071   152.4000    -999.25    -999.25    68.3563     0.9154     0.9354  1210.4572     0.5157    -999.25    -999.25     0.2058     0.0200     0.0200 14265.4873     2.1741     0.9151     0.9151     0.8374    85.6706     1.0000     1.0000     1.0000 -1143.7272    82.8580     0.0200    -999.25
  1210.6096  4343.4404 4343440.0000    -999.25     9.2324     9.2324     1.1847   152.4000     0.0000    -999.25    67.0386     0.9046     0.9260  1210.6096     0.5072    -999.25    -999.25     0.2052     0.0200     0.0200 14250.1318     2.1717     0.9046     0.9046     0.8183    85.5678     1.0000     1.0000     1.0000 -1143.8795    81.7410     0.0200    -999.25
  1210.7620  4339.5601 4339560.0000    -999.25     9.1217     9.1217     1.1875   152.4000     0.0000    -999.25    65.2422     0.8999     0.9199  1210.7620     0.5082    -999.25    -999.25     0.2089     0.0146     0.0146 14237.4023     2.1698     0.9001     0.9001     0.8101    85.2869     1.0000     1.0000     1.0000 -1144.0320    80.6940     0.0146    -999.25
  1210.9144  4340.7202 4340720.5000    -999.25     9.0445     9.0445     1.1982   152.4000     0.0000    -999.25    63.9213     0.9014     0.9196  1210.9144     0.5183    -999.25    -999.25     0.2123     0.0151     0.0151 14241.2090     2.1704     0.9015     0.9015     0.8127    85.2268     1.0000     1.0000     1.0000 -1144.1843    80.8800     0.0151    -999.25
  1211.0668  4339.1802 4339180.0000    -999.25     8.9626     8.9626     1.2086   152.4000     0.0000    -999.25    63.8493     0.9014     0.9197  1211.0668     0.5391    -999.25    -999.25     0.2126     0.0159     0.0159 14236.1553     2.1696     0.9012     0.9012     0.8122    85.4038     1.0000     1.0000     1.0000 -1144.3368    83.8480     0.0159    -999.25
  1211.2192  4325.8604 4325860.0000    -999.25     8.8687     8.8687     1.2291   152.4000     0.0000    -999.25    63.7009     0.8965     0.9188  1211.2191     0.5682    -999.25    -999.25     0.2150     0.0195     0.0195 14192.4551     2.1629     0.8964     0.8964     0.8035    85.5206     1.0000     1.0000     1.0000 -1144.4891    87.6890     0.0195    -999.25
  1211.3716  4304.7803 4304780.0000    -999.25     8.8581     8.8581     1.2583   152.4000     0.0000    -999.25    63.8266     0.8960     0.9241  1211.3716     0.5982    -999.25    -999.25     0.2170     0.0198     0.0198 14123.2949     2.1524     0.8962     0.8962     0.8031    85.2042     1.0000     1.0000     1.0000 -1144.6416    92.0790     0.0198    -999.25
  1211.5240  4284.0801 4284080.0000    -999.25     8.9944     8.9944     1.3309   152.4000     0.0000    -999.25    65.0024     0.9035     0.9340  1211.5239     0.6172    -999.25    -999.25     0.2142     0.0194     0.0194 14055.3809     2.1420     0.9036     0.9036     0.8166    84.7420     1.0000     1.0000     1.0000 -1144.7939    96.5410     0.0194    -999.25
  1211.6764  4265.7803 4265780.0000    -999.25     9.2477     9.2477     1.3983   152.4000     0.0000    -999.25    66.1015     0.9027     0.9301  1211.6764     0.6212    -999.25    -999.25     0.2131     0.0200     0.0200 13995.3418     2.1329     0.9023     0.9023     0.8142    84.5249     1.0000     1.0000     1.0000 -1144.9464    98.1090     0.0200    -999.25
  1211.8288  4247.4399 4247440.0000    -999.25     9.4272     9.4272     1.4174   152.4000     0.0000    -999.25    66.6004     0.8852     0.9080  1211.8287     0.6130    -999.25    -999.25     0.2154     0.0200     0.0200 13935.1709     2.1237     0.8849     0.8849     0.7830    84.5171     1.0000     1.0000     1.0000 -1145.0988    96.8710     0.0200    -999.25
  1211.9812  4244.6807 4244680.5000    -999.25     9.4114     9.4114     1.3265   152.4000     0.0000    -999.25    66.5977     0.8696     0.8896  1211.9812     0.5993    -999.25    -999.25     0.2180     0.0200     0.0200 13926.1172     2.1223     0.8699     0.8699     0.7567    84.5314     1.0000     1.0000     1.0000 -1145.2512    94.7240     0.0200    -999.25
  1212.1336  4267.8198 4267820.0000    -999.25     9.2856     9.2856     1.2240   152.4000     0.0000    -999.25    65.0722     0.8709     0.8888  1212.1335     0.5877    -999.25    -999.25     0.2207     0.0196     0.0196 14002.0342     2.1339     0.8713     0.8713     0.7592    84.4168     1.0000     1.0000     1.0000 -1145.4036    91.3880     0.0196    -999.25
  1212.2860  4304.2402 4304240.5000    -999.25     9.1719     9.1719     1.1822   152.4000     0.0000    -999.25    63.2343     0.8784     0.8940  1212.2860     0.5822    -999.25    -999.25     0.2211     0.0258     0.0258 14121.5234     2.1521     0.8784     0.8784     0.7716    84.5196     1.0000     1.0000     1.0000 -1145.5560    88.8130     0.0258    -999.25
  1212.4384  4320.8599 4320860.0000    -999.25     9.0905     9.0905     1.1997   152.4000     0.0000    -999.25    63.3132     0.8755     0.8911  1212.4384     0.5817    -999.25    -999.25     0.2182     0.0244     0.0244 14176.0498     2.1604     0.8752     0.8752     0.7659    84.7363     1.0000     1.0000     1.0000 -1145.7084    89.0060     0.0244    -999.25
  1212.5908  4329.1001 4329100.5000    -999.25     9.0271     9.0271     1.1961   152.4000     0.0000    -999.25    64.9193     0.8659     0.8863  1212.5908     0.5815    -999.25    -999.25     0.2121     0.0206     0.0206 14203.0850     2.1646     0.8659     0.8659     0.7498    84.9520     1.0000     1.0000     1.0000 -1145.8607    91.2200     0.0206    -999.25
  1212.7432  4353.3799 4353380.0000    -999.25     9.0267     9.0267     1.1792   152.4000     0.0000    -999.25    67.0431     0.8662     0.8951  1212.7432     0.5759    -999.25    -999.25     0.2068     0.0200     0.0200 14282.7422     2.1767     0.8666     0.8666     0.7510    84.8899     1.0000     1.0000     1.0000 -1146.0132    91.6630     0.0200    -999.25
  1212.8956  4390.9600 4390960.0000    -999.25     9.2077     9.2077     1.2096   152.4000     0.0000    -999.25    68.9139     0.8783     0.9159  1212.8956     0.5651    -999.25    -999.25     0.2012     0.0200     0.0200 14406.0361     2.1955     0.8784     0.8784     0.7716    84.7960     1.0000     1.0000     1.0000 -1146.1655    90.4320     0.0200    -999.25
  1213.0480  4423.2202 4423220.5000    -999.25     9.4592     9.4592     1.2784   152.4000     0.0000    -999.25    69.2791     0.8798     0.9211  1213.0480     0.5554    -999.25    -999.25     0.1954     0.0200     0.0200 14511.8779     2.2116     0.8793     0.8793     0.7732    84.8557     1.0000     1.0000     1.0000 -1146.3180    89.3000     0.0200    -999.25
  1213.2004  4417.3398 4417340.0000    -999.25     9.6533     9.6533     1.3139   152.4000     0.0000    -999.25    67.6865     0.8510     0.8885  1213.2003     0.5543    -999.25    -999.25     0.1955     0.0200     0.0200 14492.5850     2.2087     0.8503     0.8503     0.7231    85.0762     1.0000     1.0000     1.0000 -1146.4703    89.1740     0.0200    -999.25
