~Version ---------------------------------------------------
VERS. 2.0 : CWLS log ASCII Standard -VERSION 2.0
WRAP.  NO : 
~Well ------------------------------------------------------
STRT.m                                                 1185.062 : 
STOP.m                                                1563.9284 : 
STEP.m                                                   0.1524 : 
NULL.                                                   -999.25 : 
COMP.                                                           : COMPANY
WELL.                                                    Well-8 : WELL
FLD .                                                           : FIELD
LOC .                                                           : LOCATION
SRVC.                                                           : SERVICE COMPANY
DATE. 2021-01-20 14:34:03   : Log Export Date {yyyy-MM-dd HH:mm : ss}
PROV.                                                           : PROVINCE
UWI .                                                    Well-8 : UNIQUE WELL ID
API .                                                           : API NUMBER
~Curve Information -----------------------------------------
DEPTH             .m        : DEPTH
ACOUSTICIMPEDANCE1.kPa.s/m  : ACOUSTICIMPEDANCE1
AI                .kPa.s/m  : AI
AVG_PIGN          .m3/m3    : AVG_PIGN
AZI1              .deg      : AZI1
CALI              .in       : CALI
CALI[DERIVED]1    .in       : CALI[DERIVED]1
DEVI              .deg      : DEVI
DFL               .ohm.m    : DFL
DT                .us/ft    : DT
FACIES            ._        : FACIES
FLD1              ._        : FLD1
GR                .gAPI     : GR
HDRS              .ohm.m    : HDRS
HMRS              .ohm.m    : HMRS
DEPTH_1           .m        : DEPTH_1
NPHI              .m3/m3    : NPHI
ONE-WAYTIME1      .ms       : ONE-WAYTIME1
PERF_INT          ._        : PERF_INT
PERMEABILITY      .mD       : PERMEABILITY
PIGN              .m3/m3    : PIGN
PIGN_MODELLING    .m3/m3    : PIGN_MODELLING
PIMP              .kPa.s/m  : PIMP
RHOB              .g/cm3    : RHOB
LLD               .ohm.m    : LLD
RT_MODELLING      .ohm.m    : RT_MODELLING
RT_POWER          .ohm.m    : RT_POWER
SUWI              ._        : SUWI
SUWI_MODELLING    ._        : SUWI_MODELLING
SXWI              ._        : SXWI
TDVSS             .m        : TDVSS
VCL               .%        : VCL
WATER_VOL         ._        : WATER_VOL
ZLT               ._        : ZLT
~Params ----------------------------------------------------
~Other -----------------------------------------------------
~ASCII -----------------------------------------------------
# ...
  1486.8140  6767.0762 6767076.0000    -999.25  -639.2500    12.7620    12.7620  -639.2500     4.8350   107.3283     0.0000    -999.25    62.7792     3.6144     3.6891  1486.8141     0.5707  -791.6057    -999.25     0.0246     0.0343     0.0343 22201.6934     2.3829     3.6118     3.6118    13.0449     1.0000     1.0000     1.0000 -1405.5040    79.4260     0.0343    23.0000
  1486.9664  6829.8374 6829837.5000    -999.25  -639.2500    12.7332    12.7332  -639.2500     4.8462   106.6268     0.0000    -999.25    63.8094     3.5902     3.6918  1486.9664     0.5782  -791.6915    -999.25     0.0237     0.0319     0.0319 22407.6035     2.3893     3.5873     3.5873    12.8686     1.0000     1.0000     1.0000 -1405.6565    80.8860     0.0319    23.0000
  1487.1188  6817.9243 6817924.0000    -999.25  -639.2500    12.7412    12.7412  -639.2500     4.6560   106.7612     0.0000    -999.25    65.1532     3.5642     3.6852  1487.1188     0.5852  -791.7773    -999.25     0.0229     0.0301     0.0301 22368.5176     2.3881     3.5624     3.5624    12.6903     1.0000     1.0000     1.0000 -1405.8088    81.9570     0.0301    23.0000
  1487.2712  6676.2095 6676209.5000    -999.25  -639.2500    12.7748    12.7748  -639.2500     4.5003   108.8183     0.0000    -999.25    64.8693     3.5485     3.6624  1487.2712     0.5845  -791.8632    -999.25     0.0221     0.0307     0.0307 21903.5742     2.3835     3.5500     3.5500    12.6026     1.0000     1.0000     1.0000 -1405.9612    81.5560     0.0307    23.0000
  1487.4236  6528.6802 6528680.5000    -999.25  -639.2500    12.8003    12.8003  -639.2500     4.2866   112.0065     0.0000    -999.25    63.1701     3.5691     3.6435  1487.4236     0.5727  -791.9490    -999.25     0.0212     0.0329     0.0329 21419.5547     2.3991     3.5832     3.5832    12.8395     1.0000     1.0000     1.0000 -1406.1136    79.9430     0.0329    23.0000
  1487.5760  6588.7212 6588721.0000    -999.25  -639.2500    12.7807    12.7807  -639.2500     4.1661   114.0816     0.0000    -999.25    61.9948     3.7071     3.7034  1487.5760     0.5484  -792.0349    -999.25     0.0204     0.0323     0.0323 21616.5391     2.4661     3.7352     3.7352    13.9519     1.0000     1.0000     1.0000 -1406.2660    77.2400     0.0323    23.0000
  1487.7284  6864.1401 6864140.0000    -999.25  -639.2500    12.7129    12.7129  -639.2500     4.2144   114.8243     0.0000    -999.25    60.3151     3.9631     3.8690  1487.7284     0.5155  -792.1207    -999.25     0.0196     0.0333     0.0333 22520.1445     2.5859     3.9820     3.9820    15.8562     1.0000     1.0000     1.0000 -1406.4185    69.0350     0.0333    23.0000
  1487.8808  7268.6182 7268618.0000    -999.25  -639.2500    12.6386    12.6386  -639.2500     4.4662   115.5361     0.0000    -999.25    57.7714     4.1221     4.0170  1487.8809     0.4877  -792.2065    -999.25     0.0187     0.0355     0.0355 23847.1719     2.7552     4.1091     4.1091    16.8845     1.0000     1.0000     1.0000 -1406.5708    60.9410     0.0355    23.0000
  1488.0332  7705.0225 7705022.5000    -999.25  -639.2500    12.5991    12.5991  -639.2500     4.6265   116.2936     0.0000    -999.25    56.4319     3.9921     3.9983  1488.0332     0.4763  -792.2924    -999.25     0.0179     0.0413     0.0413 25278.9453     2.9398     3.9602     3.9602    15.6833     1.0000     1.0000     1.0000 -1406.7233    54.5790     0.0413    23.0000
  1488.1856  7898.7612 7898761.5000    -999.25  -639.2500    12.6179    12.6179  -639.2500     4.8232   116.1582     0.0000    -999.25    56.2816     3.6943     3.8272  1488.1857     0.4861  -792.3782    -999.25     0.0170     0.0406     0.0406 25914.5703     3.0102     3.6578     3.6578    13.3794     1.0000     1.0000     1.0000 -1406.8756    55.3300     0.0406    23.0000
  1488.3380  7702.1890 7702188.5000    -999.25  -639.2500    12.6409    12.6409  -639.2500     4.8988   115.5754     0.0000    -999.25    56.9987     3.3559     3.5417  1488.3380     0.5129  -792.4641    -999.25     0.0162     0.0337     0.0337 25269.6484     2.9206     3.3188     3.3188    11.0143     1.0000     1.0000     1.0000 -1407.0281    62.9390     0.0337    23.0000
  1488.4904  7327.6914 7327691.5000    -999.25  -639.2500    12.6408    12.6408  -639.2500     4.7822   114.7432     0.0000    -999.25    58.8224     3.0180     3.1978  1488.4905     0.5460  -792.5499    -999.25     0.0154     0.0244     0.0244 24040.9824     2.7585     2.9928     2.9928     8.9567     1.0000     1.0000     1.0000 -1407.1804    73.1900     0.0244    23.0000
  1488.6428  6972.4756 6972475.5000    -999.25  -639.2500    12.6848    12.6848  -639.2500     4.2014   113.9080     0.0000    -999.25    60.1871     2.7952     2.9413  1488.6428     0.5758  -792.6357    -999.25     0.0145     0.0172     0.0172 22875.5762     2.6057     2.7906     2.7906     7.7877     1.0000     1.0000     1.0000 -1407.3329    82.0920     0.0172    23.0000
  1488.7952  6713.9385 6713938.5000    -999.25  -639.2500    12.7365    12.7365  -639.2500     3.7462   113.4267     0.0000    -999.25    59.9080     2.7617     2.8583  1488.7953     0.6012  -792.7216    -999.25     0.0137     0.0175     0.0175 22027.3574     2.4985     2.7748     2.7748     7.6993     1.0000     1.0000     1.0000 -1407.4852    87.2180     0.0175    23.0000
  1488.9476  6420.5952 6420595.5000    -999.25  -639.2500    12.6954    12.6954  -639.2500     3.7901   114.7703     0.0000    -999.25    57.6617     2.8831     2.9292  1488.9476     0.6245  -792.8074    -999.25     0.0128     0.0150     0.0150 21064.9453     2.4176     2.8967     2.8967     8.3907     1.0000     1.0000     1.0000 -1407.6376    86.5180     0.0150    23.0000
  1489.1000  6075.1655 6075165.5000    -999.25  -639.2500    12.6383    12.6383  -639.2500     4.0333   118.0906     0.0000    -999.25    54.9438     3.0032     3.0223  1489.1000     0.6468  -792.8932    -999.25     0.0120     0.0001     0.0100 19931.6465     2.3537     3.0061     3.0061     9.0369     1.0000     1.0000     1.0000 -1407.7900    71.8820     0.0001    23.0000
  1489.2524  5712.0190 5712019.0000    -999.25  -639.2500    12.6752    12.6752  -639.2500     4.0631   123.0301     0.0000    -999.25    54.4010     3.0300     3.0589  1489.2524     0.6646  -792.9791    -999.25     0.0112     0.0001     0.0100 18740.2188     2.3056     3.0322     3.0322     9.1940     1.0000     1.0000     1.0000 -1407.9424    68.1880     0.0001    23.0000
  1489.4048  5355.8379 5355838.0000    -999.25  -639.2500    12.7533    12.7533  -639.2500     3.9295   128.6760     0.0000    -999.25    55.9013     3.0569     3.1060  1489.4048     0.6707  -793.0649    -999.25     0.0103     0.0001     0.0100 17571.6465     2.2610     3.0727     3.0727     9.4412     1.0000     1.0000     1.0000 -1408.0948    66.3520     0.0001    23.0000
  1489.5572  5083.2720 5083272.0000    -999.25  -639.2500    12.7663    12.7663  -639.2500     3.8683   133.5076     0.0000    -999.25    57.6634     3.2119     3.2746  1489.5573     0.6649  -793.1507    -999.25     0.0095     0.0001     0.0100 16677.4023     2.2266     3.2459     3.2459    10.5356     1.0000     1.0000     1.0000 -1408.2472    65.4870     0.0001    23.0000
  1489.7096  4998.7207 4998721.0000    -999.25  -639.2500    12.6991    12.6991  -639.2500     4.0830   134.4122     0.0000    -999.25    58.0394     3.5415     3.6128  1489.7096     0.6543  -793.2366    -999.25     0.0086     0.0001     0.0100 16400.0039     2.2044     3.6054     3.6054    12.9985     1.0000     1.0000     1.0000 -1408.3997    64.0790     0.0001    24.0000
  1489.8620  4932.5361 4932536.5000    -999.25  -639.2500    12.5983    12.5983  -639.2500     4.6384   132.8350     0.0000    -999.25    55.8544     4.1505     4.2210  1489.8621     0.6526  -793.3224    -999.25     0.0078     0.0001     0.0100 16182.8623     2.1496     4.2488     4.2488    18.0520     1.0000     1.0000     1.0000 -1408.5520    58.1100     0.0001    24.0000
  1490.0144  4694.9619 4694962.0000    -999.25  -639.2500    12.5152    12.5152  -639.2500     5.5453   130.2049     3.0000    -999.25    51.8691     5.0823     5.1307  1490.0144     0.6709  -793.4082    -999.25     0.0070     0.0001     0.0100 15403.4180     2.0056     5.2226     5.2226    27.2753     1.0000     1.0000     1.0000 -1408.7045    43.3450     0.0001    24.0000
