~Version ---------------------------------------------------
VERS. 2.0 : CWLS log ASCII Standard -VERSION 2.0
WRAP.  NO : 
~Well ------------------------------------------------------
STRT.m                                                1187.6524 : 
STOP.m                                                1658.2636 : 
STEP.m                                                   0.1524 : 
NULL.                                                   -999.25 : 
COMP.                                                           : COMPANY
WELL.                                                   Well-19 : WELL
FLD .                                                           : FIELD
LOC .                                                           : LOCATION
SRVC.                                                           : SERVICE COMPANY
DATE. 2021-01-20 14:34:11   : Log Export Date {yyyy-MM-dd HH:mm : ss}
PROV.                                                           : PROVINCE
UWI .                                                   Well-19 : UNIQUE WELL ID
API .                                                           : API NUMBER
~Curve Information -----------------------------------------
DEPTH             .m        : DEPTH
ACOUSTICIMPEDANCE1.kPa.s/m  : ACOUSTICIMPEDANCE1
AI                .kPa.s/m  : AI
AVG_PIGN          .m3/m3    : AVG_PIGN
CALI              .in       : CALI
NPHI              .m3/m3    : NPHI
DT                .us/ft    : DT
DT4P              .us/ft    : DT4P
FACIES            ._        : FACIES
FLD1              ._        : FLD1
GR                .gAPI     : GR
M2R2              .ohm.m    : M2R2
LLS               .ohm.m    : LLS
LLD               .ohm.m    : LLD
DEPTH_1           .m        : DEPTH_1
NPHI_1            .m3/m3    : NPHI_1
PEF               .b/e      : PEF
PERF_INT          ._        : PERF_INT
PERMEABILITY      .mD       : PERMEABILITY
PIGN              .m3/m3    : PIGN
PIGN_MODELLING    .m3/m3    : PIGN_MODELLING
PIMP              .kPa.s/m  : PIMP
RHOB              .g/cm3    : RHOB
LLD_1             .ohm.m    : LLD_1
RT_MODELLING      .ohm.m    : RT_MODELLING
RT_POWER          .ohm.m    : RT_POWER
SP                .mV       : SP
SPDH              .mV       : SPDH
SUWI              ._        : SUWI
SUWI_MODELLING    ._        : SUWI_MODELLING
TDVSS             .m        : TDVSS
TEMP              .K        : TEMP
VCL               .%        : VCL
WATER_VOL         ._        : WATER_VOL
RHOB_1            .g/cm3    : RHOB_1
ZLT               ._        : ZLT
~Params ----------------------------------------------------
~Other -----------------------------------------------------
~ASCII -----------------------------------------------------
# ...
  1619.7064  2457.3643 2457364.2500    -999.25     9.7124     0.6632   153.3201   153.3201     3.0000    -999.25    36.6121     4.7833    11.4292    13.7253  1619.7063     0.6632     3.1725    -999.25     0.0000     0.0001     0.0100  8062.2188     1.2361    11.9828    11.9828   143.5882   -91.9262   270.9308     1.0000     1.0000 -1462.1747   163.9791    18.3830     0.0001     1.2361    19.0000
  1619.8588  2382.0381 2382038.2500    -999.25     9.2863     0.6573   151.1564   151.1564     3.0000    -999.25    35.3268     6.2199    12.8043    15.4985  1619.8588     0.6573     3.6900    -999.25     0.0000     0.0001     0.0100  7815.0859     1.1813    13.5108    13.5108   182.5406   -91.6867   271.4606     1.0000     1.0000 -1462.3135   163.9868    16.9220     0.0001     1.1813    19.0000
  1620.0112  2255.8113 2255811.2500    -999.25     9.1256     0.6370   151.1697   151.1697     3.0000    -999.25    32.8403    13.0435    26.3245    33.2003  1620.0111     0.6370     3.9444    -999.25     0.0000     0.0001     0.0100  7400.9556     1.1188    28.9114    28.9114   835.8685   -91.4998   271.4919     1.0000     1.0000 -1462.4523   163.9945    12.4710     0.0001     1.1188    19.0000
  1620.1636  2182.6335 2182633.7500    -999.25     9.1237     0.6032   151.5877   151.5877     3.0000    -999.25    30.9840    13.7555    46.3979    61.9585  1620.1636     0.6032     3.7282    -999.25     0.0000     0.0001     0.0100  7160.8716     1.0855    53.9640    53.9640  2912.1155   -91.3519   271.2204     1.0000     1.0000 -1462.5911   164.0022     6.3520     0.0001     1.0855    19.0000
  1620.3160  2175.4067 2175406.7500    -999.25     9.2170     0.5864   151.7690   151.7690     3.0000    -999.25    30.4258    13.6780    49.6020   180.5359  1620.3159     0.5864     3.0421    -999.25     0.0000     0.0001     0.0100  7137.1611     1.0832   157.1643   157.1643 24700.6094   -91.9562   270.4485     1.0000     1.0000 -1462.7299   164.0099     3.7440     0.0001     1.0832    19.0000
  1620.4684  2189.4302 2189430.2500    -999.25     9.3504     0.5845   152.2448   152.2448     3.0000    -999.25    31.1058    12.6207    34.6604    68.1439  1620.4684     0.5845     2.4587    -999.25     0.0000     0.0001     0.0100  7183.1699     1.0936    59.6708    59.6708  3560.6033   -93.4541   269.2779     1.0000     1.0000 -1462.8687   164.0176     4.0740     0.0001     1.0936    19.0000
  1620.6208  2199.2275 2199227.5000    -999.25     9.3463     0.5873   152.7169   152.7169     3.0000    -999.25    32.3721    12.4405    32.8969    59.4948  1620.6207     0.5873     2.4807    -999.25     0.0000     0.0001     0.0100  7215.3135     1.1019    51.8987    51.8987  2693.4700   -94.0858   269.5138     1.0000     1.0000 -1463.0074   164.0253     5.3170     0.0001     1.1019    19.0000
  1620.7732  2188.3899 2188390.0000    -999.25     9.1876     0.5933   152.6653   152.6653     3.0000    -999.25    33.1394    13.0461    36.2258    67.8798  1620.7732     0.5933     3.0549    -999.25     0.0000     0.0001     0.0100  7179.7568     1.0961    59.1726    59.1726  3501.3943   -92.8789   271.7439     1.0000     1.0000 -1463.1462   164.0331     6.7000     0.0001     1.0961    19.0000
  1620.9256  2154.3179 2154317.7500    -999.25     9.0583     0.6270   152.5756   152.5756     3.0000    -999.25    32.4192    14.3380    43.3572    88.5970  1620.9255     0.6270     3.8192    -999.25     0.0000     0.0001     0.0100  7067.9722     1.0784    77.2106    77.2106  5961.4795   -91.0538   274.4008     1.0000     1.0000 -1463.2850   164.0408    11.1420     0.0001     1.0784    19.0000
  1621.0780  2127.0444 2127044.5000    -999.25     9.0357     0.6942   152.5974   152.5974     3.0000    -999.25    31.1133    16.3190    54.9110   127.8731  1621.0780     0.6942     4.5142    -999.25     0.0000     0.0001     0.0100  6978.4922     1.0649   111.4182   111.4182 12414.0195   -89.7594   276.5392     1.0000     1.0000 -1463.4238   164.0485    18.0200     0.0001     1.0649    19.0000
  1621.2304  2117.6277 2117627.7500    -999.25     9.0411     0.7449   152.9738   152.9738     3.0000    -999.25    30.3017    20.1903    74.9996   196.8251  1621.2303     0.7449     4.8088    -999.25     0.0000     0.0001     0.0100  6947.5972     1.0628   171.4785   171.4785 29404.8867   -88.6234   278.5883     1.0000     1.0000 -1463.5626   164.0562    16.3410     0.0001     1.0628    19.0000
  1621.3828  2120.1968 2120196.7500    -999.25     9.0506     0.7143   153.1765   153.1765     3.0000    -999.25    29.9632    27.7384   119.9873   417.1737  1621.3827     0.7143     4.5702    -999.25     0.0000     0.0001     0.0100  6956.0259     1.0655   363.2867   363.2867 131977.2188   -87.4866   280.2641     1.0000     1.0000 -1463.7014   164.0639    17.2890     0.0001     1.0655    19.0000
  1621.5352  2126.0547 2126054.7500    -999.25     9.0620     0.6476   153.0556   153.0556     3.0000    -999.25    29.6560    35.0340   208.5990  1678.4050  1621.5352     0.6476     4.1238    -999.25     0.0000     0.0001     0.0100  6975.2451     1.0676  1460.7715  1460.7715 2133853.2500   -86.8041   281.2946     1.0000     1.0000 -1463.8402   164.0716    12.2980     0.0001     1.0676    19.0000
  1621.6876  2138.0042 2138004.0000    -999.25     9.1064     0.6064   152.6421   152.6421     3.0000    -999.25    30.0083    36.6184   658.4946  1153.9658  1621.6875     0.6064     3.8319    -999.25     0.0000     0.0001     0.0100  7014.4487     1.0707  1007.4214  1007.4214 1014898.0000   -86.4951   282.1225     1.0000     1.0000 -1463.9790   164.0793     6.3330     0.0001     1.0707    19.0000
  1621.8400  2151.8679 2151868.0000    -999.25     9.2766     0.5963   152.2960   152.2960     3.0000    -999.25    31.0138    24.4668   121.2305   228.4572  1621.8400     0.5963     3.7697    -999.25     0.0000     0.0001     0.0100  7059.9341     1.0752   201.2676   201.2676 40508.6367   -85.9253   283.1897     1.0000     1.0000 -1464.1177   164.0871     5.1460     0.0001     1.0752    19.0000
  1621.9924  2160.0088 2160008.7500    -999.25     9.6287     0.6066   151.8773   151.8773     3.0000    -999.25    31.3679    14.4038    46.8917    83.7215  1621.9923     0.6066     3.8335    -999.25     0.0000     0.0001     0.0100  7086.6431     1.0763    73.3262    73.3262  5376.7295   -85.0156   284.4611     1.0000     1.0000 -1464.2565   164.0948     6.4020     0.0001     1.0763    19.0000
  1622.1448  2163.1392 2163139.2500    -999.25     9.9380     0.6081   151.8547   151.8547     3.0000    -999.25    30.6217     7.9361    16.8129    27.8399  1622.1448     0.6081     3.9877    -999.25     0.0000     0.0001     0.0100  7096.9131     1.0777    24.4003    24.4003   595.3765   -84.1268   285.7455     1.0000     1.0000 -1464.3953   164.1025     6.0760     0.0001     1.0777    19.0000
  1622.2972  2162.0361 2162036.0000    -999.25     9.8640     0.5742   153.2997   153.2997     3.0000    -999.25    29.5899     8.0954    17.3745    27.1883  1622.2971     0.5742     4.3578    -999.25     0.0000     0.0001     0.0100  7093.2944     1.0874    23.7096    23.7096   562.1470   -83.7157   286.4533     1.0000     1.0000 -1464.5341   164.1102     0.9200     0.0001     1.0874    19.0000
  1622.4496  2149.7437 2149743.7500    -999.25     9.4868     0.5348   155.5516   155.5516     3.0000    -999.25    28.3895    11.9473    36.3518    54.9544  1622.4496     0.5348     4.8374    -999.25     0.0000     0.0001     0.0100  7052.9648     1.0971    47.8587    47.8587  2290.4504   -84.1601   285.7484     1.0000     1.0000 -1464.6729   164.1179     0.0000     0.0001     1.0971    19.0000
  1622.6020  2159.6479 2159648.0000    -999.25     9.1937     0.5341   154.1890   154.1890     3.0000    -999.25    27.2958    14.3405    41.4330    62.3422  1622.6019     0.5341     4.8892    -999.25     0.0000     0.0001     0.0100  7085.4595     1.0925    54.3460    54.3460  2953.4885   -84.5229   284.6544     1.0000     1.0000 -1464.8116   164.1256     0.0000     0.0001     1.0925    19.0000
  1622.7544  2132.9729 2132972.7500    -999.25     9.1337     0.5759   154.2168   154.2168     3.0000    -999.25    27.1220    12.3061    27.8694    41.9987  1622.7544     0.5759     4.5985    -999.25     0.0000     0.0001     0.0100  6997.9424     1.0792    36.6680    36.6680  1344.5416   -83.7625   284.9775     1.0000     1.0000 -1464.9504   164.1333     0.0240     0.0001     1.0792    19.0000
