~Version ---------------------------------------------------
VERS. 2.0 : CWLS log ASCII Standard -VERSION 2.0
WRAP.  NO : 
~Well ------------------------------------------------------
STRT.m                                                1187.6524 : 
STOP.m                                                1658.2636 : 
STEP.m                                                   0.1524 : 
NULL.                                                   -999.25 : 
COMP.                                                           : COMPANY
WELL.                                                   Well-19 : WELL
FLD .                                                           : FIELD
LOC .                                                           : LOCATION
SRVC.                                                           : SERVICE COMPANY
DATE. 2021-01-20 14:34:11   : Log Export Date {yyyy-MM-dd HH:mm : ss}
PROV.                                                           : PROVINCE
UWI .                                                   Well-19 : UNIQUE WELL ID
API .                                                           : API NUMBER
~Curve Information -----------------------------------------
DEPTH             .m        : DEPTH
ACOUSTICIMPEDANCE1.kPa.s/m  : ACOUSTICIMPEDANCE1
AI                .kPa.s/m  : AI
AVG_PIGN          .m3/m3    : AVG_PIGN
CALI              .in       : CALI
NPHI              .m3/m3    : NPHI
DT                .us/ft    : DT
DT4P              .us/ft    : DT4P
FACIES            ._        : FACIES
FLD1              ._        : FLD1
GR                .gAPI     : GR
M2R2              .ohm.m    : M2R2
LLS               .ohm.m    : LLS
LLD               .ohm.m    : LLD
DEPTH_1           .m        : DEPTH_1
NPHI_1            .m3/m3    : NPHI_1
PEF               .b/e      : PEF
PERF_INT          ._        : PERF_INT
PERMEABILITY      .mD       : PERMEABILITY
PIGN              .m3/m3    : PIGN
PIGN_MODELLING    .m3/m3    : PIGN_MODELLING
PIMP              .kPa.s/m  : PIMP
RHOB              .g/cm3    : RHOB
LLD_1             .ohm.m    : LLD_1
RT_MODELLING      .ohm.m    : RT_MODELLING
RT_POWER          .ohm.m    : RT_POWER
SP                .mV       : SP
SPDH              .mV       : SPDH
SUWI              ._        : SUWI
SUWI_MODELLING    ._        : SUWI_MODELLING
TDVSS             .m        : TDVSS
TEMP              .K        : TEMP
VCL               .%        : VCL
WATER_VOL         ._        : WATER_VOL
RHOB_1            .g/cm3    : RHOB_1
ZLT               ._        : ZLT
~Params ----------------------------------------------------
~Other -----------------------------------------------------
~ASCII -----------------------------------------------------
# ...
  1280.4640  4743.6753 4743675.0000    -999.25    10.1696     0.5642   139.5853   139.5853    -999.25    -999.25    92.0671     0.8944     0.9365     0.9513  1280.4640     0.5642     5.0645    -999.25    -999.25    -999.25    -999.25 15563.2383     2.1724    -999.25    -999.25    -999.25   -60.2543   305.7896    -999.25    -999.25 -1153.5911   146.8088    -999.25    -999.25     2.1724    -999.25
  1280.6164  4777.0024 4777002.0000    -999.25    10.0853     0.5976   139.0390   139.0390    -999.25    -999.25    91.6290     0.8973     0.9411     0.9552  1280.6163     0.5976     5.0620    -999.25    -999.25    -999.25    -999.25 15672.5791     2.1791    -999.25    -999.25    -999.25   -60.4546   305.4907    -999.25    -999.25 -1153.7297   146.8165    -999.25    -999.25     2.1791    -999.25
  1280.7688  4777.6978 4777697.5000    -999.25    10.0804     0.5943   139.1846   139.1846    -999.25    -999.25    90.4592     0.8989     0.9438     0.9566  1280.7688     0.5943     5.1086    -999.25    -999.25    -999.25    -999.25 15674.8613     2.1817    -999.25    -999.25    -999.25   -60.8204   305.2301    -999.25    -999.25 -1153.8684   146.8242    -999.25    -999.25     2.1817    -999.25
  1280.9212  4758.4131 4758413.0000    -999.25    10.1657     0.5446   139.7872   139.7872    -999.25    -999.25    91.7062     0.9060     0.9511     0.9627  1280.9211     0.5446     5.1905    -999.25    -999.25    -999.25    -999.25 15611.5908     2.1823    -999.25    -999.25    -999.25   -61.1570   305.0922    -999.25    -999.25 -1154.0070   146.8320    -999.25    -999.25     2.1823    -999.25
  1281.0736  4735.3335 4735333.5000    -999.25    10.2372     0.5149   140.3655   140.3655    -999.25    -999.25    94.8657     0.9444     0.9898     1.0001  1281.0735     0.5149     5.2183    -999.25    -999.25    -999.25    -999.25 15535.8721     2.1807    -999.25    -999.25    -999.25   -61.2658   305.1203    -999.25    -999.25 -1154.1456   146.8397    -999.25    -999.25     2.1807    -999.25
  1281.2260  4744.6377 4744638.0000    -999.25    10.2196     0.5254   139.8461   139.8461    -999.25    -999.25    94.3761     0.9934     1.0375     1.0467  1281.2260     0.5254     5.2388    -999.25    -999.25    -999.25    -999.25 15566.3975     2.1769    -999.25    -999.25    -999.25   -61.2524   305.2282    -999.25    -999.25 -1154.2842   146.8474    -999.25    -999.25     2.1769    -999.25
  1281.3784  4758.0024 4758002.5000    -999.25    10.1541     0.5557   139.3764   139.3764    -999.25    -999.25    90.0922     0.9923     1.0312     1.0388  1281.3783     0.5557     5.2060    -999.25    -999.25    -999.25    -999.25 15610.2441     2.1757    -999.25    -999.25    -999.25   -61.2997   305.3303    -999.25    -999.25 -1154.4229   146.8551    -999.25    -999.25     2.1757    -999.25
  1281.5308  4787.5645 4787564.5000    -999.25    10.1020     0.5740   138.8405   138.8405    -999.25    -999.25    88.3518     0.9439     0.9747     0.9808  1281.5308     0.5740     5.0732    -999.25    -999.25    -999.25    -999.25 15707.2324     2.1808    -999.25    -999.25    -999.25   -61.4109   305.4543    -999.25    -999.25 -1154.5615   146.8628    -999.25    -999.25     2.1808    -999.25
  1281.6832  4827.7300 4827730.0000    -999.25    10.0847     0.5596   138.1463   138.1463    -999.25    -999.25    90.5898     0.9082     0.9305     0.9358  1281.6831     0.5596     4.9005    -999.25    -999.25    -999.25    -999.25 15839.0098     2.1881    -999.25    -999.25    -999.25   -61.4440   305.6102    -999.25    -999.25 -1154.7001   146.8705    -999.25    -999.25     2.1881    -999.25
  1281.8356  4860.9893 4860989.5000    -999.25    10.0870     0.5329   137.5397   137.5397    -999.25    -999.25    92.5450     0.9172     0.9335     0.9384  1281.8356     0.5329     4.7826    -999.25    -999.25    -999.25    -999.25 15948.1279     2.1935    -999.25    -999.25    -999.25   -61.4723   305.7812    -999.25    -999.25 -1154.8387   146.8782    -999.25    -999.25     2.1935    -999.25
  1281.9880  4871.0249 4871025.0000    -999.25    10.0556     0.5297   137.4065   137.4065    -999.25    -999.25    92.4028     0.9648     0.9772     0.9830  1281.9879     0.5297     4.7684    -999.25    -999.25    -999.25    -999.25 15981.0527     2.1959    -999.25    -999.25    -999.25   -61.6619   305.9982    -999.25    -999.25 -1154.9774   146.8860    -999.25    -999.25     2.1959    -999.25
  1282.1404  4864.0596 4864059.5000    -999.25     9.9693     0.5341   137.4716   137.4716    -999.25    -999.25    91.3375     1.0097     1.0201     1.0271  1282.1404     0.5341     4.8477    -999.25    -999.25    -999.25    -999.25 15958.2012     2.1938    -999.25    -999.25    -999.25   -62.0105   306.2158    -999.25    -999.25 -1155.1160   146.8937    -999.25    -999.25     2.1938    -999.25
  1282.2928  4849.9893 4849989.5000    -999.25     9.8900     0.5161   138.1030   138.1030    -999.25    -999.25    89.9930     1.0004     1.0105     1.0184  1282.2927     0.5161     5.0095    -999.25    -999.25    -999.25    -999.25 15912.0391     2.1975    -999.25    -999.25    -999.25   -62.3129   306.3287    -999.25    -999.25 -1155.2546   146.9014    -999.25    -999.25     2.1975    -999.25
  1282.4452  4851.6074 4851607.5000    -999.25     9.8650     0.5067   138.0695   138.0695    -999.25    -999.25    89.5425     0.9590     0.9704     0.9786  1282.4452     0.5067     5.2646    -999.25    -999.25    -999.25    -999.25 15917.3477     2.1977    -999.25    -999.25    -999.25   -62.3331   306.5009    -999.25    -999.25 -1155.3933   146.9091    -999.25    -999.25     2.1977    -999.25
  1282.5976  4822.0591 4822059.0000    -999.25     9.8813     0.5303   138.2518   138.2518    -999.25    -999.25    91.4234     0.9657     0.9801     0.9894  1282.5975     0.5303     5.5899    -999.25    -999.25    -999.25    -999.25 15820.4043     2.1872    -999.25    -999.25    -999.25   -62.0603   306.9745    -999.25    -999.25 -1155.5319   146.9168    -999.25    -999.25     2.1872    -999.25
  1282.7500  4702.3384 4702338.5000    -999.25     9.9168     0.5709   140.8837   140.8837    -999.25    -999.25    94.8182     1.0392     1.0588     1.0703  1282.7500     0.5709     5.7841    -999.25    -999.25    -999.25    -999.25 15427.6191     2.1735    -999.25    -999.25    -999.25   -61.8188   307.6761    -999.25    -999.25 -1155.6705   146.9245    -999.25    -999.25     2.1735    -999.25
  1282.9024  4643.9185 4643918.5000    -999.25     9.9643     0.5849   142.2097   142.2097    -999.25    -999.25    96.3083     1.0978     1.1220     1.1355  1282.9023     0.5849     5.7407    -999.25    -999.25    -999.25    -999.25 15235.9531     2.1667    -999.25    -999.25    -999.25   -61.7605   308.3271    -999.25    -999.25 -1155.8092   146.9322    -999.25    -999.25     2.1667    -999.25
  1283.0548  4608.7881 4608788.0000    -999.25    10.0210     0.5637   143.2275   143.2275    -999.25    -999.25    95.4708     1.0804     1.1064     1.1200  1283.0547     0.5637     5.6406    -999.25    -999.25    -999.25    -999.25 15120.6953     2.1657    -999.25    -999.25    -999.25   -61.6025   308.7654    -999.25    -999.25 -1155.9478   146.9399    -999.25    -999.25     2.1657    -999.25
  1283.2072  4568.3979 4568398.0000    -999.25    10.0791     0.5229   144.4138   144.4138    -999.25    -999.25    95.0334     1.0239     1.0503     1.0628  1283.2072     0.5229     5.5167    -999.25    -999.25    -999.25    -999.25 14988.1826     2.1645    -999.25    -999.25    -999.25   -61.3372   308.9740    -999.25    -999.25 -1156.0864   146.9477    -999.25    -999.25     2.1645    -999.25
  1283.3596  4575.5249 4575524.5000    -999.25    10.1170     0.4912   144.0023   144.0023    -999.25    -999.25    96.2720     0.9682     0.9951     1.0064  1283.3595     0.4912     5.3019    -999.25    -999.25    -999.25    -999.25 15011.5635     2.1617    -999.25    -999.25    -999.25   -61.1878   309.1226    -999.25    -999.25 -1156.2250   146.9554    -999.25    -999.25     2.1617    -999.25
  1283.5120  4598.7495 4598749.5000    -999.25    10.1217     0.4903   143.0895   143.0895    -999.25    -999.25    97.9401     0.9349     0.9626     0.9729  1283.5120     0.4903     5.1346    -999.25    -999.25    -999.25    -999.25 15087.7607     2.1589    -999.25    -999.25    -999.25   -61.0610   309.3715    -999.25    -999.25 -1156.3636   146.9631    -999.25    -999.25     2.1589    -999.25
