~Version ---------------------------------------------------
VERS. 2.0 : CWLS log ASCII Standard -VERSION 2.0
WRAP.  NO : 
~Well ------------------------------------------------------
STRT.m                                                 1185.062 : 
STOP.m                                                1563.9284 : 
STEP.m                                                   0.1524 : 
NULL.                                                   -999.25 : 
COMP.                                                           : COMPANY
WELL.                                                    Well-8 : WELL
FLD .                                                           : FIELD
LOC .                                                           : LOCATION
SRVC.                                                           : SERVICE COMPANY
DATE. 2021-01-20 14:34:03   : Log Export Date {yyyy-MM-dd HH:mm : ss}
PROV.                                                           : PROVINCE
UWI .                                                    Well-8 : UNIQUE WELL ID
API .                                                           : API NUMBER
~Curve Information -----------------------------------------
DEPTH             .m        : DEPTH
ACOUSTICIMPEDANCE1.kPa.s/m  : ACOUSTICIMPEDANCE1
AI                .kPa.s/m  : AI
AVG_PIGN          .m3/m3    : AVG_PIGN
AZI1              .deg      : AZI1
CALI              .in       : CALI
CALI[DERIVED]1    .in       : CALI[DERIVED]1
DEVI              .deg      : DEVI
DFL               .ohm.m    : DFL
DT                .us/ft    : DT
FACIES            ._        : FACIES
FLD1              ._        : FLD1
GR                .gAPI     : GR
HDRS              .ohm.m    : HDRS
HMRS              .ohm.m    : HMRS
DEPTH_1           .m        : DEPTH_1
NPHI              .m3/m3    : NPHI
ONE-WAYTIME1      .ms       : ONE-WAYTIME1
PERF_INT          ._        : PERF_INT
PERMEABILITY      .mD       : PERMEABILITY
PIGN              .m3/m3    : PIGN
PIGN_MODELLING    .m3/m3    : PIGN_MODELLING
PIMP              .kPa.s/m  : PIMP
RHOB              .g/cm3    : RHOB
LLD               .ohm.m    : LLD
RT_MODELLING      .ohm.m    : RT_MODELLING
RT_POWER          .ohm.m    : RT_POWER
SUWI              ._        : SUWI
SUWI_MODELLING    ._        : SUWI_MODELLING
SXWI              ._        : SXWI
TDVSS             .m        : TDVSS
VCL               .%        : VCL
WATER_VOL         ._        : WATER_VOL
ZLT               ._        : ZLT
~Params ----------------------------------------------------
~Other -----------------------------------------------------
~ASCII -----------------------------------------------------
# ...
  1359.4076  2570.7249 2570724.7500    -999.25  -639.2500    12.9247    12.9247  -639.2500    58.2962   148.6613     3.0000    -999.25    20.5058    66.9960    51.4526  1359.4076     0.8722  -719.8481    -999.25     0.2053     0.0001     0.0100  8434.1367     1.2538    64.6912    64.6912  4184.9556     1.0000     1.0000     1.0000 -1278.0977     0.0000     0.0001     2.0000
  1359.5600  2657.2510 2657251.0000    -999.25  -639.2500    12.8993    12.8993  -639.2500    51.7338   148.5957     3.0000    -999.25    22.6668    45.5759    35.9138  1359.5601     0.8651  -719.9339    -999.25     0.1140     0.0001     0.0100  8718.0146     1.2955    43.1251    43.1251  1859.7751     1.0000     1.0000     1.0000 -1278.2500     0.0000     0.0001     2.0000
  1359.7124  2899.4546 2899454.7500    -999.25  -639.2500    12.9202    12.9202  -639.2500    35.9876   146.1970     3.0000    -999.25    26.6150    23.5089    19.6809  1359.7124     0.7889  -720.0197    -999.25     0.0345     0.0001     0.0100  9512.6465     1.3907    22.2941    22.2941   497.0265     1.0000     1.0000     1.0000 -1278.4025     0.0000     0.0001     2.0000
  1359.8648  3338.2690 3338269.2500    -999.25  -639.2500    12.9670    12.9670  -639.2500    18.6516   141.2631     3.0000    -999.25    32.4182    12.5971    11.1666  1359.8649     0.6773  -720.1056    -999.25     0.0051     0.0001     0.0100 10952.3262     1.5472    12.0473    12.0473   145.1367     1.0000     1.0000     1.0000 -1278.5548     3.3030     0.0001     2.0000
  1360.0172  4015.4351 4015435.0000    -999.25  -639.2500    12.9951    12.9951  -639.2500    10.3604   134.1916     0.0000    -999.25    38.7882     7.6834     7.1614  1360.0172     0.5818  -720.1914    -999.25     0.0001     0.0001     0.0100 13173.9990     1.7678     7.4839     7.4839    56.0092     1.0000     1.0000     1.0000 -1278.7073    24.3300     0.0001     2.0000
  1360.1696  4848.7388 4848738.5000    -999.25  -639.2500    12.9645    12.9645  -639.2500     6.3694   126.7355     0.0000    -999.25    45.2623     5.8896     5.7358  1360.1697     0.5272  -720.2772    -999.25     0.0035     0.0001     0.0100 15907.9355     2.0161     5.7950     5.7950    33.5823     1.0000     1.0000     1.0000 -1278.8596    48.5100     0.0001     2.0000
  1360.3220  5526.1450 5526145.0000    -999.25  -639.2500    12.9430    12.9430  -639.2500     5.2491   121.8716     0.0000    -999.25    51.7040     5.0256     5.1119  1360.3220     0.5131  -720.3631    -999.25     0.0070     0.0001     0.0100 18130.3965     2.2096     4.9546     4.9546    24.5481     1.0000     1.0000     1.0000 -1279.0121    66.8600     0.0001     2.0000
  1360.4744  5779.1079 5779108.0000    -999.25  -639.2500    13.0290    13.0290  -639.2500     4.9757   121.1044     0.0000    -999.25    56.6158     4.3677     4.5252  1360.4745     0.5291  -720.4489    -999.25     0.0074     0.0001     0.0100 18960.3281     2.2962     4.2955     4.2955    18.4517     1.0000     1.0000     1.0000 -1279.1644    75.5340     0.0001     2.0000
  1360.6268  5761.5352 5761535.0000    -999.25  -639.2500    13.2109    13.2109  -639.2500     4.5907   122.5826     0.0000    -999.25    58.9776     3.7102     3.8016  1360.6268     0.5641  -720.5347    -999.25     0.0058     0.0001     0.0100 18902.6738     2.3171     3.6589     3.6589    13.3877     1.0000     1.0000     1.0000 -1279.3169    77.7030     0.0001     2.0000
  1360.7792  5759.1470 5759147.0000    -999.25  -639.2500    13.3895    13.3895  -639.2500     3.9884   123.3305     0.0000    -999.25    58.3420     3.2505     3.2556  1360.7792     0.5987  -720.6206    -999.25     0.0042     0.0001     0.0100 18894.8398     2.3303     3.2293     3.2293    10.4283     1.0000     1.0000     1.0000 -1279.4692    77.6470     0.0001     2.0000
  1360.9316  5779.8730 5779873.0000    -999.25  -639.2500    13.5107    13.5107  -639.2500     3.6063   123.2300     0.0000    -999.25    55.8069     3.0616     2.9973  1360.9316     0.6172  -720.7064    -999.25     0.0262     0.0033     0.0100 18962.8379     2.3368     3.0549     3.0549     9.3325     1.0000     1.0000     1.0000 -1279.6216    78.5600     0.0033     2.0000
  1361.0840  5760.4585 5760458.5000    -999.25  -639.2500    13.5713    13.5713  -639.2500     3.5583   123.1527     0.0000    -999.25    53.3445     2.9949     2.8770  1361.0840     0.6158  -720.7922    -999.25     0.2470     0.0202     0.0202 18899.1426     2.3275     2.9787     2.9787     8.8725     1.0000     1.0000     1.0000 -1279.7740    87.8730     0.0202     2.0000
  1361.2364  5761.8916 5761891.5000    -999.25  -639.2500    13.5649    13.5649  -639.2500     3.4528   122.5894     0.0000    -999.25    51.9274     2.8412     2.7224  1361.2365     0.6022  -720.8781    -999.25     0.3099     0.0244     0.0244 18903.8438     2.3174     2.8184     2.8184     7.9432     1.0000     1.0000     1.0000 -1279.9264    85.3410     0.0244     2.0000
  1361.3888  5875.2710 5875271.0000    -999.25  -639.2500    13.5398    13.5398  -639.2500     3.1499   120.8000     0.0000    -999.25    50.9246     2.6389     2.5810  1361.3888     0.5866  -720.9639    -999.25     0.3621     0.0275     0.0275 19275.8242     2.3285     2.6335     2.6335     6.9352     1.0000     1.0000     1.0000 -1280.0789    83.4920     0.0275     2.0000
  1361.5412  6157.1079 6157108.0000    -999.25  -639.2500    13.5978    13.5978  -639.2500     2.8274   117.4120     0.0000    -999.25    49.4502     2.6026     2.6188  1361.5413     0.5697  -721.0497    -999.25     0.3705     0.0291     0.0291 20200.4863     2.3718     2.6247     2.6247     6.8891     1.0000     1.0000     1.0000 -1280.2312    82.5290     0.0291     2.0000
  1361.6936  6551.3140 6551314.0000    -999.25  -639.2500    13.6869    13.6869  -639.2500     3.0157   113.2061     0.0000    -999.25    48.5676     2.8135     2.8912  1361.6936     0.5525  -721.1356    -999.25     0.3191     0.0300     0.0300 21493.8125     2.4332     2.8475     2.8475     8.1080     1.0000     1.0000     1.0000 -1280.3837    81.9990     0.0300     2.0000
  1361.8460  6640.3042 6640304.0000    -999.25  -639.2500    13.5870    13.5870  -639.2500     3.9125   112.9875     0.0000    -999.25    49.3564     3.1122     3.2248  1361.8461     0.5399  -721.2214    -999.25     0.2902     0.0318     0.0318 21785.7754     2.4615     3.1145     3.1145     9.7002     1.0000     1.0000     1.0000 -1280.5360    80.7880     0.0318     2.0000
  1361.9984  6290.4712 6290471.0000    -999.25  -639.2500    13.3429    13.3429  -639.2500     4.7175   117.9711     0.0000    -999.25    51.2544     3.1147     3.2293  1361.9984     0.5365  -721.3073    -999.25     0.3353     0.0348     0.0348 20638.0293     2.4347     3.0798     3.0798     9.4850     1.0000     1.0000     1.0000 -1280.6885    79.1330     0.0348     2.0000
  1362.1508  5815.0171 5815017.0000    -999.25  -639.2500    13.2707    13.2707  -639.2500     3.9182   124.6956     0.0000    -999.25    54.5185     2.7936     2.8707  1362.1509     0.5425  -721.3931    -999.25     0.4027     0.0358     0.0358 19078.1406     2.3790     2.7641     2.7641     7.6405     1.0000     1.0000     1.0000 -1280.8408    78.4970     0.0358     2.0000
  1362.3032  5495.0171 5495017.0000    -999.25  -639.2500    13.4243    13.4243  -639.2500     2.8964   129.6136     0.0000    -999.25    58.2036     2.5326     2.5632  1362.3032     0.5520  -721.4789    -999.25     0.4092     0.0347     0.0347 18028.2715     2.3367     2.5270     2.5270     6.3856     1.0000     1.0000     1.0000 -1280.9933    79.1630     0.0347     2.0000
  1362.4556  5451.1592 5451159.0000    -999.25  -639.2500    13.5610    13.5610  -639.2500     2.6012   130.3333     0.0000    -999.25    60.3221     2.4912     2.5024  1362.4557     0.5572  -721.5648    -999.25     0.3699     0.0334     0.0334 17884.3809     2.3309     2.5070     2.5070     6.2848     1.0000     1.0000     1.0000 -1281.1456    79.9760     0.0334     2.0000
  1362.6080  5651.4517 5651451.5000    -999.25  -639.2500    13.5702    13.5702  -639.2500     2.6996   126.7259     0.0000    -999.25    60.0438     2.6500     2.6657  1362.6080     0.5541  -721.6506    -999.25     0.3210     0.0335     0.0335 18541.5078     2.3497     2.6914     2.6914     7.2438     1.0000     1.0000     1.0000 -1281.2980    79.8970     0.0335     2.0000
