~Version ---------------------------------------------------
VERS. 2.0 : CWLS log ASCII Standard -VERSION 2.0
WRAP.  NO : 
~Well ------------------------------------------------------
STRT.m                                                   1210.0 : 
STOP.m                                                1487.9776 : 
STEP.m                                                   0.1524 : 
NULL.                                                   -999.25 : 
COMP.                                                           : COMPANY
WELL.                                                   Well-14 : WELL
FLD .                                                           : FIELD
LOC .                                                           : LOCATION
SRVC.                                                           : SERVICE COMPANY
DATE. 2021-01-20 14:34:06   : Log Export Date {yyyy-MM-dd HH:mm : ss}
PROV.                                                           : PROVINCE
UWI .                                                   Well-14 : UNIQUE WELL ID
API .                                                           : API NUMBER
~Curve Information -----------------------------------------
DEPTH             .m        : DEPTH
ACOUSTICIMPEDANCE1.kPa.s/m  : ACOUSTICIMPEDANCE1
AI                .kPa.s/m  : AI
AVG_PIGN          .m3/m3    : AVG_PIGN
CALI              .in       : CALI
CALI[DERIVED]1    .in       : CALI[DERIVED]1
DFL               .ohm.m    : DFL
DT                .us/ft    : DT
FACIES            ._        : FACIES
FLD1              ._        : FLD1
GR                .gAPI     : GR
HDRS              .ohm.m    : HDRS
HMRS              .ohm.m    : HMRS
DEPTH_1           .m        : DEPTH_1
NPHI              .m3/m3    : NPHI
PERF_INT          ._        : PERF_INT
PERMEABILITY      .mD       : PERMEABILITY
PHIT              .m3/m3    : PHIT
PIGN              .m3/m3    : PIGN
PIGN_MODELLING    .m3/m3    : PIGN_MODELLING
PIMP              .kPa.s/m  : PIMP
RHOB              .g/cm3    : RHOB
LLD               .ohm.m    : LLD
RT_MODELLING      .ohm.m    : RT_MODELLING
RT_POWER          .ohm.m    : RT_POWER
SP                .mV       : SP
SUWI              ._        : SUWI
SUWI_MODELLING    ._        : SUWI_MODELLING
SXWI              ._        : SXWI
TDVSS             .m        : TDVSS
VCL               .%        : VCL
WATER_VOL         ._        : WATER_VOL
ZLT               ._        : ZLT
~Params ----------------------------------------------------
~Other -----------------------------------------------------
~ASCII -----------------------------------------------------
# ...
  1246.8808  4259.6606 4259660.5000    -999.25    10.3599    10.3599     0.9894   152.4000     0.0000    -999.25    55.5278     0.7445     0.7621  1246.8807     0.5478    -999.25    -999.25     0.2521     0.0775     0.0775 13975.2637     2.1298     0.7444     0.7444     0.5541    86.3715     1.0000     1.0000     1.0000 -1180.1508    75.0140     0.0775    -999.25
  1247.0332  4277.0601 4277060.0000    -999.25    10.1591    10.1591     0.9585   152.4000     0.0000    -999.25    56.3878     0.7281     0.7486  1247.0332     0.5393    -999.25    -999.25     0.2525     0.0814     0.0814 14032.3496     2.1385     0.7282     0.7282     0.5303    86.4696     1.0000     1.0000     1.0000 -1180.3032    73.7640     0.0814    -999.25
  1247.1856  4299.2202 4299220.5000    -999.25    10.1136    10.1136     0.9083   152.4000     0.0000    -999.25    57.1652     0.7249     0.7498  1247.1855     0.5170    -999.25    -999.25     0.2524     0.0845     0.0845 14105.0537     2.1496     0.7253     0.7253     0.5260    86.2142     1.0000     1.0000     1.0000 -1180.4556    70.5220     0.0845    -999.25
  1247.3380  4326.1602 4326160.0000    -999.25    10.2239    10.2239     0.8799   152.4000     0.0000    -999.25    57.4003     0.7500     0.7766  1247.3380     0.4879    -999.25    -999.25     0.2478     0.0831     0.0831 14193.4385     2.1631     0.7507     0.7507     0.5635    86.0385     1.0000     1.0000     1.0000 -1180.6079    66.7820     0.0831    -999.25
  1247.4904  4352.1802 4352180.0000    -999.25    10.3657    10.3657     0.9226   152.4000     0.0000    -999.25    57.2747     0.8304     0.8514  1247.4904     0.4613    -999.25    -999.25     0.2397     0.0814     0.0814 14278.8066     2.1761     0.8319     0.8319     0.6920    85.8516     1.0000     1.0000     1.0000 -1180.7604    63.3700     0.0814    -999.25
  1247.6428  4381.0400 4381040.5000    -999.25    10.5257    10.5257     1.1241   152.4000     0.0000    -999.25    55.8708     0.9689     0.9814  1247.6428     0.4456    -999.25    -999.25     0.2309     0.0847     0.0847 14373.4922     2.1905     0.9699     0.9699     0.9408    85.6276     1.0000     1.0000     1.0000 -1180.9127    60.4640     0.0847    -999.25
  1247.7952  4409.5005 4409500.5000    -999.25    10.7628    10.7628     1.4106   152.4000     1.0000    -999.25    53.1395     1.1281     1.1424  1247.7952     0.4380    -999.25    -999.25     0.2267     0.1018     0.1018 14466.8643     2.2048     1.1283     1.1283     1.2730    85.4530     1.0000     1.0000     1.0000 -1181.0652    56.8440     0.1018    -999.25
  1247.9476  4439.4800 4439480.0000    -999.25    11.0874    11.0874     1.6606   152.4000     1.0000    -999.25    49.5785     1.2716     1.3022  1247.9475     0.4276    -999.25    -999.25     0.2275     0.1288     0.1288 14565.2227     2.2197     1.2712     1.2712     1.6159    85.5044     1.0000     1.0000     1.0000 -1181.2175    51.6100     0.1288    -999.25
  1248.1000  4480.9600 4480960.0000    -999.25    11.4189    11.4189     1.8383   152.4000     1.0000    -999.25    46.3607     1.4045     1.4545  1248.1000     0.4123    -999.25    -999.25     0.2265     0.1491     0.1491 14701.3125     2.2405     1.4046     1.4046     1.9730    85.7229     1.0000     1.0000     1.0000 -1181.3700    46.6230     0.1491    -999.25
  1248.2524  4505.8198 4505820.0000    -999.25    11.6859    11.6859     2.0175   152.4000     1.0000    -999.25    44.3602     1.5115     1.5638  1248.2523     0.4000    -999.25    -999.25     0.2259     0.1620     0.1620 14782.8740     2.2529     1.5107     1.5107     2.2823    85.7218     1.0000     1.0000     1.0000 -1181.5223    43.0730     0.1620    -999.25
  1248.4048  4471.4600 4471460.0000    -999.25    11.8657    11.8657     2.1513   152.4000     1.0000    -999.25    44.4169     1.5014     1.5384  1248.4048     0.3978    -999.25    -999.25     0.2325     0.1698     0.1698 14670.1445     2.2357     1.4981     1.4981     2.2445    85.6152     1.0000     1.0000     1.0000 -1181.6748    41.5450     0.1698    -999.25
  1248.5572  4387.6201 4387620.0000    -999.25    11.8795    11.8795     1.9819   152.4000     1.0000    -999.25    45.5691     1.3824     1.4040  1248.5571     0.4076    -999.25    -999.25     0.2480     0.1737     0.1737 14395.0791     2.1938     1.3810     1.3810     1.9072    85.6547     1.0000     1.0000     1.0000 -1181.8271    41.9960     0.1737    -999.25
  1248.7096  4300.5200 4300520.0000    -999.25    11.6775    11.6775     1.6386   152.4000     1.0000    -999.25    46.2482     1.2681     1.2768  1248.7096     0.4266    -999.25    -999.25     0.2639     0.1711     0.1711 14109.3184     2.1503     1.2691     1.2691     1.6107    85.8074     1.0000     1.0000     1.0000 -1181.9796    44.3560     0.1711    -999.25
  1248.8620  4218.1602 4218160.5000    -999.25    11.4135    11.4135     1.4254   152.4000     1.0000    -999.25    46.1519     1.1828     1.1835  1248.8619     0.4503    -999.25    -999.25     0.2751     0.1611     0.1611 13839.1084     2.1091     1.1829     1.1829     1.3993    85.9144     1.0000     1.0000     1.0000 -1182.1320    48.0610     0.1611    -999.25
  1249.0144  4144.2803 4144280.0000    -999.25    11.2699    11.2699     1.3356   152.4000     1.0000    -999.25    46.1254     1.0804     1.0866  1249.0144     0.4722    -999.25    -999.25     0.2779     0.1470     0.1470 13596.7197     2.0721     1.0796     1.0796     1.1656    85.8838     1.0000     1.0000     1.0000 -1182.2844    52.6470     0.1470    -999.25
  1249.1668  4116.9805 4116980.2500    -999.25    11.1625    11.1625     1.2332   152.4000     1.0000    -999.25    46.9138     0.9692     0.9887  1249.1667     0.4876    -999.25    -999.25     0.2760     0.1340     0.1340 13507.1533     2.0585     0.9694     0.9694     0.9397    85.9804     1.0000     1.0000     1.0000 -1182.4368    56.8220     0.1340    -999.25
  1249.3192  4123.4399 4123440.0000    -999.25    11.0218    11.0218     1.1252   152.4000     1.0000    -999.25    49.0163     0.8875     0.9170  1249.3192     0.4938    -999.25    -999.25     0.2744     0.1257     0.1257 13528.3467     2.0617     0.8883     0.8883     0.7890    86.0642     1.0000     1.0000     1.0000 -1182.5891    59.5060     0.1257    -999.25
  1249.4716  4147.9805 4147980.5000    -999.25    10.9126    10.9126     1.0534   152.4000     1.0000    -999.25    51.8036     0.8462     0.8783  1249.4716     0.4898    -999.25    -999.25     0.2741     0.1238     0.1238 13608.8594     2.0740     0.8469     0.8469     0.7173    86.2301     1.0000     1.0000     1.0000 -1182.7416    60.0990     0.1238    -999.25
  1249.6240  4201.1201 4201120.0000    -999.25    10.8574    10.8574     1.0370   152.4000     1.0000    -999.25    54.1671     0.8321     0.8614  1249.6240     0.4800    -999.25    -999.25     0.2692     0.1192     0.1192 13783.2021     2.1006     0.8324     0.8324     0.6929    86.2834     1.0000     1.0000     1.0000 -1182.8939    60.0070     0.1192    -999.25
  1249.7764  4262.1807 4262180.5000    -999.25    10.8311    10.8311     1.0557   152.4000     1.0000    -999.25    55.5123     0.8288     0.8552  1249.7764     0.4708    -999.25    -999.25     0.2581     0.1062     0.1062 13983.5322     2.1311     0.8289     0.8289     0.6870    86.2498     1.0000     1.0000     1.0000 -1183.0464    60.7710     0.1062    -999.25
  1249.9288  4313.4600 4313460.0000    -999.25    10.8479    10.8479     1.0772   152.4000     1.0000    -999.25    55.4377     0.8280     0.8523  1249.9287     0.4684    -999.25    -999.25     0.2492     0.1003     0.1003 14151.7715     2.1567     0.8280     0.8280     0.6856    86.4249     1.0000     1.0000     1.0000 -1183.1987    61.3720     0.1003    -999.25
  1250.0812  4363.6006 4363600.5000    -999.25    10.8753    10.8753     1.0886   152.4000     1.0000    -999.25    54.5631     0.8280     0.8498  1250.0812     0.4741    -999.25    -999.25     0.2430     0.1028     0.1028 14316.2744     2.1818     0.8280     0.8280     0.6856    86.7568     1.0000     1.0000     1.0000 -1183.3512    62.1370     0.1028    -999.25
