~Version ---------------------------------------------------
VERS. 2.0 : CWLS log ASCII Standard -VERSION 2.0
WRAP.  NO : 
~Well ------------------------------------------------------
STRT.m                                                   1210.0 : 
STOP.m                                                1487.9776 : 
STEP.m                                                   0.1524 : 
NULL.                                                   -999.25 : 
COMP.                                                           : COMPANY
WELL.                                                   Well-14 : WELL
FLD .                                                           : FIELD
LOC .                                                           : LOCATION
SRVC.                                                           : SERVICE COMPANY
DATE. 2021-01-20 14:34:06   : Log Export Date {yyyy-MM-dd HH:mm : ss}
PROV.                                                           : PROVINCE
UWI .                                                   Well-14 : UNIQUE WELL ID
API .                                                           : API NUMBER
~Curve Information -----------------------------------------
DEPTH             .m        : DEPTH
ACOUSTICIMPEDANCE1.kPa.s/m  : ACOUSTICIMPEDANCE1
AI                .kPa.s/m  : AI
AVG_PIGN          .m3/m3    : AVG_PIGN
CALI              .in       : CALI
CALI[DERIVED]1    .in       : CALI[DERIVED]1
DFL               .ohm.m    : DFL
DT                .us/ft    : DT
FACIES            ._        : FACIES
FLD1              ._        : FLD1
GR                .gAPI     : GR
HDRS              .ohm.m    : HDRS
HMRS              .ohm.m    : HMRS
DEPTH_1           .m        : DEPTH_1
NPHI              .m3/m3    : NPHI
PERF_INT          ._        : PERF_INT
PERMEABILITY      .mD       : PERMEABILITY
PHIT              .m3/m3    : PHIT
PIGN              .m3/m3    : PIGN
PIGN_MODELLING    .m3/m3    : PIGN_MODELLING
PIMP              .kPa.s/m  : PIMP
RHOB              .g/cm3    : RHOB
LLD               .ohm.m    : LLD
RT_MODELLING      .ohm.m    : RT_MODELLING
RT_POWER          .ohm.m    : RT_POWER
SP                .mV       : SP
SUWI              ._        : SUWI
SUWI_MODELLING    ._        : SUWI_MODELLING
SXWI              ._        : SXWI
TDVSS             .m        : TDVSS
VCL               .%        : VCL
WATER_VOL         ._        : WATER_VOL
ZLT               ._        : ZLT
~Params ----------------------------------------------------
~Other -----------------------------------------------------
~ASCII -----------------------------------------------------
# ...
  1411.1680  5833.0249 5833025.0000    -999.25     8.7700     8.7700     9.2435   121.9200     2.0000    -999.25    62.4772     5.0464     5.2299  1411.1680     0.5398    -999.25     5.5488     0.1907     0.1376     0.1376 19137.2207     2.3332     5.0462     5.0462    25.4645    82.4415     0.6303     0.6303     0.8684 -1344.4380    55.6480     0.0868    20.0000
  1411.3204  5888.9502 5888950.5000    -999.25     8.7671     8.7671     8.7952   121.9200     2.0000    -999.25    64.9509     5.1141     5.3025  1411.3203     0.5430    -999.25     3.8293     0.1867     0.1296     0.1296 19320.7031     2.3556     5.1167     5.1167    26.1806    81.3624     0.6304     0.6304     0.8676 -1344.5903    58.2520     0.0817    20.0000
  1411.4728  5895.9497 5895949.5000    -999.25     8.7638     8.7638     8.3680   121.9200     2.0000    -999.25    67.6364     5.2717     5.4144  1411.4728     0.5489    -999.25     2.4702     0.1807     0.1219     0.1219 19343.6660     2.3584     5.2730     5.2730    27.8042    80.8060     0.6233     0.6233     0.8693 -1344.7428    60.7260     0.0760    20.0000
  1411.6252  5904.7998 5904800.0000    -999.25     8.7706     8.7706     8.3523   121.9200     2.0000    -999.25    69.1947     5.3801     5.4718  1411.6251     0.5428    -999.25     2.9978     0.1812     0.1214     0.1214 19372.7031     2.3619     5.3777     5.3777    28.9200    80.8306     0.6058     0.6058     0.8635 -1344.8951    60.8920     0.0735    20.0000
  1411.7776  6005.0249 6005025.0000    -999.25     8.7847     8.7847     8.3608   121.9200     2.0000    -999.25    68.1874     5.3095     5.3977  1411.7776     0.5198    -999.25     7.0165     0.1957     0.1292     0.1292 19701.5254     2.4020     5.3053     5.3053    28.1461    81.1367     0.5850     0.5850     0.8416 -1345.0476    58.3640     0.0756    20.0000
  1411.9300  6237.0752 6237075.5000    -999.25     8.7822     8.7822     8.1237   121.9200     2.0000    -999.25    64.8741     5.1410     5.2530  1411.9299     0.4931    -999.25    14.9810     0.2183     0.1367     0.1367 20462.8457     2.4948     5.1406     5.1406    26.4263    81.3973     0.5798     0.5798     0.8100 -1345.2000    55.9350     0.0793    20.0000
  1412.0824  6470.9004 6470900.5000    -999.25     8.7893     8.7893     7.9862   121.9200     2.0000    -999.25    60.9352     5.0935     5.2069  1412.0824     0.4751    -999.25    17.8919     0.2199     0.1297     0.1297 21229.9883     2.5884     5.0977     5.0977    25.9862    81.7463     0.6285     0.6285     0.8130 -1345.3524    56.0500     0.0815    20.0000
  1412.2348  6588.3750 6588375.0000    -999.25     8.8289     8.8289     8.3665   121.9200     2.0000    -999.25    59.4535     5.0973     5.1748  1412.2347     0.4720    -999.25    14.5643     0.2113     0.1181     0.1181 21615.4043     2.6353     5.0960     5.0960    25.9693    82.0584     0.6742     0.6742     0.8169 -1345.5048    57.7110     0.0796    20.0000
  1412.3872  6459.3501 6459350.0000    -999.25     8.8687     8.8687     8.2431   121.9200     2.0000    -999.25    62.6783     4.6076     4.6539  1412.3872     0.4807    -999.25    16.2982     0.2197     0.1277     0.1277 21192.0938     2.5837     4.5917     4.5917    21.0839    82.4084     0.6994     0.6994     0.8129 -1345.6572    56.9560     0.0893    20.0000
  1412.5396  6171.1499 6171149.5000    -999.25     8.8842     8.8842     6.6476   121.9200     2.0000    -999.25    68.4176     3.6557     3.7006  1412.5396     0.4951    -999.25    14.2613     0.2108     0.1329     0.1329 20246.5547     2.4685     3.6508     3.6508    13.3281    82.8161     0.8516     0.8516     0.8933 -1345.8096    57.0980     0.1131    20.0000
  1412.6920  5982.0005 5982000.5000    -999.25     8.8881     8.8881     4.6410   121.9200     2.0000    -999.25    74.7511     2.8829     2.9280  1412.6920     0.5111    -999.25     8.6365     0.1904     0.1232     0.1232 19625.9844     2.3928     2.8913     2.8913     8.3598    83.5622     0.9744     0.9744     0.9764 -1345.9619    60.3100     0.1200    20.0000
  1412.8444  5924.3252 5924325.0000    -999.25     8.8852     8.8852     3.5497   121.9200     2.0000    -999.25    80.3450     2.5052     2.5408  1412.8444     0.5271    -999.25     4.5716     0.1752     0.1095     0.1095 19436.7617     2.3697     2.5116     2.5116     6.3081    84.2782     0.9990     0.9990     0.9990 -1346.1144    64.7030     0.1094    20.0000
  1412.9968  5902.7256 5902725.5000    -999.25     8.8865     8.8865     3.4041   121.9200     2.0000    -999.25    82.4111     2.3662     2.3946  1412.9968     0.5406    -999.25     2.6978     0.1667     0.1015     0.1015 19365.8984     2.3611     2.3693     2.3693     5.6134    84.4959     1.0000     1.0000     1.0000 -1346.2667    67.2920     0.1015    20.0000
  1413.1492  5874.2251 5874225.0000    -999.25     8.9035     8.9035     3.5252   121.9200     2.0000    -999.25    82.3722     2.2913     2.3187  1413.1492     0.5470    -999.25     2.1582     0.1631     0.0999     0.0999 19272.3926     2.3497     2.2911     2.2911     5.2492    84.5216     1.0000     1.0000     1.0000 -1346.4192    67.8080     0.0999    20.0000
  1413.3016  5750.8257 5750825.5000    -999.25     8.9408     8.9408     3.5100   121.9200     2.0000    -999.25    81.2541     2.1877     2.2152  1413.3015     0.5498    -999.25     1.9313     0.1791     0.0992     0.0992 18867.5371     2.3003     2.1868     2.1868     4.7821    84.8302     1.0000     1.0000     1.0000 -1346.5715    68.0370     0.0992    20.0000
  1413.4540  5471.6250 5471625.0000    -999.25     8.9834     8.9834     3.3004   121.9200     0.0000    -999.25    78.0215     2.0917     2.1151  1413.4540     0.5596    -999.25     2.1036     0.2136     0.0988     0.0988 17951.5254     2.1886     2.0925     2.0925     4.3787    85.2955     0.9785     0.9785     0.9785 -1346.7240    68.1650     0.0967    21.0000
  1413.6064  4429.2568 4429257.0000    -999.25     8.9520     8.9520     3.1693   139.5984     3.0000    -999.25    72.9884     2.1320     2.1453  1413.6063     0.5840    -999.25     2.2758     0.1244     0.0515     0.0515 14531.6826     2.0286     2.1360     2.1360     4.5623    85.4728     0.9863     0.9863     0.9863 -1346.8763    63.3330     0.0508    21.0000
  1413.7588  3688.2202 3688220.2500    -999.25     8.8328     8.8328     3.4265   152.4000     3.0000    -999.25    65.8587     2.4893     2.4920  1413.7588     0.6245    -999.25     2.4481     0.0517     0.0215     0.0215 12100.4600     1.8441     2.4974     2.4974     6.2368    85.4068     0.9993     0.9993     0.9993 -1347.0288    52.8370     0.0215    21.0000
  1413.9112  3320.8403 3320840.2500    -999.25     8.7214     8.7214     4.2424   152.4000     3.0000    -999.25    55.6565     3.4374     3.4588  1413.9111     0.6781    -999.25     2.6203     0.0370     0.0200     0.0200 10895.1455     1.6604     3.4522     3.4522    11.9179    85.3419     1.0000     1.0000     1.0000 -1347.1812    40.3450     0.0200    21.0000
  1414.0636  2979.3401 2979340.2500    -999.25     8.6827     8.6827     6.2996   152.4000     3.0000    -999.25    44.0626     5.4857     5.6106  1414.0636     0.7341    -999.25     2.7926     0.0258     0.0200     0.0200  9774.7383     1.4897     5.5138     5.5138    30.4024    85.2842     1.0000     1.0000     1.0000 -1347.3336    28.0720     0.0200    21.0000
  1414.2160  2704.7603 2704760.2500    -999.25     8.6857     8.6857    13.3576   152.4000     3.0000    -999.25    32.9584     9.5964     9.8734  1414.2159     0.7732    -999.25     2.9648     0.0161     0.0200     0.0200  8873.8848     1.3524     9.6493     9.6493    93.1082    85.1003     1.0000     1.0000     1.0000 -1347.4860    17.5000     0.0200    21.0000
  1414.3684  2530.6799 2530680.0000    -999.25     8.6981     8.6981    38.0923   152.4000     3.0000    -999.25    23.3932    17.8477    18.2534  1414.3684     0.7825    -999.25     3.1371     0.0088     0.0200     0.0200  8302.7559     1.2653    17.9564    17.9564   322.4323    85.0664     1.0000     1.0000     1.0000 -1347.6384     9.6370     0.0200    21.0000
