~Version ---------------------------------------------------
VERS. 2.0 : CWLS log ASCII Standard -VERSION 2.0
WRAP.  NO : 
~Well ------------------------------------------------------
STRT.m                                                1187.6524 : 
STOP.m                                                1658.2636 : 
STEP.m                                                   0.1524 : 
NULL.                                                   -999.25 : 
COMP.                                                           : COMPANY
WELL.                                                   Well-19 : WELL
FLD .                                                           : FIELD
LOC .                                                           : LOCATION
SRVC.                                                           : SERVICE COMPANY
DATE. 2021-01-20 14:34:11   : Log Export Date {yyyy-MM-dd HH:mm : ss}
PROV.                                                           : PROVINCE
UWI .                                                   Well-19 : UNIQUE WELL ID
API .                                                           : API NUMBER
~Curve Information -----------------------------------------
DEPTH             .m        : DEPTH
ACOUSTICIMPEDANCE1.kPa.s/m  : ACOUSTICIMPEDANCE1
AI                .kPa.s/m  : AI
AVG_PIGN          .m3/m3    : AVG_PIGN
CALI              .in       : CALI
NPHI              .m3/m3    : NPHI
DT                .us/ft    : DT
DT4P              .us/ft    : DT4P
FACIES            ._        : FACIES
FLD1              ._        : FLD1
GR                .gAPI     : GR
M2R2              .ohm.m    : M2R2
LLS               .ohm.m    : LLS
LLD               .ohm.m    : LLD
DEPTH_1           .m        : DEPTH_1
NPHI_1            .m3/m3    : NPHI_1
PEF               .b/e      : PEF
PERF_INT          ._        : PERF_INT
PERMEABILITY      .mD       : PERMEABILITY
PIGN              .m3/m3    : PIGN
PIGN_MODELLING    .m3/m3    : PIGN_MODELLING
PIMP              .kPa.s/m  : PIMP
RHOB              .g/cm3    : RHOB
LLD_1             .ohm.m    : LLD_1
RT_MODELLING      .ohm.m    : RT_MODELLING
RT_POWER          .ohm.m    : RT_POWER
SP                .mV       : SP
SPDH              .mV       : SPDH
SUWI              ._        : SUWI
SUWI_MODELLING    ._        : SUWI_MODELLING
TDVSS             .m        : TDVSS
TEMP              .K        : TEMP
VCL               .%        : VCL
WATER_VOL         ._        : WATER_VOL
RHOB_1            .g/cm3    : RHOB_1
ZLT               ._        : ZLT
~Params ----------------------------------------------------
~Other -----------------------------------------------------
~ASCII -----------------------------------------------------
# ...
  1466.0872  3172.0776 3172077.5000    -999.25     8.8932     0.5778   127.2403   127.2403     3.0000    -999.25    69.2200     4.9851     5.8276     6.5863  1466.0872     0.5778     3.2650    -999.25     0.0000     0.0001     0.0100 10407.0781     1.3242     5.7385     5.7385    32.9305   -57.0381   309.4921     1.0000     1.0000 -1322.5786   156.2039    17.6760     0.0001     1.3242     5.0000
  1466.2396  2755.2563 2755256.2500    -999.25     8.8762     0.5597   132.3295   132.3295     3.0000    -999.25    56.6690     7.5135     9.1444    10.8606  1466.2395     0.5597     2.4769    -999.25     0.0000     0.0001     0.0100  9039.5547     1.1962     9.4609     9.4609    89.5090   -56.7165   310.4196     1.0000     1.0000 -1322.7169   156.2116     6.8440     0.0001     1.1962     5.0000
  1466.3920  2812.7571 2812757.0000    -999.25     8.8686     0.5274   134.0456   134.0456     3.0000    -999.25    46.1313     8.1504     9.9476    11.9209  1466.3920     0.5274     2.4425    -999.25     0.0000     0.0001     0.0100  9228.2051     1.2370    10.3927    10.3927   108.0074   -55.8071   311.9962     1.0000     1.0000 -1322.8553   156.2193     0.0000     0.0001     1.2370     5.0000
  1466.5444  3311.5125 3311512.5000    -999.25     8.8712     0.4537   133.1763   133.1763     3.0000    -999.25    43.2581     7.9707    10.3198    12.5989  1466.5443     0.4537     3.1603    -999.25     0.0000     0.0001     0.0100 10864.5420     1.4469    10.9847    10.9847   120.6643   -54.5050   313.7949     1.0000     1.0000 -1322.9938   156.2270     0.0000     0.0001     1.4469     5.0000
  1466.6968  4132.3418 4132342.0000    -999.25     8.8805     0.3882   129.8981   129.8981     3.0000    -999.25    49.4397     7.2493    10.4823    13.2753  1466.6968     0.3882     3.9193    -999.25     0.0000     0.0001     0.0100 13557.5527     1.7611    11.5745    11.5745   133.9702   -52.8494   315.7575     1.0000     1.0000 -1323.1321   156.2347     0.0000     0.0001     1.7611     5.0000
  1466.8492  5079.4067 5079406.5000    -999.25     8.8866     0.3675   122.5643   122.5643     3.0000    -999.25    61.3222     4.4021     5.8084     6.6012  1466.8491     0.3675     4.5108    -999.25     0.0000     0.0001     0.0100 16664.7207     2.0425     5.7711     5.7711    33.3058   -50.9856   317.9595     1.0000     1.0000 -1323.2705   156.2424     4.0530     0.0001     2.0425     5.0000
  1467.0016  5677.0298 5677029.5000    -999.25     8.8895     0.3664   118.2040   118.2040     3.0000    -999.25    73.2384     2.7348     3.6664     4.1774  1467.0016     0.3664     4.8429    -999.25     0.0000     0.0001     0.0100 18625.4258     2.2016     3.6481     3.6481    13.3086   -49.2874   320.2148     1.0000     1.0000 -1323.4088   156.2501    17.6790     0.0001     2.2016     5.0000
  1467.1540  6206.3350 6206334.5000    -999.25     8.9021     0.3551   111.4822   111.4822     3.0000    -999.25    82.1639     2.1145     2.8687     3.2727  1467.1539     0.3551     4.7116    -999.25     0.0000     0.0001     0.0100 20361.9902     2.2700     2.8558     2.8558     8.1557   -47.8636   322.2206     1.0000     1.0000 -1323.5472   156.2579    24.3370     0.0001     2.2700     5.0000
  1467.3064  6584.5884 6584588.0000    -999.25     8.9167     0.3381   106.7677   106.7677     0.0000     0.0000    89.1150     1.9908     2.6765     3.0500  1467.3064     0.3381     4.2862    -999.25     0.0000     0.0001     0.0100 21602.9805     2.3065     2.6601     2.6601     7.0761   -46.5509   323.6425     1.0000     1.0000 -1323.6855   156.2656    25.8630     0.0001     2.3065     6.0000
  1467.4588  6882.9888 6882988.5000    -999.25     8.9107     0.3373   103.3169   103.3169     0.0000     0.0000    95.6068     2.2895     2.9929     3.4026  1467.4587     0.3373     4.0897    -999.25     0.0000     0.0001     0.0100 22581.9844     2.3331     2.9663     2.9663     8.7988   -45.6385   324.2504     1.0000     1.0000 -1323.8240   156.2733    31.5540     0.0001     2.3331     6.0000
  1467.6112  6809.7563 6809756.0000    -999.25     8.8929     0.3631   105.1844   105.1844     0.0000     0.0000    99.5970     3.1575     3.9772     4.5017  1467.6112     0.3631     4.1161    -999.25     0.0040     0.0108     0.0108 22341.7188     2.3500     3.9230     3.9230    15.3902   -45.5456   323.9215     1.0000     1.0000 -1323.9623   156.2810    58.5050     0.0108     2.3500     6.0000
  1467.7636  6648.2441 6648244.0000    -999.25     8.8894     0.4013   108.2761   108.2761     0.0000     0.0000   100.3928     4.0489     5.1939     6.0133  1467.7635     0.4013     4.1738    -999.25     0.0013     0.0082     0.0100 21811.8242     2.3617     5.2402     5.2402    27.4600   -46.0761   322.8004     1.0000     1.0000 -1324.1007   156.2887    62.6030     0.0082     2.3617     6.0000
  1467.9160  6653.8862 6653886.5000    -999.25     8.8982     0.4197   108.7844   108.7844     0.0000     0.0000   100.3133     4.1879     5.1594     6.0438  1467.9159     0.4197     4.3519    -999.25     0.0022     0.0102     0.0102 21830.3359     2.3748     5.2701     5.2701    27.7743   -46.8365   321.3495     1.0000     1.0000 -1324.2391   156.2964    64.0090     0.0102     2.3748     6.0000
  1468.0684  6637.2949 6637295.0000    -999.25     8.9068     0.4292   109.2859   109.2859     0.0000     0.0000   100.7925     3.8698     4.6197     5.2994  1468.0684     0.4292     4.6605    -999.25     0.0058     0.0141     0.0141 21775.9023     2.3798     4.6227     4.6227    21.3697   -47.6768   320.0779     1.0000     1.0000 -1324.3774   156.3041    64.5900     0.0141     2.3798     6.0000
  1468.2208  6551.4624 6551462.5000    -999.25     8.9125     0.4420   109.8663   109.8663     0.0000     0.0000   101.2467     3.4859     4.1355     4.6623  1468.2207     0.4420     4.8915    -999.25     0.0274     0.0240     0.0240 21494.2988     2.3615     4.0669     4.0669    16.5401   -48.3443   319.2247     1.0000     1.0000 -1324.5159   156.3118    64.9870     0.0240     2.3615     6.0000
  1468.3732  6392.6172 6392617.0000    -999.25     8.9204     0.4262   110.6844   110.6844     0.0000     0.0000   101.2077     3.0577     3.6497     4.0506  1468.3732     0.4262     4.7870    -999.25     0.1237     0.0382     0.0382 20973.1523     2.3214     3.5335     3.5335    12.4856   -48.5797   318.7908     1.0000     1.0000 -1324.6542   156.3196    62.2040     0.0382     2.3214     6.0000
  1468.5256  6189.8076 6189807.5000    -999.25     8.9389     0.3780   111.5731   111.5731     0.0000     0.0000   101.4056     2.6076     3.1262     3.4139  1468.5255     0.3780     4.3229    -999.25     0.3625     0.0499     0.0499 20307.7676     2.2658     2.9783     2.9783     8.8705   -48.4934   318.8212     1.0000     1.0000 -1324.7926   156.3273    57.0410     0.0499     2.2658     6.0000
  1468.6780  5999.2896 5999289.5000    -999.25     8.9630     0.3443   112.8198   112.8198     0.0000     0.0000   101.7097     2.3167     2.7911     3.0423  1468.6780     0.3443     3.8908    -999.25     0.6087     0.0561     0.0561 19682.7090     2.2206     2.6537     2.6537     7.0422   -48.2391   319.3516     1.0000     1.0000 -1324.9309   156.3350    53.8360     0.0561     2.2206     6.0000
  1468.8304  5895.5112 5895511.0000    -999.25     8.9827     0.3528   113.7925   113.7925     0.0000     0.0000   101.4126     2.2618     2.7758     3.0090  1468.8303     0.3528     3.7851    -999.25     0.6797     0.0594     0.0594 19342.2285     2.2010     2.6239     2.6239     6.8850   -47.8601   320.1005     1.0000     1.0000 -1325.0693   156.3427    54.5650     0.0594     2.2010     6.0000
  1468.9828  5868.9868 5868987.0000    -999.25     8.9965     0.3912   114.5041   114.5041     0.0000     0.0000   100.5870     2.4397     3.0317     3.2675  1468.9828     0.3912     3.9163    -999.25     0.5461     0.0595     0.0595 19255.2070     2.2048     2.8487     2.8487     8.1150   -47.6478   320.5536     1.0000     1.0000 -1325.2076   156.3504    57.8670     0.0595     2.2048     6.0000
  1469.1352  5954.2144 5954214.5000    -999.25     9.0003     0.4259   114.0425   114.0425     0.0000     0.0000   100.3272     2.7972     3.4719     3.7197  1469.1351     0.4259     4.1232    -999.25     0.3336     0.0545     0.0545 19534.8242     2.2278     3.2426     3.2426    10.5143   -47.9070   320.4123     1.0000     1.0000 -1325.3461   156.3581    61.1910     0.0545     2.2278     6.0000
