~Version ---------------------------------------------------
VERS. 2.0 : CWLS log ASCII Standard -VERSION 2.0
WRAP.  NO : 
~Well ------------------------------------------------------
STRT.m                                                   1210.0 : 
STOP.m                                                1487.9776 : 
STEP.m                                                   0.1524 : 
NULL.                                                   -999.25 : 
COMP.                                                           : COMPANY
WELL.                                                   Well-14 : WELL
FLD .                                                           : FIELD
LOC .                                                           : LOCATION
SRVC.                                                           : SERVICE COMPANY
DATE. 2021-01-20 14:34:06   : Log Export Date {yyyy-MM-dd HH:mm : ss}
PROV.                                                           : PROVINCE
UWI .                                                   Well-14 : UNIQUE WELL ID
API .                                                           : API NUMBER
~Curve Information -----------------------------------------
DEPTH             .m        : DEPTH
ACOUSTICIMPEDANCE1.kPa.s/m  : ACOUSTICIMPEDANCE1
AI                .kPa.s/m  : AI
AVG_PIGN          .m3/m3    : AVG_PIGN
CALI              .in       : CALI
CALI[DERIVED]1    .in       : CALI[DERIVED]1
DFL               .ohm.m    : DFL
DT                .us/ft    : DT
FACIES            ._        : FACIES
FLD1              ._        : FLD1
GR                .gAPI     : GR
HDRS              .ohm.m    : HDRS
HMRS              .ohm.m    : HMRS
DEPTH_1           .m        : DEPTH_1
NPHI              .m3/m3    : NPHI
PERF_INT          ._        : PERF_INT
PERMEABILITY      .mD       : PERMEABILITY
PHIT              .m3/m3    : PHIT
PIGN              .m3/m3    : PIGN
PIGN_MODELLING    .m3/m3    : PIGN_MODELLING
PIMP              .kPa.s/m  : PIMP
RHOB              .g/cm3    : RHOB
LLD               .ohm.m    : LLD
RT_MODELLING      .ohm.m    : RT_MODELLING
RT_POWER          .ohm.m    : RT_POWER
SP                .mV       : SP
SUWI              ._        : SUWI
SUWI_MODELLING    ._        : SUWI_MODELLING
SXWI              ._        : SXWI
TDVSS             .m        : TDVSS
VCL               .%        : VCL
WATER_VOL         ._        : WATER_VOL
ZLT               ._        : ZLT
~Params ----------------------------------------------------
~Other -----------------------------------------------------
~ASCII -----------------------------------------------------
# ...
  1263.6448  3998.2603 3998260.2500    -999.25     9.9556     9.9556     1.3858   152.4000     0.0000    -999.25    62.6243     1.1067     1.1322  1263.6448     0.5811    -999.25    -999.25     0.1825     0.0459     0.0459 13117.6514     1.9991     1.1070     1.1070     1.2255    87.2747     1.0000     1.0000     1.0000 -1196.9148    75.3940     0.0459    -999.25
  1263.7972  3996.2000 3996200.0000    -999.25     9.8533     9.8533     1.4552   152.4000     0.0000    -999.25    63.5363     1.1554     1.1777  1263.7971     0.5767    -999.25    -999.25     0.1391     0.0364     0.0364 13110.8926     1.9981     1.1559     1.1559     1.3361    86.9592     1.0000     1.0000     1.0000 -1197.0671    73.2790     0.0364    -999.25
  1263.9496  3995.9402 3995940.2500    -999.25     9.8286     9.8286     1.5397   152.4000     0.0000    -999.25    65.4589     1.2371     1.2588  1263.9496     0.5750    -999.25    -999.25     0.0676     0.0208     0.0208 13110.0400     1.9980     1.2379     1.2379     1.5325    86.6259     1.0000     1.0000     1.0000 -1197.2196    70.1120     0.0208    -999.25
  1264.1020  4018.3799 4018379.7500    -999.25     9.8391     9.8391     1.7163   152.4000     0.0000    -999.25    67.3180     1.3503     1.3766  1264.1019     0.5733    -999.25    -999.25     0.1768     0.0416     0.0416 13183.6611     2.0092     1.3509     1.3509     1.8249    86.2908     1.0000     1.0000     1.0000 -1197.3719    77.2660     0.0416    -999.25
  1264.2544  4035.0601 4035060.0000    -999.25     9.9901     9.9901     1.9994   152.4000     0.0000    -999.25    68.1015     1.4414     1.4791  1264.2544     0.5730    -999.25    -999.25     0.2456     0.0540     0.0540 13238.3857     2.0175     1.4404     1.4404     2.0747    86.1024     1.0000     1.0000     1.0000 -1197.5244    82.1610     0.0540    -999.25
  1264.4068  4029.8401 4029840.2500    -999.25    10.1992    10.1992     2.2747   152.4000     0.0000    -999.25    68.0609     1.4338     1.4773  1264.4067     0.5792    -999.25    -999.25     0.2456     0.0503     0.0503 13221.2607     2.0149     1.4313     1.4313     2.0487    86.3456     1.0000     1.0000     1.0000 -1197.6768    83.8030     0.0503    -999.25
  1264.5592  4020.1399 4020139.7500    -999.25    10.3223    10.3223     2.2453   152.4000     0.0000    -999.25    67.4680     1.3360     1.3731  1264.5592     0.5911    -999.25    -999.25     0.2446     0.0439     0.0439 13189.4355     2.0101     1.3347     1.3347     1.7814    86.8953     1.0000     1.0000     1.0000 -1197.8292    85.8450     0.0439    -999.25
  1264.7116  4026.7603 4026760.2500    -999.25    10.3093    10.3093     1.9166   152.4000     0.0000    -999.25    67.8226     1.2323     1.2572  1264.7115     0.6012    -999.25    -999.25     0.2445     0.0371     0.0371 13211.1553     2.0134     1.2329     1.2329     1.5201    87.4954     1.0000     1.0000     1.0000 -1197.9816    88.0420     0.0371    -999.25
  1264.8640  4054.6204 4054620.5000    -999.25    10.2202    10.2202     1.6956   152.4000     0.0000    -999.25    67.8270     1.1750     1.1894  1264.8640     0.6030    -999.25    -999.25     0.2426     0.0356     0.0356 13302.5605     2.0273     1.1760     1.1760     1.3830    87.6375     1.0000     1.0000     1.0000 -1198.1339    88.5260     0.0356    -999.25
  1265.0164  4075.7800 4075780.0000    -999.25    10.0539    10.0539     1.6265   152.4000     3.0000    -999.25    66.5257     1.1597     1.1724  1265.0164     0.5959    -999.25    -999.25     0.2432     0.0421     0.0421 13371.9814     2.0379     1.1604     1.1604     1.3465    87.4413     1.0000     1.0000     1.0000 -1198.2864    86.4170     0.0421    -999.25
  1265.1688  4021.4802 4021480.2500    -999.25     9.7088     9.7088     1.6019   152.4000     3.0000    -999.25    63.9866     1.1798     1.1971  1265.1688     0.5869    -999.25    -999.25     0.1353     0.0303     0.0303 13193.8330     2.0107     1.1805     1.1805     1.3936    87.0827     1.0000     1.0000     1.0000 -1198.4387    75.3520     0.0303    -999.25
  1265.3212  3801.2603 3801260.2500    -999.25     9.2290     9.2290     1.5331   152.4000     3.0000    -999.25    58.4752     1.2500     1.2664  1265.3212     0.5903    -999.25    -999.25     0.0593     0.0205     0.0205 12471.3262     1.9006     1.2513     1.2513     1.5656    86.6619     1.0000     1.0000     1.0000 -1198.5912    61.4180     0.0205    -999.25
  1265.4736  3428.3403 3428340.2500    -999.25     8.8376     8.8376     1.5996   152.4000     3.0000    -999.25    49.7486     1.4536     1.4476  1265.4735     0.6163    -999.25    -999.25     0.0420     0.0200     0.0200 11247.8359     1.7142     1.4574     1.4574     2.1239    86.1414     1.0000     1.0000     1.0000 -1198.7435    46.0010     0.0200    -999.25
  1265.6260  3027.3604 3027360.2500    -999.25     8.6013     8.6013     1.9653   152.4000     3.0000    -999.25    39.0123     1.9986     1.9359  1265.6260     0.6607    -999.25    -999.25     0.0270     0.0200     0.0200  9932.2842     1.5137     2.0078     2.0078     4.0313    85.5337     1.0000     1.0000     1.0000 -1198.8960    29.6170     0.0200    -999.25
  1265.7784  2697.4800 2697480.0000    -999.25     8.5031     8.5031     3.4629   152.4000     3.0000    -999.25    28.1012     3.4558     3.4567  1265.7783     0.7040    -999.25    -999.25     0.0143     0.0200     0.0200  8850.0000     1.3487     3.4810     3.4810    12.1174    85.0129     1.0000     1.0000     1.0000 -1199.0483    15.6900     0.0200    -999.25
  1265.9308  2488.6599 2488660.0000    -999.25     8.4882     8.4882     7.9511   152.4000     3.0000    -999.25    19.5496     6.5710     7.3425  1265.9308     0.7295    -999.25    -999.25     0.0059     0.0200     0.0200  8164.8950     1.2443     6.6113     6.6113    43.7089    84.4727     1.0000     1.0000     1.0000 -1199.2008     6.4470     0.0200    -999.25
  1266.0832  2395.9001 2395900.0000    -999.25     8.4882     8.4882    16.7224   152.4000     3.0000    -999.25    15.6954     9.6846    12.3556  1266.0831     0.7337    -999.25    -999.25     0.0020     0.0200     0.0200  7860.5645     1.1980     9.6595     9.6595    93.3057    84.1592     1.0000     1.0000     1.0000 -1199.3531     2.1840     0.0200    -999.25
  1266.2356  2408.1204 2408120.2500    -999.25     8.4905     8.4905    22.9144   152.4000     3.0000    -999.25    16.9163    10.6064    14.8389  1266.2356     0.7259    -999.25    -999.25     0.0026     0.0200     0.0200  7900.6572     1.2041    10.5539    10.5539   111.3846    84.0791     1.0000     1.0000     1.0000 -1199.5056     2.8190     0.0200    -999.25
  1266.3880  2530.4800 2530480.0000    -999.25     8.5492     8.5492    21.9541   152.4000     3.0000    -999.25    23.1630     8.6554    12.1504  1266.3879     0.7172    -999.25    -999.25     0.0079     0.0200     0.0200  8302.0996     1.2652     8.5966     8.5966    73.9010    84.3454     1.0000     1.0000     1.0000 -1199.6580     8.6720     0.0200    -999.25
  1266.5404  2767.0400 2767040.2500    -999.25     8.8098     8.8098    13.9765   152.4000     3.0000    -999.25    33.1371     5.4205     7.0395  1266.5404     0.7081    -999.25    -999.25     0.0179     0.0200     0.0200  9078.2158     1.3835     5.4166     5.4166    29.3401    84.9223     1.0000     1.0000     1.0000 -1199.8104    19.5620     0.0200    -999.25
  1266.6928  3102.9199 3102920.0000    -999.25     9.2950     9.2950     6.7949   152.4000     3.0000    -999.25    45.6293     2.9773     3.4368  1266.6927     0.6908    -999.25    -999.25     0.0315     0.0200     0.0200 10180.1836     1.5515     3.0028     3.0028     9.0167    85.5546     1.0000     1.0000     1.0000 -1199.9628    34.5280     0.0200    -999.25
  1266.8452  3503.0603 3503060.2500    -999.25     9.7416     9.7416     3.2903   152.4000     3.0000    -999.25    58.1049     1.7179     1.8089  1266.8452     0.6586    -999.25    -999.25     0.0471     0.0200     0.0200 11492.9795     1.7515     1.7366     1.7366     3.0156    86.0737     1.0000     1.0000     1.0000 -1200.1151    51.5620     0.0200    -999.25
