~Version ---------------------------------------------------
VERS. 2.0 : CWLS log ASCII Standard -VERSION 2.0
WRAP.  NO : 
~Well ------------------------------------------------------
STRT.m                                                1187.6524 : 
STOP.m                                                1658.2636 : 
STEP.m                                                   0.1524 : 
NULL.                                                   -999.25 : 
COMP.                                                           : COMPANY
WELL.                                                   Well-19 : WELL
FLD .                                                           : FIELD
LOC .                                                           : LOCATION
SRVC.                                                           : SERVICE COMPANY
DATE. 2021-01-20 14:34:11   : Log Export Date {yyyy-MM-dd HH:mm : ss}
PROV.                                                           : PROVINCE
UWI .                                                   Well-19 : UNIQUE WELL ID
API .                                                           : API NUMBER
~Curve Information -----------------------------------------
DEPTH             .m        : DEPTH
ACOUSTICIMPEDANCE1.kPa.s/m  : ACOUSTICIMPEDANCE1
AI                .kPa.s/m  : AI
AVG_PIGN          .m3/m3    : AVG_PIGN
CALI              .in       : CALI
NPHI              .m3/m3    : NPHI
DT                .us/ft    : DT
DT4P              .us/ft    : DT4P
FACIES            ._        : FACIES
FLD1              ._        : FLD1
GR                .gAPI     : GR
M2R2              .ohm.m    : M2R2
LLS               .ohm.m    : LLS
LLD               .ohm.m    : LLD
DEPTH_1           .m        : DEPTH_1
NPHI_1            .m3/m3    : NPHI_1
PEF               .b/e      : PEF
PERF_INT          ._        : PERF_INT
PERMEABILITY      .mD       : PERMEABILITY
PIGN              .m3/m3    : PIGN
PIGN_MODELLING    .m3/m3    : PIGN_MODELLING
PIMP              .kPa.s/m  : PIMP
RHOB              .g/cm3    : RHOB
LLD_1             .ohm.m    : LLD_1
RT_MODELLING      .ohm.m    : RT_MODELLING
RT_POWER          .ohm.m    : RT_POWER
SP                .mV       : SP
SPDH              .mV       : SPDH
SUWI              ._        : SUWI
SUWI_MODELLING    ._        : SUWI_MODELLING
TDVSS             .m        : TDVSS
TEMP              .K        : TEMP
VCL               .%        : VCL
WATER_VOL         ._        : WATER_VOL
RHOB_1            .g/cm3    : RHOB_1
ZLT               ._        : ZLT
~Params ----------------------------------------------------
~Other -----------------------------------------------------
~ASCII -----------------------------------------------------
# ...
  1498.0912  5731.8467 5731846.5000    -999.25     9.4258     0.5123   123.4760   123.4760     0.0000    -999.25   127.4653     1.3250     1.4264     1.4585  1498.0912     0.5123     5.3293    -999.25     2.3185     0.0769     0.0769 18805.2715     2.3220     1.2716     1.2716     1.6170   -60.0373   303.3077     1.0000     1.0000 -1351.6425   157.8237    52.6240     0.0769     2.3220    10.0000
  1498.2436  5966.8950 5966895.0000    -999.25     9.3923     0.5304   119.8789   119.8789     0.0000    -999.25   134.0363     1.3508     1.4250     1.4598  1498.2435     0.5304     5.1399    -999.25     2.5585     0.0728     0.0728 19576.4277     2.3468     1.2729     1.2729     1.6204   -60.6065   302.7995     1.0000     1.0000 -1351.7809   157.8314    55.0380     0.0728     2.3468    10.0000
  1498.3960  6218.7812 6218781.0000    -999.25     9.3309     0.5431   116.2584   116.2584     0.0000    -999.25   140.7630     1.4389     1.4892     1.5275  1498.3960     0.5431     4.9176    -999.25     2.3573     0.0659     0.0659 20402.8262     2.3720     1.3318     1.3318     1.7738   -60.9430   302.2498     1.0000     1.0000 -1351.9193   157.8391    59.2510     0.0659     2.3720    10.0000
  1498.5484  6349.0068 6349007.0000    -999.25     9.2161     0.5268   114.6035   114.6035     0.0000    -999.25   143.2513     1.7017     1.7390     1.7935  1498.5483     0.5268     4.8135    -999.25     2.3167     0.0648     0.0648 20830.0762     2.3872     1.5633     1.5633     2.4440   -60.9339   301.7838     1.0000     1.0000 -1352.0577   157.8468    59.8960     0.0648     2.3872    10.0000
  1498.7008  6319.7231 6319723.0000    -999.25     9.1497     0.4892   115.2359   115.2359     0.0000    -999.25   141.4945     1.9953     2.0167     2.0929  1498.7008     0.4892     4.8781    -999.25     3.1654     0.0754     0.0754 20734.0000     2.3893     1.8243     1.8243     3.3282   -60.9939   301.5240     1.0000     1.0000 -1352.1962   157.8545    53.4610     0.0754     2.3893    10.0000
  1498.8532  6428.3110 6428311.5000    -999.25     9.1430     0.4524   113.2276   113.2276     0.0000    -999.25   137.2349     2.0659     2.0673     2.1499  1498.8531     0.4524     5.0691    -999.25     3.0530     0.0806     0.0806 21090.2598     2.3880     1.8746     1.8746     3.5141   -61.3999   301.2885     1.0000     1.0000 -1352.3346   157.8623    50.2290     0.0806     2.3880    10.0000
  1499.0056  6624.3354 6624335.5000    -999.25     9.1376     0.4420   110.2682   110.2682     0.0000    -999.25   132.3009     1.9825     1.9695     2.0463  1499.0055     0.4420     5.1698    -999.25     3.2857     0.0866     0.0866 21733.3848     2.3965     1.7846     1.7846     3.1848   -61.6570   300.8911     1.0000     1.0000 -1352.4730   157.8700    46.6140     0.0866     2.3965    10.0000
  1499.1580  6813.8203 6813820.5000    -999.25     9.1256     0.4662   108.4453   108.4453     0.0000    -999.25   127.2198     1.9641     1.9384     2.0139  1499.1580     0.4662     5.1452    -999.25     4.5610     0.0937     0.0937 22355.0547     2.4243     1.7562     1.7562     3.0842   -61.2886   300.5243     1.0000     1.0000 -1352.6115   157.8777    42.5340     0.0937     2.4243    10.0000
  1499.3104  7118.6450 7118645.0000    -999.25     9.1157     0.4887   106.2935   106.2935     0.0000    -999.25   121.0297     2.0745     2.0302     2.1108  1499.3103     0.4887     5.3808    -999.25     6.3458     0.0997     0.0997 23355.1348     2.4825     1.8404     1.8404     3.3871   -60.6847   300.3876     1.0000     1.0000 -1352.7498   157.8854    39.2000     0.0997     2.4825    10.0000
  1499.4628  7599.1855 7599185.5000    -999.25     9.1052     0.4847   103.0134   103.0134     0.0000    -999.25   110.8889     2.3677     2.2872     2.3858  1499.4628     0.4847     6.1003    -999.25     5.9187     0.0965     0.0965 24931.7109     2.5683     2.0798     2.0798     4.3256   -60.4702   300.4455     1.0000     1.0000 -1352.8882   157.8931    36.6080     0.0965     2.5683    10.0000
  1499.6152  8185.2822 8185282.5000    -999.25     9.0972     0.4681    98.3481    98.3481     0.0000    -999.25    96.9946     2.9170     2.7606     2.8980  1499.6151     0.4681     6.6809    -999.25     4.5112     0.0909     0.0909 26854.6016     2.6411     2.5259     2.5259     6.3803   -60.6458   300.5225     1.0000     1.0000 -1353.0266   157.9008    36.3670     0.0909     2.6411    10.0000
  1499.7676  8285.2871 8285287.5000    -999.25     9.1044     0.4472    97.6908    97.6908     0.0000    -999.25    84.8133     3.3815     3.1256     3.2894  1499.7676     0.4472     6.4726    -999.25     3.9340     0.0940     0.0940 27182.7012     2.6555     2.8675     2.8675     8.2225   -61.0662   300.3478     1.0000     1.0000 -1353.1650   157.9085    38.1260     0.0940     2.6555    10.0000
  1499.9200  8065.7666 8065767.0000    -999.25     9.1257     0.4405    98.6302    98.6302     0.0000    -999.25    80.4992     3.4164     3.1408     3.2953  1499.9199     0.4405     5.7781    -999.25     3.9473     0.1021     0.1021 26462.4902     2.6100     2.8735     2.8735     8.2569   -61.5126   299.9600     1.0000     1.0000 -1353.3035   157.9163    38.7150     0.1021     2.6100    10.0000
  1500.0724  7572.2632 7572263.5000    -999.25     9.1568     0.4572   102.0634   102.0634     0.0000    -999.25    84.9229     3.0121     2.8070     2.9240  1500.0724     0.4572     5.1441    -999.25     3.4403     0.1000     0.1000 24843.3828     2.5356     2.5505     2.5505     6.5053   -61.5947   299.6184     1.0000     1.0000 -1353.4419   157.9240    40.0230     0.1000     2.5356    10.0000
  1500.2248  7121.5762 7121576.0000    -999.25     9.1955     0.4705   105.4922   105.4922     0.0000    -999.25    94.2108     2.6234     2.4758     2.5584  1500.2247     0.4705     4.8894    -999.25     3.5208     0.0998     0.0998 23364.7520     2.4648     2.2317     2.2317     4.9807   -61.4701   299.3659     1.0000     1.0000 -1353.5803   157.9317    39.8970     0.0998     2.4648    10.0000
  1500.3772  6822.5688 6822569.0000    -999.25     9.2310     0.4636   108.1767   108.1767     0.0000    -999.25   102.0950     2.5735     2.4465     2.5202  1500.3772     0.4636     5.0408    -999.25     3.2118     0.0966     0.0966 22383.7559     2.4214     2.1977     2.1977     4.8299   -61.7636   299.0448     1.0000     1.0000 -1353.7188   157.9394    41.5170     0.0966     2.4214    10.0000
  1500.5296  6587.7173 6587717.5000    -999.25     9.2482     0.4702   111.4270   111.4270     0.0000    -999.25   105.9481     2.7029     2.5809     2.6549  1500.5295     0.4702     5.3527    -999.25     3.1949     0.0927     0.0927 21613.2461     2.4083     2.3148     2.3148     5.3582   -62.3910   298.6693     1.0000     1.0000 -1353.8572   157.9471    43.6920     0.0927     2.4083    10.0000
  1500.6820  6447.9570 6447957.0000    -999.25     9.2499     0.4913   114.1164   114.1164     0.0000    -999.25   107.6851     2.5611     2.4672     2.5282  1500.6819     0.4913     5.4525    -999.25     3.5700     0.0915     0.0915 21154.7148     2.4141     2.2049     2.2049     4.8615   -62.6944   298.2880     1.0000     1.0000 -1353.9956   157.9548    44.4370     0.0915     2.4141    10.0000
  1500.8344  6479.3921 6479392.0000    -999.25     9.2584     0.4915   113.9109   113.9109     0.0000    -999.25   109.1895     2.2206     2.1633     2.2055  1500.8344     0.4915     5.4280    -999.25     3.3083     0.0894     0.0894 21257.8477     2.4215     1.9239     1.9239     3.7014   -62.6113   297.8947     1.0000     1.0000 -1354.1340   157.9625    45.7040     0.0894     2.4215    10.0000
  1500.9868  6493.3784 6493378.5000    -999.25     9.2781     0.4816   113.6937   113.6937     0.0000    -999.25   111.0002     2.0675     2.0318     2.0663  1500.9867     0.4816     5.4383    -999.25     3.2802     0.0904     0.0904 21303.7363     2.4221     1.8021     1.8021     3.2476   -62.5325   297.4379     1.0000     1.0000 -1354.2725   157.9702    45.0300     0.0904     2.4221    10.0000
  1501.1392  6544.4038 6544404.0000    -999.25     9.2955     0.4888   112.9050   112.9050     0.0000    -999.25   113.3121     2.1193     2.0984     2.1333  1501.1392     0.4888     5.3647    -999.25     3.6413     0.0904     0.0904 21471.1426     2.4242     1.8601     1.8601     3.4599   -62.4133   296.9954     1.0000     1.0000 -1354.4109   157.9780    44.9760     0.0904     2.4242    10.0000
