~Version ---------------------------------------------------
VERS. 2.0 : CWLS log ASCII Standard -VERSION 2.0
WRAP.  NO : 
~Well ------------------------------------------------------
STRT.m                                                 1185.062 : 
STOP.m                                                1563.9284 : 
STEP.m                                                   0.1524 : 
NULL.                                                   -999.25 : 
COMP.                                                           : COMPANY
WELL.                                                    Well-8 : WELL
FLD .                                                           : FIELD
LOC .                                                           : LOCATION
SRVC.                                                           : SERVICE COMPANY
DATE. 2021-01-20 14:34:03   : Log Export Date {yyyy-MM-dd HH:mm : ss}
PROV.                                                           : PROVINCE
UWI .                                                    Well-8 : UNIQUE WELL ID
API .                                                           : API NUMBER
~Curve Information -----------------------------------------
DEPTH             .m        : DEPTH
ACOUSTICIMPEDANCE1.kPa.s/m  : ACOUSTICIMPEDANCE1
AI                .kPa.s/m  : AI
AVG_PIGN          .m3/m3    : AVG_PIGN
AZI1              .deg      : AZI1
CALI              .in       : CALI
CALI[DERIVED]1    .in       : CALI[DERIVED]1
DEVI              .deg      : DEVI
DFL               .ohm.m    : DFL
DT                .us/ft    : DT
FACIES            ._        : FACIES
FLD1              ._        : FLD1
GR                .gAPI     : GR
HDRS              .ohm.m    : HDRS
HMRS              .ohm.m    : HMRS
DEPTH_1           .m        : DEPTH_1
NPHI              .m3/m3    : NPHI
ONE-WAYTIME1      .ms       : ONE-WAYTIME1
PERF_INT          ._        : PERF_INT
PERMEABILITY      .mD       : PERMEABILITY
PIGN              .m3/m3    : PIGN
PIGN_MODELLING    .m3/m3    : PIGN_MODELLING
PIMP              .kPa.s/m  : PIMP
RHOB              .g/cm3    : RHOB
LLD               .ohm.m    : LLD
RT_MODELLING      .ohm.m    : RT_MODELLING
RT_POWER          .ohm.m    : RT_POWER
SUWI              ._        : SUWI
SUWI_MODELLING    ._        : SUWI_MODELLING
SXWI              ._        : SXWI
TDVSS             .m        : TDVSS
VCL               .%        : VCL
WATER_VOL         ._        : WATER_VOL
ZLT               ._        : ZLT
~Params ----------------------------------------------------
~Other -----------------------------------------------------
~ASCII -----------------------------------------------------
# ...
  1235.3540  4497.9048 4497905.0000    -999.25  -639.2500    12.5062    12.5062  -639.2500     1.1948   150.6739     0.0000    -999.25    49.6370     1.0010     1.0046  1235.3540     0.6037  -649.9788    -999.25    -999.25     0.0325     0.0325 14756.9062     2.2235     1.0001     1.0001     1.0003     1.0000     1.0000     1.0000 -1154.0441    80.5150     0.0325    -999.25
  1235.5064  4462.9106 4462911.0000    -999.25  -639.2500    12.6384    12.6384  -639.2500     1.1921   151.6170     0.0000    -999.25    49.2832     0.9937     0.9964  1235.5065     0.6144  -650.0646    -999.25    -999.25     0.0294     0.0294 14642.0957     2.2200     0.9937     0.9937     0.9875     1.0000     1.0000     1.0000 -1154.1964    82.3750     0.0294    -999.25
  1235.6588  4464.1562 4464156.5000    -999.25  -639.2500    12.6632    12.6632  -639.2500     1.2068   151.9516     0.0000    -999.25    48.5841     0.9937     1.0012  1235.6588     0.6298  -650.1505    -999.25    -999.25     0.0251     0.0251 14646.1816     2.2255     0.9934     0.9934     0.9869     1.0000     1.0000     1.0000 -1154.3489    84.9160     0.0251    -999.25
  1235.8112  4507.5903 4507590.5000    -999.25  -639.2500    12.6193    12.6193  -639.2500     1.1907   151.2251     0.0000    -999.25    47.4256     0.9910     1.0045  1235.8113     0.6410  -650.2363    -999.25    -999.25     0.0223     0.0223 14788.6826     2.2364     0.9903     0.9903     0.9806     1.0000     1.0000     1.0000 -1154.5012    86.5990     0.0223    -999.25
  1235.9636  4564.5161 4564516.0000    -999.25  -639.2500    12.5981    12.5981  -639.2500     1.1733   149.9475     0.0000    -999.25    46.4946     0.9843     1.0002  1235.9636     0.6395  -650.3221    -999.25    -999.25     0.0231     0.0231 14975.4463     2.2455     0.9840     0.9840     0.9683     1.0000     1.0000     1.0000 -1154.6537    86.1440     0.0231    -999.25
  1236.1160  4609.1875 4609187.5000    -999.25  -639.2500    12.5681    12.5681  -639.2500     1.1652   148.7355     0.0000    -999.25    46.7168     0.9828     0.9982  1236.1161     0.6277  -650.4080    -999.25    -999.25     0.0263     0.0263 15122.0059     2.2492     0.9839     0.9839     0.9681     1.0000     1.0000     1.0000 -1154.8060    84.2140     0.0263    -999.25
  1236.2684  4629.9185 4629918.5000    -999.25  -639.2500    12.4961    12.4961  -639.2500     1.1758   147.7793     0.0000    -999.25    47.9437     0.9936     1.0074  1236.2684     0.6178  -650.4938    -999.25    -999.25     0.0287     0.0287 15190.0215     2.2448     0.9957     0.9957     0.9914     1.0000     1.0000     1.0000 -1154.9584    82.8030     0.0287    -999.25
  1236.4208  4619.5190 4619519.0000    -999.25  -639.2500    12.4346    12.4346  -639.2500     1.1956   147.3353     0.0000    -999.25    49.5626     1.0123     1.0254  1236.4208     0.6206  -650.5797    -999.25    -999.25     0.0273     0.0273 15155.9023     2.2330     1.0141     1.0141     1.0284     1.0000     1.0000     1.0000 -1155.1108    83.6060     0.0273    -999.25
  1236.5732  4580.7241 4580724.5000    -999.25  -639.2500    12.4295    12.4295  -639.2500     1.2213   147.5218     0.0000    -999.25    50.7274     1.0281     1.0417  1236.5732     0.6403  -650.6655    -999.25    -999.25     0.0216     0.0216 15028.6230     2.2171     1.0286     1.0286     1.0580     1.0000     1.0000     1.0000 -1155.2632    87.1620     0.0216    -999.25
  1236.7256  4548.9253 4548925.5000    -999.25  -639.2500    12.4381    12.4381  -639.2500     1.2356   147.9795     0.0000    -999.25    50.6906     1.0318     1.0457  1236.7256     0.6736  -650.7513    -999.25    -999.25     0.0150     0.0150 14924.2959     2.2085     1.0311     1.0311     1.0632     1.0000     1.0000     1.0000 -1155.4156    92.7160     0.0150    -999.25
  1236.8780  4578.7886 4578788.5000    -999.25  -639.2500    12.4828    12.4828  -639.2500     1.2070   148.0156     0.0000    -999.25    49.6631     1.0261     1.0425  1236.8781     0.7051  -650.8372    -999.25    -999.25     0.0150     0.0150 15022.2715     2.2235     1.0263     1.0263     1.0533     1.0000     1.0000     1.0000 -1155.5680    97.7540     0.0150    -999.25
  1237.0304  4661.3442 4661344.0000    -999.25  -639.2500    12.5760    12.5760  -639.2500     1.1826   147.1720     0.0000    -999.25    47.9464     1.0298     1.0527  1237.0304     0.7197  -650.9230    -999.25    -999.25     0.0150     0.0150 15293.1240     2.2507     1.0336     1.0336     1.0683     1.0000     1.0000     1.0000 -1155.7205    99.8690     0.0150    -999.25
  1237.1828  4762.1860 4762186.0000    -999.25  -639.2500    12.6873    12.6873  -639.2500     1.1874   145.1993     0.0000    -999.25    46.0716     1.0673     1.0965  1237.1829     0.7131  -651.0088    -999.25    -999.25     0.0150     0.0150 15623.9707     2.2686     1.0751     1.0751     1.1559     1.0000     1.0000     1.0000 -1155.8728    98.7310     0.0150    -999.25
  1237.3352  4869.8311 4869831.0000    -999.25  -639.2500    12.7925    12.7925  -639.2500     1.3191   142.3597     0.0000    -999.25    45.7911     1.1391     1.1692  1237.3352     0.6937  -651.0947    -999.25    -999.25     0.0150     0.0150 15977.1357     2.2745     1.1456     1.1456     1.3124     1.0000     1.0000     1.0000 -1156.0253    95.5740     0.0150    -999.25
  1237.4876  4918.0059 4918005.5000    -999.25  -639.2500    12.8502    12.8502  -639.2500     1.5066   140.1242     0.0000    -999.25    47.7897     1.1958     1.2240  1237.4877     0.6708  -651.1805    -999.25    -999.25     0.0157     0.0157 16135.1895     2.2609     1.1947     1.1947     1.4272     1.0000     1.0000     1.0000 -1156.1776    91.7590     0.0157    -999.25
  1237.6400  4877.6162 4877616.0000    -999.25  -639.2500    12.8556    12.8556  -639.2500     1.5932   139.5504     0.0000    -999.25    50.3156     1.1828     1.2090  1237.6400     0.6473  -651.2663    -999.25    -999.25     0.0204     0.0204 16002.6777     2.2332     1.1772     1.1772     1.3857     1.0000     1.0000     1.0000 -1156.3301    87.7670     0.0204    -999.25
  1237.7924  4840.5015 4840501.5000    -999.25  -639.2500    12.8377    12.8377  -639.2500     1.4513   139.7684     0.0000    -999.25    51.6969     1.1314     1.1529  1237.7925     0.6278  -651.3522    -999.25    -999.25     0.0259     0.0259 15880.9111     2.2196     1.1276     1.1276     1.2716     1.0000     1.0000     1.0000 -1156.4824    84.4290     0.0259    -999.25
  1237.9448  4890.2573 4890257.5000    -999.25  -639.2500    12.8100    12.8100  -639.2500     1.2858   138.9852     0.0000    -999.25    52.1440     1.0986     1.1161  1237.9448     0.6116  -651.4380    -999.25    -999.25     0.0304     0.0304 16044.1523     2.2299     1.0985     1.0985     1.2066     1.0000     1.0000     1.0000 -1156.6349    81.7690     0.0304    -999.25
  1238.0972  5040.8545 5040854.5000    -999.25  -639.2500    12.7805    12.7805  -639.2500     1.2186   135.7974     0.0000    -999.25    52.0585     1.0996     1.1198  1238.0973     0.5958  -651.5238    -999.25    -999.25     0.0342     0.0342 16538.2363     2.2459     1.1031     1.1031     1.2168     1.0000     1.0000     1.0000 -1156.7872    79.4810     0.0342    -999.25
  1238.2496  5254.1533 5254153.5000    -999.25  -639.2500    12.7333    12.7333  -639.2500     1.2103   130.8908     0.0000    -999.25    51.4333     1.1324     1.1592  1238.2496     0.5804  -651.6097    -999.25    -999.25     0.0376     0.0376 17238.0371     2.2563     1.1371     1.1371     1.2929     1.0000     1.0000     1.0000 -1156.9396    77.4350     0.0376    -999.25
  1238.4020  5422.8335 5422833.5000    -999.25  -639.2500    12.6501    12.6501  -639.2500     1.2665   127.8597     0.0000    -999.25    50.8662     1.1747     1.2044  1238.4020     0.5685  -651.6955    -999.25    -999.25     0.0362     0.0362 17791.4473     2.2748     1.1784     1.1784     1.3885     1.0000     1.0000     1.0000 -1157.0920    76.6240     0.0362    -999.25
  1238.5544  5415.5205 5415520.5000    -999.25  -639.2500    12.5654    12.5654  -639.2500     1.3124   129.4676     0.0000    -999.25    49.8048     1.2097     1.2344  1238.5544     0.5638  -651.7813    -999.25    -999.25     0.0200     0.0200 17767.4551     2.3003     1.2150     1.2150     1.4763     1.0000     1.0000     1.0000 -1157.2444    78.0560     0.0200    -999.25
