~Version ---------------------------------------------------
VERS. 2.0 : CWLS log ASCII Standard -VERSION 2.0
WRAP.  NO : 
~Well ------------------------------------------------------
STRT.m                                                   1210.0 : 
STOP.m                                                1487.9776 : 
STEP.m                                                   0.1524 : 
NULL.                                                   -999.25 : 
COMP.                                                           : COMPANY
WELL.                                                   Well-14 : WELL
FLD .                                                           : FIELD
LOC .                                                           : LOCATION
SRVC.                                                           : SERVICE COMPANY
DATE. 2021-01-20 14:34:06   : Log Export Date {yyyy-MM-dd HH:mm : ss}
PROV.                                                           : PROVINCE
UWI .                                                   Well-14 : UNIQUE WELL ID
API .                                                           : API NUMBER
~Curve Information -----------------------------------------
DEPTH             .m        : DEPTH
ACOUSTICIMPEDANCE1.kPa.s/m  : ACOUSTICIMPEDANCE1
AI                .kPa.s/m  : AI
AVG_PIGN          .m3/m3    : AVG_PIGN
CALI              .in       : CALI
CALI[DERIVED]1    .in       : CALI[DERIVED]1
DFL               .ohm.m    : DFL
DT                .us/ft    : DT
FACIES            ._        : FACIES
FLD1              ._        : FLD1
GR                .gAPI     : GR
HDRS              .ohm.m    : HDRS
HMRS              .ohm.m    : HMRS
DEPTH_1           .m        : DEPTH_1
NPHI              .m3/m3    : NPHI
PERF_INT          ._        : PERF_INT
PERMEABILITY      .mD       : PERMEABILITY
PHIT              .m3/m3    : PHIT
PIGN              .m3/m3    : PIGN
PIGN_MODELLING    .m3/m3    : PIGN_MODELLING
PIMP              .kPa.s/m  : PIMP
RHOB              .g/cm3    : RHOB
LLD               .ohm.m    : LLD
RT_MODELLING      .ohm.m    : RT_MODELLING
RT_POWER          .ohm.m    : RT_POWER
SP                .mV       : SP
SUWI              ._        : SUWI
SUWI_MODELLING    ._        : SUWI_MODELLING
SXWI              ._        : SXWI
TDVSS             .m        : TDVSS
VCL               .%        : VCL
WATER_VOL         ._        : WATER_VOL
ZLT               ._        : ZLT
~Params ----------------------------------------------------
~Other -----------------------------------------------------
~ASCII -----------------------------------------------------
# ...
  1320.6424  4224.1001 4224100.5000    -999.25     8.6401     8.6401     5.0426   152.4000     0.0000    -999.25    83.1864     3.4653     3.4354  1320.6423     0.5882    -999.25     0.0112     0.0695     0.0200     0.0200 13858.5967     2.1121     3.4606     3.4606    11.9757    84.3107     1.0000     1.0000     1.0000 -1253.9124    75.9030     0.0200     4.0000
  1320.7948  4318.7407 4318740.5000    -999.25     8.6212     8.6212     4.4241   152.4000     0.0000    -999.25    80.2833     3.1207     3.0809  1320.7948     0.5764    -999.25     0.0491     0.1472     0.0435     0.0435 14169.0967     2.1594     3.1183     3.1183     9.7236    84.2162     1.0000     1.0000     0.8495 -1254.0648    79.0150     0.0435     4.0000
  1320.9472  4453.9399 4453940.0000    -999.25     8.5858     8.5858     3.6898   152.4000     0.0000    -999.25    77.5555     2.7928     2.7636  1320.9471     0.5445    -999.25     0.0037     0.1912     0.0747     0.0747 14612.6641     2.2270     2.7947     2.7947     7.8102    83.5840     1.0000     1.0000     0.9044 -1254.2172    75.6100     0.0747     4.0000
  1321.0996  5169.1948 5169195.0000    -999.25     8.6256     8.6256     3.2582   134.7214     0.0000    -999.25    74.9856     2.6094     2.6098  1321.0996     0.5052    -999.25     0.3471     0.1817     0.1057     0.1057 16959.3008     2.2848     2.6126     2.6126     6.8254    82.7952     1.0000     1.0000     0.9952 -1254.3696    65.9560     0.1057     4.0000
  1321.2520  5764.6504 5764650.0000    -999.25     8.7658     8.7658     3.1172   121.9200     0.0000    -999.25    74.0021     2.5385     2.5721  1321.2520     0.4701    -999.25     1.2441     0.1822     0.1275     0.1275 18912.8945     2.3059     2.5398     2.5398     6.4504    82.2871     1.0000     1.0000     1.0000 -1254.5220    58.9110     0.1275     4.0000
  1321.4044  5742.7505 5742750.5000    -999.25     8.9391     8.9391     3.1659   121.9200     0.0000    -999.25    74.5057     2.4886     2.5401  1321.4044     0.4445    -999.25     0.7590     0.1876     0.1235     0.1235 18841.0449     2.2971     2.4883     2.4883     6.1916    82.0258     1.0000     1.0000     1.0000 -1254.6743    56.7290     0.1235     4.0000
  1321.5568  5716.6250 5716625.0000    -999.25     9.0849     9.0849     3.1749   121.9200     0.0000    -999.25    75.1854     2.4113     2.4582  1321.5568     0.4295    -999.25     0.3159     0.1884     0.1146     0.1146 18755.3320     2.2866     2.4106     2.4106     5.8108    81.6318     1.0000     1.0000     1.0000 -1254.8268    56.0570     0.1146     4.0000
  1321.7092  5736.7998 5736800.0000    -999.25     9.1789     9.1789     3.0968   121.9200     0.0000    -999.25    75.8218     2.3432     2.3725  1321.7092     0.4233    -999.25     0.5884     0.1880     0.1288     0.1288 18821.5215     2.2947     2.3439     2.3439     5.4940    81.3017     1.0000     1.0000     1.0000 -1254.9791    53.9400     0.1288     4.0000
  1321.8616  5790.2256 5790225.5000    -999.25     9.1310     9.1310     3.0991   121.9200     0.0000    -999.25    75.8612     2.3572     2.3675  1321.8616     0.4211    -999.25     1.5668     0.1833     0.1341     0.1341 18996.8027     2.3161     2.3593     2.3593     5.5663    81.4920     1.0000     1.0000     1.0000 -1255.1316    53.2460     0.1341     4.0000
  1322.0140  5820.8755 5820875.5000    -999.25     8.9583     8.9583     3.3133   121.9200     4.0000    -999.25    75.3737     2.4364     2.4347  1322.0139     0.4187    -999.25     2.2473     0.1791     0.1304     0.1304 19097.3594     2.3284     2.4371     2.4371     5.9395    82.0354     1.0000     1.0000     1.0000 -1255.2839    53.2390     0.1304     4.0000
  1322.1664  5822.5000 5822500.0000    -999.25     8.7553     8.7553     3.4813   121.9200     4.0000    -999.25    75.4209     2.4948     2.4956  1322.1664     0.4147    -999.25     2.3547     0.1774     0.1290     0.1290 19102.6914     2.3290     2.4937     2.4937     6.2187    82.2992     1.0000     1.0000     1.0000 -1255.4364    52.8660     0.1290     4.0000
  1322.3188  5833.1001 5833100.0000    -999.25     8.5940     8.5940     3.4975   121.9200     4.0000    -999.25    76.5486     2.5227     2.5402  1322.3187     0.4110    -999.25     2.3607     0.1726     0.1238     0.1238 19137.4668     2.3332     2.5225     2.5225     6.3629    82.1800     1.0000     1.0000     1.0000 -1255.5887    53.3620     0.1238     4.0000
  1322.4712  5860.2251 5860225.0000    -999.25     8.4868     8.4868     3.4946   121.9200     4.0000    -999.25    77.6019     2.5632     2.5990  1322.4712     0.4096    -999.25     2.5726     0.1663     0.1165     0.1165 19226.4609     2.3441     2.5638     2.5638     6.5732    81.9886     1.0000     1.0000     1.0000 -1255.7412    54.4040     0.1165     4.0000
  1322.6236  5888.0752 5888075.5000    -999.25     8.4899     8.4899     3.6178   121.9200     4.0000    -999.25    78.1458     2.6100     2.6544  1322.6235     0.4121    -999.25     2.7636     0.1609     0.1099     0.1099 19317.8320     2.3552     2.6098     2.6098     6.8112    82.1941     1.0000     1.0000     1.0000 -1255.8936    55.7420     0.1099     4.0000
  1322.7760  5937.6753 5937675.5000    -999.25     8.5950     8.5950     3.6200   121.9200     4.0000    -999.25    78.4216     2.6422     2.6859  1322.7760     0.4195    -999.25     3.1783     0.1575     0.1027     0.1027 19480.5625     2.3751     2.6419     2.6419     6.9795    82.6571     1.0000     1.0000     1.0000 -1256.0460    57.9060     0.1027     4.0000
  1322.9284  5987.2495 5987249.5000    -999.25     8.7113     8.7113     3.4358   121.9200     4.0000    -999.25    77.9759     2.6575     2.6950  1322.9283     0.4330    -999.25     3.8989     0.1605     0.1000     0.1000 19643.2070     2.3949     2.6572     2.6572     7.0609    83.3379     1.0000     1.0000     1.0000 -1256.1984    60.2350     0.1000     4.0000
  1323.0808  5983.5498 5983550.0000    -999.25     8.7376     8.7376     3.2999   121.9200     4.0000    -999.25    77.0256     2.6331     2.6568  1323.0808     0.4533    -999.25     4.4167     0.1699     0.1054     0.1054 19631.0703     2.3934     2.6320     2.6320     6.9276    84.0581     1.0000     1.0000     1.0000 -1256.3508    62.2090     0.1054     4.0000
  1323.2332  5939.0503 5939050.5000    -999.25     8.6856     8.6856     3.3619   121.9200     0.0000    -999.25    77.2497     2.5518     2.5541  1323.2332     0.4809    -999.25     3.1572     0.1704     0.1042     0.1042 19485.0742     2.3756     2.5506     2.5506     6.5056    84.9008     1.0000     1.0000     1.0000 -1256.5032    65.5590     0.1042     4.0000
  1323.3856  5898.5244 5898524.5000    -999.25     8.6187     8.6187     3.3883   121.9200     0.0000    -999.25    77.4360     2.4334     2.4151  1323.3856     0.5122    -999.25     1.6421     0.1621     0.0944     0.0944 19352.1152     2.3594     2.4328     2.4328     5.9188    85.7549     1.0000     1.0000     1.0000 -1256.6555    69.5390     0.0944     4.0000
  1323.5380  5864.1250 5864125.0000    -999.25     8.5792     8.5792     3.2657   121.9200     0.0000    -999.25    76.1800     2.3268     2.2985  1323.5380     0.5380    -999.25     0.8977     0.1562     0.0873     0.0873 19239.2559     2.3456     2.3274     2.3274     5.4169    86.5734     1.0000     1.0000     1.0000 -1256.8080    71.8780     0.0873     4.0000
  1323.6904  5831.6499 5831650.0000    -999.25     8.5549     8.5549     3.0684   121.9200     0.0000    -999.25    76.1625     2.2945     2.2707  1323.6904     0.5513    -999.25     0.5469     0.1515     0.0830     0.0830 19132.7090     2.3327     2.2964     2.2964     5.2735    87.1730     1.0000     1.0000     1.0000 -1256.9603    73.2620     0.0830     4.0000
  1323.8428  5790.1250 5790125.0000    -999.25     8.5456     8.5456     3.0275   121.9200     0.0000    -999.25    79.3784     2.3298     2.3269  1323.8428     0.5533    -999.25     0.2916     0.1467     0.0779     0.0779 18996.4746     2.3161     2.3306     2.3306     5.4318    87.4989     1.0000     1.0000     1.0000 -1257.1128    74.9080     0.0779     4.0000
