~Version ---------------------------------------------------
VERS. 2.0 : CWLS log ASCII Standard -VERSION 2.0
WRAP.  NO : 
~Well ------------------------------------------------------
STRT.m                                                 1185.062 : 
STOP.m                                                1563.9284 : 
STEP.m                                                   0.1524 : 
NULL.                                                   -999.25 : 
COMP.                                                           : COMPANY
WELL.                                                    Well-8 : WELL
FLD .                                                           : FIELD
LOC .                                                           : LOCATION
SRVC.                                                           : SERVICE COMPANY
DATE. 2021-01-20 14:34:03   : Log Export Date {yyyy-MM-dd HH:mm : ss}
PROV.                                                           : PROVINCE
UWI .                                                    Well-8 : UNIQUE WELL ID
API .                                                           : API NUMBER
~Curve Information -----------------------------------------
DEPTH             .m        : DEPTH
ACOUSTICIMPEDANCE1.kPa.s/m  : ACOUSTICIMPEDANCE1
AI                .kPa.s/m  : AI
AVG_PIGN          .m3/m3    : AVG_PIGN
AZI1              .deg      : AZI1
CALI              .in       : CALI
CALI[DERIVED]1    .in       : CALI[DERIVED]1
DEVI              .deg      : DEVI
DFL               .ohm.m    : DFL
DT                .us/ft    : DT
FACIES            ._        : FACIES
FLD1              ._        : FLD1
GR                .gAPI     : GR
HDRS              .ohm.m    : HDRS
HMRS              .ohm.m    : HMRS
DEPTH_1           .m        : DEPTH_1
NPHI              .m3/m3    : NPHI
ONE-WAYTIME1      .ms       : ONE-WAYTIME1
PERF_INT          ._        : PERF_INT
PERMEABILITY      .mD       : PERMEABILITY
PIGN              .m3/m3    : PIGN
PIGN_MODELLING    .m3/m3    : PIGN_MODELLING
PIMP              .kPa.s/m  : PIMP
RHOB              .g/cm3    : RHOB
LLD               .ohm.m    : LLD
RT_MODELLING      .ohm.m    : RT_MODELLING
RT_POWER          .ohm.m    : RT_POWER
SUWI              ._        : SUWI
SUWI_MODELLING    ._        : SUWI_MODELLING
SXWI              ._        : SXWI
TDVSS             .m        : TDVSS
VCL               .%        : VCL
WATER_VOL         ._        : WATER_VOL
ZLT               ._        : ZLT
~Params ----------------------------------------------------
~Other -----------------------------------------------------
~ASCII -----------------------------------------------------
# ...
  1510.2836  4961.8740 4961874.0000    -999.25  -639.2500    12.6468    12.6468  -639.2500     3.0879   146.1597     0.0000    -999.25    61.1995     2.7547     2.7374  1510.2837     0.6414  -804.8242    -999.25     0.0236     0.0159     0.0159 16279.1143     2.3794     2.7721     2.7721     7.6844     1.0000     1.0000     1.0000 -1428.9736    90.4920     0.0159    25.0000
  1510.4360  5489.3706 5489370.5000    -999.25  -639.2500    12.6560    12.6560  -639.2500     3.3859   136.6077     0.0000    -999.25    61.3889     2.9145     2.8922  1510.4360     0.6284  -804.9100    -999.25     0.0238     0.0150     0.0150 18009.7461     2.4603     2.9293     2.9293     8.5810     1.0000     1.0000     1.0000 -1429.1260    90.8970     0.0150    25.0000
  1510.5884  5882.1357 5882136.0000    -999.25  -639.2500    12.6811    12.6811  -639.2500     3.5719   131.8336     0.0000    -999.25    61.5393     3.0509     3.0304  1510.5884     0.6122  -804.9958    -999.25     0.0240     0.0151     0.0151 19298.3457     2.5442     3.0633     3.0633     9.3841     1.0000     1.0000     1.0000 -1429.2784    87.5740     0.0151    25.0000
  1510.7408  6085.3267 6085326.5000    -999.25  -639.2500    12.7004    12.7004  -639.2500     3.6090   130.8060     0.0000    -999.25    62.0978     3.1687     3.1504  1510.7408     0.5921  -805.0817    -999.25     0.0242     0.0163     0.0163 19964.9824     2.6115     3.1856     3.1856    10.1478     1.0000     1.0000     1.0000 -1429.4308    82.0940     0.0163    25.0000
  1510.8932  6218.5225 6218522.5000    -999.25  -639.2500    12.7080    12.7080  -639.2500     3.6687   130.3903     0.0000    -999.25    61.7071     3.3241     3.2996  1510.8932     0.5678  -805.1675    -999.25     0.0244     0.0212     0.0212 20401.9766     2.6602     3.3395     3.3395    11.1520     1.0000     1.0000     1.0000 -1429.5833    76.6990     0.0212    25.0000
  1511.0456  6350.2402 6350240.5000    -999.25  -639.2500    12.7073    12.7073  -639.2500     4.0094   128.9922     0.0000    -999.25    61.0563     3.4468     3.4064  1511.0457     0.5415  -805.2534    -999.25     0.0246     0.0253     0.0253 20834.1211     2.6874     3.4234     3.4234    11.7196     1.0000     1.0000     1.0000 -1429.7356    72.1890     0.0253    25.0000
  1511.1980  6463.2539 6463254.0000    -999.25  -639.2500    12.6908    12.6908  -639.2500     4.2644   126.1067     0.0000    -999.25    61.4866     3.2042     3.1736  1511.1980     0.5179  -805.3392    -999.25     0.0247     0.0275     0.0275 21204.9023     2.6741     3.1307     3.1307     9.8013     1.0000     1.0000     1.0000 -1429.8881    70.5890     0.0275    25.0000
  1511.3504  6445.4800 6445480.0000    -999.25  -639.2500    12.7133    12.7133  -639.2500     3.5670   123.1612     0.0000    -999.25    63.0181     2.5278     2.5378  1511.3505     0.5058  -805.4250    -999.25     0.0249     0.0309     0.0309 21146.5879     2.6044     2.4625     2.4625     6.0640     1.0000     1.0000     1.0000 -1430.0404    72.6510     0.0309    25.0000
  1511.5028  6282.1040 6282104.0000    -999.25  -639.2500    12.8082    12.8082  -639.2500     2.4895   121.2120     0.0000    -999.25    65.7640     1.9414     1.9687  1511.5028     0.5160  -805.5109    -999.25     0.0251     0.0355     0.0355 20610.5762     2.4983     1.9117     1.9117     3.6548     1.0000     1.0000     1.0000 -1430.1929    77.1870     0.0355    25.0000
  1511.6552  6104.2866 6104286.5000    -999.25  -639.2500    12.9450    12.9450  -639.2500     1.9422   119.6369     0.0000    -999.25    68.4697     1.6761     1.6857  1511.6553     0.5509  -805.5967    -999.25     0.0253     0.0316     0.0316 20027.1875     2.3960     1.6652     1.6652     2.7729     1.0000     1.0000     1.0000 -1430.3452    81.0650     0.0316    25.0000
  1511.8076  6070.7710 6070771.0000    -999.25  -639.2500    13.1136    13.1136  -639.2500     1.7756   117.0283     0.0000    -999.25    69.2051     1.5801     1.5770  1511.8076     0.5996  -805.6826    -999.25     0.0255     0.0223     0.0223 19917.2266     2.3309     1.5782     1.5782     2.4908     1.0000     1.0000     1.0000 -1430.4977    86.7400     0.0223    25.0000
  1511.9600  6168.5005 6168500.5000    -999.25  -639.2500    13.2864    13.2864  -639.2500     1.8410   113.9735     0.0000    -999.25    68.0254     1.5628     1.5538  1511.9601     0.6450  -805.7684    -999.25     0.0257     0.0150     0.0150 20237.8633     2.3066     1.5613     1.5613     2.4377     1.0000     1.0000     1.0000 -1430.6500    92.6570     0.0150    25.0000
  1512.1124  6139.9541 6139954.5000    -999.25  -639.2500    13.4139    13.4139  -639.2500     1.9234   114.4979     0.0000    -999.25    66.2959     1.5489     1.5348  1512.1124     0.6762  -805.8542    -999.25     0.0259     0.0150     0.0150 20144.2070     2.3065     1.5467     1.5467     2.3924     1.0000     1.0000     1.0000 -1430.8025    97.0170     0.0150    25.0000
  1512.2648  5865.0371 5865037.5000    -999.25  -639.2500    13.4472    13.4472  -639.2500     1.9381   120.0899     0.0000    -999.25    64.0835     1.5302     1.5180  1512.2649     0.6908  -805.9401    -999.25     0.0261     0.0150     0.0150 19242.2480     2.3108     1.5303     1.5303     2.3418     1.0000     1.0000     1.0000 -1430.9548    98.9550     0.0150    25.0000
  1512.4172  5475.8784 5475878.0000    -999.25  -639.2500    13.3951    13.3951  -639.2500     1.9169   128.2988     0.0000    -999.25    61.4855     1.5353     1.5383  1512.4172     0.6942  -806.0259    -999.25     0.0263     0.0150     0.0150 17965.4805     2.3049     1.5434     1.5434     2.3822     1.0000     1.0000     1.0000 -1431.1072    98.8780     0.0150    25.0000
  1512.5696  5201.4277 5201427.5000    -999.25  -639.2500    13.2820    13.2820  -639.2500     1.8900   134.2686     0.0000    -999.25    58.3926     1.6153     1.6372  1512.5696     0.6981  -806.1117    -999.25     0.0265     0.0150     0.0150 17065.0508     2.2913     1.6332     1.6332     2.6674     1.0000     1.0000     1.0000 -1431.2596    98.4160     0.0150    25.0000
  1512.7220  5084.0088 5084008.5000    -999.25  -639.2500    13.1174    13.1174  -639.2500     2.0701   136.4889     0.0000    -999.25    54.9019     1.7848     1.8099  1512.7220     0.7081  -806.1976    -999.25     0.0267     0.0150     0.0150 16679.8184     2.2766     1.8102     1.8102     3.2768     1.0000     1.0000     1.0000 -1431.4120    98.5240     0.0150    25.0000
  1512.8744  5042.4561 5042456.0000    -999.25  -639.2500    12.9938    12.9938  -639.2500     2.3607   136.4978     0.0000    -999.25    52.1680     2.0199     2.0354  1512.8744     0.7188  -806.2834    -999.25     0.0268     0.0150     0.0150 16543.4902     2.2581     2.0449     2.0449     4.1816     1.0000     1.0000     1.0000 -1431.5645    98.5500     0.0150    25.0000
  1513.0268  5026.2695 5026270.0000    -999.25  -639.2500    12.9523    12.9523  -639.2500     2.7265   135.3674     0.0000    -999.25    51.7161     2.2459     2.2600  1513.0269     0.7230  -806.3692    -999.25     0.0270     0.0150     0.0150 16490.3867     2.2323     2.2609     2.2609     5.1118     1.0000     1.0000     1.0000 -1431.7168    98.0000     0.0150    25.0000
  1513.1792  5055.3560 5055356.0000    -999.25  -639.2500    12.8991    12.8991  -639.2500     2.8928   133.5238     0.0000    -999.25    53.9660     2.3773     2.3902  1513.1792     0.7178  -806.4551    -999.25     0.0272     0.0150     0.0150 16585.8125     2.2146     2.3777     2.3777     5.6534     1.0000     1.0000     1.0000 -1431.8693    96.8140     0.0150    25.0000
  1513.3316  5122.0474 5122047.5000    -999.25  -639.2500    12.7984    12.7984  -639.2500     2.8957   131.9245     0.0000    -999.25    58.1564     2.3787     2.3785  1513.3317     0.7023  -806.5409    -999.25     0.0274     0.0150     0.0150 16804.6172     2.2169     2.3748     2.3748     5.6397     1.0000     1.0000     1.0000 -1432.0216    94.9860     0.0150    25.0000
  1513.4840  5160.6514 5160651.5000    -999.25  -639.2500    12.7786    12.7786  -639.2500     2.8249   131.6186     0.0000    -999.25    63.4809     2.3470     2.3335  1513.4840     0.6787  -806.6267    -999.25     0.0276     0.0154     0.0154 16931.2715     2.2285     2.3517     2.3517     5.5303     1.0000     1.0000     1.0000 -1432.1741    92.3440     0.0154    25.0000
