~Version ---------------------------------------------------
VERS. 2.0 : CWLS log ASCII Standard -VERSION 2.0
WRAP.  NO : 
~Well ------------------------------------------------------
STRT.m                                                 1185.062 : 
STOP.m                                                1563.9284 : 
STEP.m                                                   0.1524 : 
NULL.                                                   -999.25 : 
COMP.                                                           : COMPANY
WELL.                                                    Well-8 : WELL
FLD .                                                           : FIELD
LOC .                                                           : LOCATION
SRVC.                                                           : SERVICE COMPANY
DATE. 2021-01-20 14:34:03   : Log Export Date {yyyy-MM-dd HH:mm : ss}
PROV.                                                           : PROVINCE
UWI .                                                    Well-8 : UNIQUE WELL ID
API .                                                           : API NUMBER
~Curve Information -----------------------------------------
DEPTH             .m        : DEPTH
ACOUSTICIMPEDANCE1.kPa.s/m  : ACOUSTICIMPEDANCE1
AI                .kPa.s/m  : AI
AVG_PIGN          .m3/m3    : AVG_PIGN
AZI1              .deg      : AZI1
CALI              .in       : CALI
CALI[DERIVED]1    .in       : CALI[DERIVED]1
DEVI              .deg      : DEVI
DFL               .ohm.m    : DFL
DT                .us/ft    : DT
FACIES            ._        : FACIES
FLD1              ._        : FLD1
GR                .gAPI     : GR
HDRS              .ohm.m    : HDRS
HMRS              .ohm.m    : HMRS
DEPTH_1           .m        : DEPTH_1
NPHI              .m3/m3    : NPHI
ONE-WAYTIME1      .ms       : ONE-WAYTIME1
PERF_INT          ._        : PERF_INT
PERMEABILITY      .mD       : PERMEABILITY
PIGN              .m3/m3    : PIGN
PIGN_MODELLING    .m3/m3    : PIGN_MODELLING
PIMP              .kPa.s/m  : PIMP
RHOB              .g/cm3    : RHOB
LLD               .ohm.m    : LLD
RT_MODELLING      .ohm.m    : RT_MODELLING
RT_POWER          .ohm.m    : RT_POWER
SUWI              ._        : SUWI
SUWI_MODELLING    ._        : SUWI_MODELLING
SXWI              ._        : SXWI
TDVSS             .m        : TDVSS
VCL               .%        : VCL
WATER_VOL         ._        : WATER_VOL
ZLT               ._        : ZLT
~Params ----------------------------------------------------
~Other -----------------------------------------------------
~ASCII -----------------------------------------------------
# ...
  1208.5316  4739.9053 4739905.0000    -999.25  -639.2500    13.3294    13.3294  -639.2500     1.4924   145.5944     0.0000    -999.25    49.7299     1.3200     1.3438  1208.5316     0.6796  -634.8719    -999.25    -999.25     0.0150     0.0150 15550.8691     2.2641     1.3215     1.3215     1.7463     1.0000     1.0000     1.0000 -1127.2217    93.6410     0.0150    -999.25
  1208.6840  4758.5996 4758600.0000    -999.25  -639.2500    13.3251    13.3251  -639.2500     1.5239   144.7195     0.0000    -999.25    50.7965     1.3334     1.3473  1208.6841     0.6630  -634.9578    -999.25    -999.25     0.0153     0.0153 15612.2041     2.2594     1.3339     1.3339     1.7793     1.0000     1.0000     1.0000 -1127.3740    91.0180     0.0153    -999.25
  1208.8364  4765.5640 4765564.0000    -999.25  -639.2500    13.3457    13.3457  -639.2500     1.5230   144.5067     0.0000    -999.25    52.0088     1.3374     1.3404  1208.8364     0.6544  -635.0436    -999.25    -999.25     0.0170     0.0170 15635.0527     2.2594     1.3372     1.3372     1.7880     1.0000     1.0000     1.0000 -1127.5265    89.8160     0.0170    -999.25
  1208.9888  4756.8945 4756894.5000    -999.25  -639.2500    13.3914    13.3914  -639.2500     1.5079   144.8681     0.0000    -999.25    52.1406     1.3353     1.3339  1208.9889     0.6564  -635.1295    -999.25    -999.25     0.0163     0.0163 15606.6084     2.2609     1.3349     1.3349     1.7821     1.0000     1.0000     1.0000 -1127.6788    90.1920     0.0163    -999.25
  1209.1412  4752.0283 4752028.0000    -999.25  -639.2500    13.4308    13.4308  -639.2500     1.5058   145.4039     0.0000    -999.25    50.8819     1.3320     1.3337  1209.1412     0.6586  -635.2153    -999.25    -999.25     0.0160     0.0160 15590.6436     2.2669     1.3318     1.3318     1.7736     1.0000     1.0000     1.0000 -1127.8312    90.4210     0.0160    -999.25
  1209.2936  4776.1685 4776168.5000    -999.25  -639.2500    13.4428    13.4428  -639.2500     1.5052   145.6588     0.0000    -999.25    48.9754     1.3303     1.3384  1209.2936     0.6512  -635.3011    -999.25    -999.25     0.0167     0.0167 15669.8438     2.2824     1.3309     1.3309     1.7714     1.0000     1.0000     1.0000 -1127.9836    89.5320     0.0167    -999.25
  1209.4460  4832.7993 4832799.5000    -999.25  -639.2500    13.4395    13.4395  -639.2500     1.4929   145.2505     0.0000    -999.25    47.6942     1.3369     1.3510  1209.4460     0.6329  -635.3870    -999.25    -999.25     0.0150     0.0150 15855.6406     2.3030     1.3392     1.3392     1.7935     1.0000     1.0000     1.0000 -1128.1360    87.7970     0.0150    -999.25
  1209.5984  4917.2368 4917237.0000    -999.25  -639.2500    13.4264    13.4264  -639.2500     1.4980   143.6681     0.0000    -999.25    47.3936     1.3595     1.3792  1209.5984     0.6069  -635.4728    -999.25    -999.25     0.0153     0.0153 16132.6670     2.3177     1.3641     1.3641     1.8608     1.0000     1.0000     1.0000 -1128.2885    84.4370     0.0153    -999.25
  1209.7508  5026.8203 5026820.5000    -999.25  -639.2500    13.4127    13.4127  -639.2500     1.5541   140.8539     0.0000    -999.25    47.5920     1.4022     1.4264  1209.7509     0.5791  -635.5586    -999.25    -999.25     0.0177     0.0177 16492.1934     2.3230     1.4076     1.4076     1.9812     1.0000     1.0000     1.0000 -1128.4408    80.5030     0.0177    -999.25
  1209.9032  5119.7139 5119713.5000    -999.25  -639.2500    13.4221    13.4221  -639.2500     1.6283   137.4903     0.0000    -999.25    47.1845     1.4508     1.4780  1209.9032     0.5565  -635.6444    -999.25    -999.25     0.0254     0.0254 16796.9609     2.3094     1.4544     1.4544     2.1154     1.0000     1.0000     1.0000 -1128.5933    76.0310     0.0254    -999.25
  1210.0556  5166.3452 5166345.5000    -999.25  -639.2500    13.5057    13.5057  -639.2500     1.7003   134.7036     0.0000    -999.25    45.0985     1.4835     1.5143  1210.0557     0.5418  -635.7303    -999.25    -999.25     0.0485     0.0485 16949.9512     2.2832     1.4848     1.4848     2.2046     1.0000     1.0000     1.0000 -1128.7456    70.8990     0.0485    -999.25
  1210.2080  5180.7134 5180713.5000    -999.25  -639.2500    13.6734    13.6734  -639.2500     1.7456   133.5481     0.0000    -999.25    42.6988     1.4935     1.5262  1210.2080     0.5346  -635.8161    -999.25    -999.25     0.0506     0.0506 16997.0898     2.2699     1.4915     1.4915     2.2247     1.0000     1.0000     1.0000 -1128.8981    69.6470     0.0506    -999.25
  1210.3604  5158.5474 5158547.5000    -999.25  -639.2500    13.8101    13.8101  -639.2500     1.7627   134.1639     0.0000    -999.25    42.5679     1.4745     1.5078  1210.3605     0.5390  -635.9019    -999.25    -999.25     0.0488     0.0488 16924.3672     2.2706     1.4710     1.4710     2.1638     1.0000     1.0000     1.0000 -1129.0504    70.7180     0.0488    -999.25
  1210.5128  5076.2993 5076299.5000    -999.25  -639.2500    13.8229    13.8229  -639.2500     1.7306   136.4908     0.0000    -999.25    44.4081     1.4421     1.4749  1210.5128     0.5618  -635.9878    -999.25    -999.25     0.0418     0.0418 16654.5254     2.2732     1.4389     1.4389     2.0703     1.0000     1.0000     1.0000 -1129.2029    74.9000     0.0418    -999.25
  1210.6652  4957.4355 4957435.5000    -999.25  -639.2500    13.7609    13.7609  -639.2500     1.6867   139.8514     0.0000    -999.25    47.1942     1.4120     1.4375  1210.6653     0.6008  -636.0736    -999.25    -999.25     0.0306     0.0306 16264.5518     2.2746     1.4081     1.4081     1.9827     1.0000     1.0000     1.0000 -1129.3552    81.6290     0.0306    -999.25
  1210.8176  4836.5518 4836551.5000    -999.25  -639.2500    13.7127    13.7127  -639.2500     1.6424   143.1231     0.0000    -999.25    49.5447     1.3747     1.3901  1210.8176     0.6454  -636.1594    -999.25    -999.25     0.0192     0.0192 15867.9512     2.2711     1.3685     1.3685     1.8729     1.0000     1.0000     1.0000 -1129.5077    89.0840     0.0192    -999.25
  1210.9700  4746.7109 4746711.0000    -999.25  -639.2500    13.7073    13.7073  -639.2500     1.5443   145.2412     0.0000    -999.25    50.1588     1.3177     1.3233  1210.9701     0.6859  -636.2453    -999.25    -999.25     0.0150     0.0150 15573.1982     2.2619     1.3112     1.3112     1.7192     1.0000     1.0000     1.0000 -1129.6600    95.5600     0.0150    -999.25
  1211.1224  4722.2432 4722243.0000    -999.25  -639.2500    13.6983    13.6983  -639.2500     1.4423   145.9131     0.0000    -999.25    49.7969     1.2589     1.2578  1211.1224     0.7151  -636.3311    -999.25    -999.25     0.0150     0.0150 15492.9238     2.2606     1.2549     1.2549     1.5748     1.0000     1.0000     1.0000 -1129.8124    99.7780     0.0150    -999.25
  1211.2748  4761.4312 4761431.5000    -999.25  -639.2500    13.6869    13.6869  -639.2500     1.3439   145.7985     0.0000    -999.25    48.7474     1.2238     1.2223  1211.2748     0.7236  -636.4169    -999.25    -999.25     0.0150     0.0150 15621.4941     2.2776     1.2233     1.2233     1.4965     1.0000     1.0000     1.0000 -1129.9648    99.8170     0.0150    -999.25
  1211.4272  4825.5225 4825522.5000    -999.25  -639.2500    13.7183    13.7183  -639.2500     1.3127   145.3154     0.0000    -999.25    46.8344     1.2207     1.2251  1211.4272     0.7038  -636.5028    -999.25    -999.25     0.0150     0.0150 15831.7676     2.3006     1.2235     1.2235     1.4971     1.0000     1.0000     1.0000 -1130.1172    98.0480     0.0150    -999.25
  1211.5796  4893.5605 4893560.5000    -999.25  -639.2500    13.7390    13.7390  -639.2500     1.3573   144.2798     0.0000    -999.25    45.2130     1.2482     1.2614  1211.5796     0.6662  -636.5886    -999.25    -999.25     0.0150     0.0150 16054.9883     2.3164     1.2529     1.2529     1.5697     1.0000     1.0000     1.0000 -1130.2697    92.6790     0.0150    -999.25
  1211.7320  4948.8169 4948817.0000    -999.25  -639.2500    13.7107    13.7107  -639.2500     1.4574   142.9601     0.0000    -999.25    44.5620     1.2909     1.3082  1211.7321     0.6277  -636.6744    -999.25    -999.25     0.0151     0.0151 16236.2754     2.3211     1.2939     1.2939     1.6742     1.0000     1.0000     1.0000 -1130.4220    87.0190     0.0151    -999.25
