~Version ---------------------------------------------------
VERS. 2.0 : CWLS log ASCII Standard -VERSION 2.0
WRAP.  NO : 
~Well ------------------------------------------------------
STRT.m                                                1187.6524 : 
STOP.m                                                1658.2636 : 
STEP.m                                                   0.1524 : 
NULL.                                                   -999.25 : 
COMP.                                                           : COMPANY
WELL.                                                   Well-19 : WELL
FLD .                                                           : FIELD
LOC .                                                           : LOCATION
SRVC.                                                           : SERVICE COMPANY
DATE. 2021-01-20 14:34:11   : Log Export Date {yyyy-MM-dd HH:mm : ss}
PROV.                                                           : PROVINCE
UWI .                                                   Well-19 : UNIQUE WELL ID
API .                                                           : API NUMBER
~Curve Information -----------------------------------------
DEPTH             .m        : DEPTH
ACOUSTICIMPEDANCE1.kPa.s/m  : ACOUSTICIMPEDANCE1
AI                .kPa.s/m  : AI
AVG_PIGN          .m3/m3    : AVG_PIGN
CALI              .in       : CALI
NPHI              .m3/m3    : NPHI
DT                .us/ft    : DT
DT4P              .us/ft    : DT4P
FACIES            ._        : FACIES
FLD1              ._        : FLD1
GR                .gAPI     : GR
M2R2              .ohm.m    : M2R2
LLS               .ohm.m    : LLS
LLD               .ohm.m    : LLD
DEPTH_1           .m        : DEPTH_1
NPHI_1            .m3/m3    : NPHI_1
PEF               .b/e      : PEF
PERF_INT          ._        : PERF_INT
PERMEABILITY      .mD       : PERMEABILITY
PIGN              .m3/m3    : PIGN
PIGN_MODELLING    .m3/m3    : PIGN_MODELLING
PIMP              .kPa.s/m  : PIMP
RHOB              .g/cm3    : RHOB
LLD_1             .ohm.m    : LLD_1
RT_MODELLING      .ohm.m    : RT_MODELLING
RT_POWER          .ohm.m    : RT_POWER
SP                .mV       : SP
SPDH              .mV       : SPDH
SUWI              ._        : SUWI
SUWI_MODELLING    ._        : SUWI_MODELLING
TDVSS             .m        : TDVSS
TEMP              .K        : TEMP
VCL               .%        : VCL
WATER_VOL         ._        : WATER_VOL
RHOB_1            .g/cm3    : RHOB_1
ZLT               ._        : ZLT
~Params ----------------------------------------------------
~Other -----------------------------------------------------
~ASCII -----------------------------------------------------
  1187.6524  5405.0581 5405058.0000    -999.25    10.8947     0.4649   127.7383   127.7383    -999.25    -999.25    78.8926     1.5124     1.5289     1.5951  1187.6523     0.4649     5.7671    -999.25    -999.25    -999.25    -999.25 17733.1309     2.2652    -999.25    -999.25    -999.25   -60.6558   314.2091    -999.25    -999.25 -1069.1521   142.1113    -999.25    -999.25     2.2652    -999.25
  1187.8048  5390.8745 5390874.5000    -999.25    10.9096     0.4626   127.6051   127.6051    -999.25    -999.25    79.8717     1.4644     1.4824     1.5451  1187.8047     0.4626     5.9514    -999.25    -999.25    -999.25    -999.25 17686.5957     2.2569    -999.25    -999.25    -999.25   -61.1736   314.1682    -999.25    -999.25 -1069.2909   142.1190    -999.25    -999.25     2.2569    -999.25
  1187.9572  5374.8667 5374867.0000    -999.25    10.9161     0.4866   127.3500   127.3500    -999.25    -999.25    77.9798     1.4697     1.4926     1.5561  1187.9572     0.4866     6.0680    -999.25    -999.25    -999.25    -999.25 17634.0781     2.2457    -999.25    -999.25    -999.25   -61.5589   314.1180    -999.25    -999.25 -1069.4297   142.1267    -999.25    -999.25     2.2457    -999.25
  1188.1096  5378.5322 5378532.0000    -999.25    10.9367     0.5340   126.7022   126.7022    -999.25    -999.25    77.1935     1.4647     1.4940     1.5563  1188.1095     0.5340     6.1646    -999.25    -999.25    -999.25    -999.25 17646.1016     2.2358    -999.25    -999.25    -999.25   -61.5911   313.9838    -999.25    -999.25 -1069.5685   142.1344    -999.25    -999.25     2.2358    -999.25
  1188.2620  5342.7593 5342759.5000    -999.25    10.9926     0.5646   126.9230   126.9230    -999.25    -999.25    79.5768     1.4295     1.4642     1.5219  1188.2620     0.5646     6.2978    -999.25    -999.25    -999.25    -999.25 17528.7383     2.2248    -999.25    -999.25    -999.25   -61.3674   313.9207    -999.25    -999.25 -1069.7073   142.1422    -999.25    -999.25     2.2248    -999.25
  1188.4144  5173.2725 5173272.5000    -999.25    11.0588     0.5368   130.3978   130.3978    -999.25    -999.25    80.8805     1.4130     1.4532     1.5074  1188.4143     0.5368     6.3872    -999.25    -999.25    -999.25    -999.25 16972.6777     2.2132    -999.25    -999.25    -999.25   -61.1966   314.0810    -999.25    -999.25 -1069.8461   142.1499    -999.25    -999.25     2.2132    -999.25
  1188.5668  5056.3486 5056348.5000    -999.25    11.0956     0.5092   133.1238   133.1238    -999.25    -999.25    79.4857     1.4227     1.4688     1.5215  1188.5668     0.5092     6.2696    -999.25    -999.25    -999.25    -999.25 16589.0703     2.2084    -999.25    -999.25    -999.25   -61.0608   314.2065    -999.25    -999.25 -1069.9849   142.1576    -999.25    -999.25     2.2084    -999.25
  1188.7192  5069.5156 5069516.0000    -999.25    11.0820     0.5111   133.1087   133.1087    -999.25    -999.25    78.3248     1.4030     1.4514     1.5003  1188.7191     0.5111     5.9624    -999.25    -999.25    -999.25    -999.25 16632.2695     2.2139    -999.25    -999.25    -999.25   -60.9259   314.1290    -999.25    -999.25 -1070.1237   142.1653    -999.25    -999.25     2.2139    -999.25
  1188.8716  5080.7573 5080757.0000    -999.25    11.0243     0.5161   133.4741   133.4741    -999.25    -999.25    78.4735     1.3571     1.4037     1.4479  1188.8716     0.5161     5.7067    -999.25    -999.25    -999.25    -999.25 16669.1504     2.2249    -999.25    -999.25    -999.25   -60.9749   314.0154    -999.25    -999.25 -1070.2626   142.1730    -999.25    -999.25     2.2249    -999.25
  1189.0240  5082.8091 5082809.0000    -999.25    10.9519     0.5213   134.0139   134.0139    -999.25    -999.25    80.4849     1.3333     1.3757     1.4159  1189.0239     0.5213     5.5932    -999.25    -999.25    -999.25    -999.25 16675.8828     2.2348    -999.25    -999.25    -999.25   -61.2354   313.9571    -999.25    -999.25 -1070.4014   142.1807    -999.25    -999.25     2.2348    -999.25
  1189.1764  5084.7007 5084700.5000    -999.25    10.8729     0.5354   134.2218   134.2218    -999.25    -999.25    83.7953     1.3298     1.3660     1.4031  1189.1764     0.5354     5.5311    -999.25    -999.25    -999.25    -999.25 16682.0879     2.2391    -999.25    -999.25    -999.25   -61.4184   313.8893    -999.25    -999.25 -1070.5402   142.1884    -999.25    -999.25     2.2391    -999.25
  1189.3288  5109.8271 5109827.0000    -999.25    10.7797     0.5383   133.5618   133.5618    -999.25    -999.25    86.4363     1.3175     1.3450     1.3787  1189.3287     0.5383     5.4559    -999.25    -999.25    -999.25    -999.25 16764.5234     2.2391    -999.25    -999.25    -999.25   -61.4159   313.8583    -999.25    -999.25 -1070.6790   142.1961    -999.25    -999.25     2.2391    -999.25
  1189.4812  5122.3687 5122368.5000    -999.25    10.6925     0.5235   133.3895   133.3895    -999.25    -999.25    86.2583     1.3123     1.3319     1.3634  1189.4812     0.5235     5.3583    -999.25    -999.25    -999.25    -999.25 16805.6699     2.2417    -999.25    -999.25    -999.25   -61.3617   313.7912    -999.25    -999.25 -1070.8177   142.2039    -999.25    -999.25     2.2417    -999.25
  1189.6336  5156.4771 5156477.0000    -999.25    10.6626     0.4992   133.0628   133.0628    -999.25    -999.25    83.7571     1.3315     1.3448     1.3759  1189.6335     0.4992     5.2550    -999.25    -999.25    -999.25    -999.25 16917.5762     2.2511    -999.25    -999.25    -999.25   -61.4575   313.5712    -999.25    -999.25 -1070.9565   142.2116    -999.25    -999.25     2.2511    -999.25
  1189.7860  5227.4766 5227476.5000    -999.25    10.7163     0.4702   131.9494   131.9494    -999.25    -999.25    81.3749     1.3403     1.3486     1.3792  1189.7859     0.4702     5.2021    -999.25    -999.25    -999.25    -999.25 17150.5137     2.2630    -999.25    -999.25    -999.25   -61.7008   313.2968    -999.25    -999.25 -1071.0953   142.2193    -999.25    -999.25     2.2630    -999.25
  1189.9384  5297.2578 5297258.0000    -999.25    10.8032     0.4652   130.6888   130.6888    -999.25    -999.25    80.7840     1.3269     1.3321     1.3615  1189.9384     0.4652     5.1719    -999.25    -999.25    -999.25    -999.25 17379.4551     2.2713    -999.25    -999.25    -999.25   -61.8338   313.1511    -999.25    -999.25 -1071.2341   142.2270    -999.25    -999.25     2.2713    -999.25
  1190.0908  5352.4478 5352447.5000    -999.25    10.8541     0.4895   129.6146   129.6146    -999.25    -999.25    81.2296     1.3311     1.3351     1.3646  1190.0907     0.4895     5.1281    -999.25    -999.25    -999.25    -999.25 17560.5234     2.2761    -999.25    -999.25    -999.25   -61.6741   313.1474    -999.25    -999.25 -1071.3729   142.2347    -999.25    -999.25     2.2761    -999.25
  1190.2432  5367.3071 5367307.5000    -999.25    10.8589     0.5176   129.5340   129.5340    -999.25    -999.25    80.7379     1.3474     1.3513     1.3817  1190.2432     0.5176     5.2410    -999.25    -999.25    -999.25    -999.25 17609.2754     2.2810    -999.25    -999.25    -999.25   -61.4421   313.1115    -999.25    -999.25 -1071.5117   142.2424    -999.25    -999.25     2.2810    -999.25
  1190.3956  5271.6631 5271663.5000    -999.25    10.8519     0.5239   132.0865   132.0865    -999.25    -999.25    78.7497     1.3374     1.3412     1.3714  1190.3955     0.5239     5.3413    -999.25    -999.25    -999.25    -999.25 17295.4824     2.2845    -999.25    -999.25    -999.25   -61.3990   312.9909    -999.25    -999.25 -1071.6506   142.2501    -999.25    -999.25     2.2845    -999.25
  1190.5480  5300.6006 5300600.5000    -999.25    10.8498     0.5118   131.1699   131.1699    -999.25    -999.25    78.3546     1.3290     1.3327     1.3628  1190.5480     0.5118     5.2946    -999.25    -999.25    -999.25    -999.25 17390.4219     2.2811    -999.25    -999.25    -999.25   -61.5398   312.7966    -999.25    -999.25 -1071.7894   142.2579    -999.25    -999.25     2.2811    -999.25
  1190.7004  5205.5405 5205540.5000    -999.25    10.8586     0.4996   132.9153   132.9153    -999.25    -999.25    81.2102     1.3538     1.3572     1.3884  1190.7003     0.4996     5.2921    -999.25    -999.25    -999.25    -999.25 17078.5449     2.2700    -999.25    -999.25    -999.25   -61.6540   312.5713    -999.25    -999.25 -1071.9282   142.2656    -999.25    -999.25     2.2700    -999.25
