~Version ---------------------------------------------------
VERS. 2.0 : CWLS log ASCII Standard -VERSION 2.0
WRAP.  NO : 
~Well ------------------------------------------------------
STRT.m                                                   1210.0 : 
STOP.m                                                1487.9776 : 
STEP.m                                                   0.1524 : 
NULL.                                                   -999.25 : 
COMP.                                                           : COMPANY
WELL.                                                   Well-14 : WELL
FLD .                                                           : FIELD
LOC .                                                           : LOCATION
SRVC.                                                           : SERVICE COMPANY
DATE. 2021-01-20 14:34:06   : Log Export Date {yyyy-MM-dd HH:mm : ss}
PROV.                                                           : PROVINCE
UWI .                                                   Well-14 : UNIQUE WELL ID
API .                                                           : API NUMBER
~Curve Information -----------------------------------------
DEPTH             .m        : DEPTH
ACOUSTICIMPEDANCE1.kPa.s/m  : ACOUSTICIMPEDANCE1
AI                .kPa.s/m  : AI
AVG_PIGN          .m3/m3    : AVG_PIGN
CALI              .in       : CALI
CALI[DERIVED]1    .in       : CALI[DERIVED]1
DFL               .ohm.m    : DFL
DT                .us/ft    : DT
FACIES            ._        : FACIES
FLD1              ._        : FLD1
GR                .gAPI     : GR
HDRS              .ohm.m    : HDRS
HMRS              .ohm.m    : HMRS
DEPTH_1           .m        : DEPTH_1
NPHI              .m3/m3    : NPHI
PERF_INT          ._        : PERF_INT
PERMEABILITY      .mD       : PERMEABILITY
PHIT              .m3/m3    : PHIT
PIGN              .m3/m3    : PIGN
PIGN_MODELLING    .m3/m3    : PIGN_MODELLING
PIMP              .kPa.s/m  : PIMP
RHOB              .g/cm3    : RHOB
LLD               .ohm.m    : LLD
RT_MODELLING      .ohm.m    : RT_MODELLING
RT_POWER          .ohm.m    : RT_POWER
SP                .mV       : SP
SUWI              ._        : SUWI
SUWI_MODELLING    ._        : SUWI_MODELLING
SXWI              ._        : SXWI
TDVSS             .m        : TDVSS
VCL               .%        : VCL
WATER_VOL         ._        : WATER_VOL
ZLT               ._        : ZLT
~Params ----------------------------------------------------
~Other -----------------------------------------------------
~ASCII -----------------------------------------------------
# ...
  1394.4040  5745.7002 5745700.0000     0.1109     9.4775     9.4775     8.9998   121.9200     4.0000    -999.25    75.8682     6.2042     6.2035  1394.4039     0.5469     1.0000     5.9376     0.1849     0.1109     0.1109 18850.7227     2.2983     6.2038     6.2038    38.4865    93.2251     0.5382     0.5382     0.7923 -1327.6740    64.2650     0.0597    18.0000
  1394.5564  5736.2998 5736300.0000     0.1175     9.6186     9.6186     9.3199   121.9200     4.0000    -999.25    74.3699     6.2211     6.2098  1394.5564     0.5399     1.0000     7.9954     0.1880     0.1175     0.1175 18819.8809     2.2945     6.2207     6.2207    38.6969    93.1592     0.5333     0.5333     0.7971 -1327.8264    62.1310     0.0627    18.0000
  1394.7088  5711.7998 5711800.0000     0.1222     9.6417     9.6417     9.3969   121.9200     4.0000    -999.25    73.4134     6.2711     6.2872  1394.7087     0.5343     1.0000     9.8148     0.1921     0.1222     0.1222 18739.5020     2.2847     6.2726     6.2726    39.3458    93.0498     0.5190     0.5190     0.7945 -1327.9788    60.6250     0.0634    18.0000
  1394.8612  5698.7251 5698725.0000     0.1225     9.6440     9.6440     9.3113   121.9200     4.0000    -999.25    72.7760     6.3883     6.4458  1394.8612     0.5362     1.0000     9.4548     0.1938     0.1225     0.1225 18696.6055     2.2795     6.3896     6.3896    40.8265    92.9418     0.5003     0.5003     0.7882 -1328.1312    60.5390     0.0613    18.0000
  1395.0136  5696.4253 5696425.5000     0.1176     9.5132     9.5132     9.2886   121.9200     4.0000    -999.25    72.5033     6.5241     6.5939  1395.0135     0.5468     1.0000     6.8179     0.1928     0.1176     0.1176 18689.0605     2.2786     6.5240     6.5240    42.5623    92.8443     0.4598     0.4598     0.7711 -1328.2836    62.1110     0.0541    18.0000
  1395.1660  5682.9751 5682975.0000     0.1093     9.2255     9.2255     9.4277   121.9200     4.0000    -999.25    72.9675     6.6010     6.6568  1395.1660     0.5613     1.0000     4.0132     0.1916     0.1093     0.1093 18644.9316     2.2732     6.5993     6.5993    43.5509    92.8430     0.4109     0.4109     0.7392 -1328.4359    64.7780     0.0449    18.0000
  1395.3184  5643.8999 5643900.0000     0.1016     8.9587     8.9587     9.4994   121.9200     4.0000    -999.25    73.1326     6.5335     6.5609  1395.3184     0.5758     1.0000     2.2238     0.1935     0.1016     0.1016 18516.7324     2.2576     6.5299     6.5299    42.6396    92.8912     0.3665     0.3665     0.6977 -1328.5884    67.2600     0.0372    18.0000
  1395.4708  5568.0254 5568025.0000     0.0961     8.8616     8.8616     9.3183   121.9200     4.0000    -999.25    72.5083     6.3262     6.3072  1395.4708     0.5887     1.0000     1.2348     0.2002     0.0961     0.0961 18267.7988     2.2272     6.3239     6.3239    39.9921    92.8989     0.3182     0.3182     0.6449 -1328.7407    69.0460     0.0306    18.0000
  1395.6232  5466.1250 5466125.0000     0.0937     8.8446     8.8446     8.9591   121.9200     4.0000    -999.25    71.4074     6.1258     6.0683  1395.6232     0.5969     1.0000     0.8104     0.2109     0.0937     0.0937 17933.4805     2.1865     6.1274     6.1274    37.5447    92.9194     0.2664     0.2664     0.5909 -1328.8932    69.7960     0.0250    18.0000
  1395.7756  5366.5249 5366525.0000     0.0962     8.8301     8.8301     8.7033   121.9200     4.0000    -999.25    69.7059     6.0461     5.9990  1395.7755     0.5981     1.0000     0.7943     0.2228     0.0962     0.0962 17606.7090     2.1466     6.0488     6.0488    36.5881    92.9481     0.2257     0.2257     0.5561 -1329.0455    68.9970     0.0217    18.0000
  1395.9280  5284.6255 5284625.5000     0.0998     8.8336     8.8336     8.6611   121.9200     4.0000    -999.25    68.7606     6.0410     6.0457  1395.9280     0.5938     1.0000     1.0117     0.2328     0.0998     0.0998 17338.0098     2.1139     6.0415     6.0415    36.4995    92.9423     0.1962     0.1962     0.5335 -1329.1980    67.8280     0.0196    18.0000
  1396.0804  5244.0249 5244025.0000     0.1009     8.8432     8.8432     8.6847   121.9200     4.0000    -999.25    69.3385     6.0152     6.0683  1396.0803     0.5890    -999.25     1.2174     0.2372     0.1009     0.1009 17204.8066     2.0976     6.0142     6.0142    36.1701    92.8669     0.1835     0.1835     0.5198 -1329.3503    67.4950     0.0185    18.0000
  1396.2328  5258.9248 5258925.0000     0.1011     8.8465     8.8465     8.6546   121.9200     4.0000    -999.25    69.8852     5.9357     6.0059  1396.2328     0.5867    -999.25     1.3164     0.2355     0.1011     0.1011 17253.6914     2.1036     5.9346     5.9346    35.2192    92.7402     0.2055     0.2055     0.5308 -1329.5028    67.4360     0.0208    18.0000
  1396.3852  5300.7251 5300725.0000     0.1004     8.8533     8.8533     8.5394   121.9200     4.0000    -999.25    69.9895     5.8151     5.8744  1396.3851     0.5878    -999.25     1.2549     0.2310     0.1004     0.1004 17390.8301     2.1203     5.8144     5.8144    33.8069    92.6805     0.2460     0.2460     0.5528 -1329.6552    67.6430     0.0247    18.0000
  1396.5376  5335.7749 5335775.0000     0.1000     8.8628     8.8628     8.3318   121.9200     4.0000    -999.25    69.7379     5.7022     5.7415  1396.5376     0.5900    -999.25     1.1616     0.2275     0.1000     0.1000 17505.8242     2.1343     5.7028     5.7028    32.5220    92.6575     0.2853     0.2853     0.5744 -1329.8076    67.7660     0.0285    18.0000
  1396.6900  5358.1001 5358100.0000     0.1031     8.8570     8.8570     8.1611   121.9200     4.0000    -999.25    68.3637     5.6727     5.6874  1396.6899     0.5900    -999.25     1.2680     0.2265     0.1031     0.1031 17579.0684     2.1432     5.6749     5.6749    32.2048    92.5691     0.3165     0.3165     0.6010 -1329.9600    66.7950     0.0326    18.0000
  1396.8424  5370.9497 5370949.5000     0.1077     8.8458     8.8458     8.1666   121.9200     4.0000    -999.25    66.9402     5.7479     5.7307  1396.8424     0.5865    -999.25     1.6391     0.2268     0.1077     0.1077 17621.2266     2.1484     5.7498     5.7498    33.0607    92.5086     0.3289     0.3289     0.6232 -1330.1124    65.2790     0.0354    18.0000
  1396.9948  5375.1006 5375100.5000     0.1110     8.8517     8.8517     8.3426   121.9200     4.0000    -999.25    66.7022     5.8820     5.8406  1396.9948     0.5812    -999.25     2.1523     0.2272     0.1110     0.1110 17634.8438     2.1500     5.8827     5.8827    34.6066    92.5209     0.3209     0.3209     0.6313 -1330.2648    64.2340     0.0356    18.0000
  1397.1472  5383.8003 5383800.5000     0.1154     8.8583     8.8583     8.6537   121.9200     4.0000    -999.25    66.5053     5.9868     5.9474  1397.1472     0.5737    -999.25     3.0411     0.2273     0.1154     0.1154 17663.3867     2.1535     5.9855     5.9855    35.8257    92.5278     0.3229     0.3229     0.6439 -1330.4171    62.8120     0.0373    18.0000
  1397.2996  5395.3247 5395325.0000     0.1220     8.8628     8.8628     8.9853   121.9200     4.0000    -999.25    66.1543     5.9910     5.9764  1397.2996     0.5623    -999.25     4.8445     0.2279     0.1220     0.1220 17701.1973     2.1581     5.9887     5.9887    35.8644    92.4573     0.3458     0.3458     0.6657 -1330.5696    60.6780     0.0422    18.0000
  1397.4520  5407.4253 5407425.0000     0.1279     8.8616     8.8616     9.1759   121.9200     4.0000    -999.25    66.5772     5.9165     5.9256  1397.4520     0.5492    -999.25     7.4600     0.2280     0.1279     0.1279 17740.8965     2.1630     5.9155     5.9155    34.9931    92.3044     0.3765     0.3765     0.6876 -1330.7219    58.7970     0.0481    18.0000
  1397.6044  5433.4253 5433425.5000     0.1300     8.8560     8.8560     9.0994   121.9200     4.0000    -999.25    67.4960     5.8323     5.8461  1397.6044     0.5413    -999.25     9.1384     0.2257     0.1300     0.1300 17826.1992     2.1734     5.8326     5.8326    34.0197    92.1042     0.4069     0.4069     0.7067 -1330.8744    58.1090     0.0529    18.0000
