~Version ---------------------------------------------------
VERS. 2.0 : CWLS log ASCII Standard -VERSION 2.0
WRAP.  NO : 
~Well ------------------------------------------------------
STRT.m                                                   1210.0 : 
STOP.m                                                1487.9776 : 
STEP.m                                                   0.1524 : 
NULL.                                                   -999.25 : 
COMP.                                                           : COMPANY
WELL.                                                   Well-14 : WELL
FLD .                                                           : FIELD
LOC .                                                           : LOCATION
SRVC.                                                           : SERVICE COMPANY
DATE. 2021-01-20 14:34:06   : Log Export Date {yyyy-MM-dd HH:mm : ss}
PROV.                                                           : PROVINCE
UWI .                                                   Well-14 : UNIQUE WELL ID
API .                                                           : API NUMBER
~Curve Information -----------------------------------------
DEPTH             .m        : DEPTH
ACOUSTICIMPEDANCE1.kPa.s/m  : ACOUSTICIMPEDANCE1
AI                .kPa.s/m  : AI
AVG_PIGN          .m3/m3    : AVG_PIGN
CALI              .in       : CALI
CALI[DERIVED]1    .in       : CALI[DERIVED]1
DFL               .ohm.m    : DFL
DT                .us/ft    : DT
FACIES            ._        : FACIES
FLD1              ._        : FLD1
GR                .gAPI     : GR
HDRS              .ohm.m    : HDRS
HMRS              .ohm.m    : HMRS
DEPTH_1           .m        : DEPTH_1
NPHI              .m3/m3    : NPHI
PERF_INT          ._        : PERF_INT
PERMEABILITY      .mD       : PERMEABILITY
PHIT              .m3/m3    : PHIT
PIGN              .m3/m3    : PIGN
PIGN_MODELLING    .m3/m3    : PIGN_MODELLING
PIMP              .kPa.s/m  : PIMP
RHOB              .g/cm3    : RHOB
LLD               .ohm.m    : LLD
RT_MODELLING      .ohm.m    : RT_MODELLING
RT_POWER          .ohm.m    : RT_POWER
SP                .mV       : SP
SUWI              ._        : SUWI
SUWI_MODELLING    ._        : SUWI_MODELLING
SXWI              ._        : SXWI
TDVSS             .m        : TDVSS
VCL               .%        : VCL
WATER_VOL         ._        : WATER_VOL
ZLT               ._        : ZLT
~Params ----------------------------------------------------
~Other -----------------------------------------------------
~ASCII -----------------------------------------------------
# ...
  1337.4064  4470.9805 4470980.5000    -999.25     8.9002     8.9002     2.4012   152.4000     0.0000     0.0000    74.5617     1.9151     1.9055  1337.4064     0.4795    -999.25     0.3753     0.2112     0.1195     0.1195 14668.5703     2.2355     1.9209     1.9209     3.6899    88.3962     1.0000     1.0000     1.0000 -1270.6764    61.4750     0.1195     8.0000
  1337.5588  4544.2598 4544259.5000    -999.25     8.6100     8.6100     2.5881   152.4000     0.0000     0.0000    73.7387     2.1395     2.1135  1337.5587     0.4848    -999.25     0.0238     0.2003     0.1164     0.1164 14908.9883     2.2721     2.1447     2.1447     4.5999    88.0624     1.0000     1.0000     1.0000 -1270.8287    62.4780     0.1164     8.0000
  1337.7112  4674.1602 4674160.0000    -999.25     8.5449     8.5449     2.9629   152.4000     0.0000     0.0000    75.9643     2.4002     2.4004  1337.7112     0.4976    -999.25     1.3456     0.1769     0.1039     0.1039 15335.1709     2.3371     2.3980     2.3980     5.7504    87.6419     1.0000     1.0000     1.0000 -1270.9812    66.5120     0.1039     8.0000
  1337.8636  4769.5000 4769500.0000    -999.25     8.5410     8.5410     3.1916   152.4000     0.0000     0.0000    78.4311     2.4124     2.4601  1337.8635     0.5124    -999.25     2.0880     0.1620     0.0895     0.0895 15647.9658     2.3847     2.4059     2.4059     5.7884    87.6180     1.0000     1.0000     1.0000 -1271.1335    71.1720     0.0895     8.0000
  1338.0160  5393.1304 5393130.5000    -999.25     8.5348     8.5348     3.2810   134.7214     0.0000     0.0000    80.6025     2.2409     2.3115  1338.0160     0.5206    -999.25     1.4093     0.1543     0.0820     0.0820 17693.9980     2.3838     2.2393     2.2393     5.0146    88.0000     1.0000     1.0000     1.0000 -1271.2860    73.5880     0.0820     8.0000
  1338.1684  5913.2749 5913275.0000    -999.25     8.5292     8.5292     3.2378   121.9200     0.0000     0.0000    82.2173     2.0738     2.1400  1338.1683     0.5161    -999.25     0.9456     0.1520     0.0836     0.0836 19400.5078     2.3653     2.0748     2.0748     4.3048    88.4273     1.0000     1.0000     1.0000 -1271.4384    73.0760     0.0836     8.0000
  1338.3208  5891.6997 5891700.0000    -999.25     8.5276     8.5276     3.1137   121.9200     0.0000     0.0000    82.1540     1.9808     2.0284  1338.3208     0.5014    -999.25     0.9637     0.1571     0.0920     0.0920 19329.7246     2.3567     1.9823     1.9823     3.9297    88.5137     1.0000     1.0000     1.0000 -1271.5908    70.3650     0.0920     8.0000
  1338.4732  5885.4746 5885475.0000    -999.25     8.5321     8.5321     3.1149   121.9200     0.0000     0.0000    81.9921     1.9875     2.0115  1338.4731     0.4849    -999.25     1.1796     0.1626     0.1000     0.1000 19309.3008     2.3542     1.9896     1.9896     3.9585    88.0641     1.0000     1.0000     1.0000 -1271.7432    67.7730     0.1000     8.0000
  1338.6256  5905.4502 5905450.0000    -999.25     8.5354     8.5354     3.3905   121.9200     0.0000     0.0000    81.7389     2.0951     2.1005  1338.6256     0.4777    -999.25     1.5466     0.1625     0.0998     0.0998 19374.8359     2.3622     2.0970     2.0970     4.3972    87.4830     1.0000     1.0000     1.0000 -1271.8956    67.1260     0.0998     8.0000
  1338.7780  5941.6499 5941650.0000    -999.25     8.5354     8.5354     3.8405   121.9200     0.0000     0.0000    80.9121     2.2667     2.2606  1338.7780     0.4854    -999.25     2.0435     0.1618     0.0958     0.0958 19493.6016     2.3767     2.2677     2.2677     5.1423    87.2306     1.0000     1.0000     1.0000 -1272.0480    68.5990     0.0958     8.0000
  1338.9304  5962.0503 5962050.0000    -999.25     8.5354     8.5354     4.3324   121.9200     0.0000     0.0000    79.9659     2.4193     2.4042  1338.9304     0.5044    -999.25     1.9072     0.1586     0.0886     0.0886 19560.5312     2.3848     2.4181     2.4181     5.8474    87.3177     1.0000     1.0000     1.0000 -1272.2003    71.3670     0.0886     8.0000
  1339.0828  5945.1504 5945150.5000    -999.25     8.5331     8.5331     4.3277   121.9200     0.0000     0.0000    78.7065     2.4897     2.4648  1339.0828     0.5263    -999.25     1.7710     0.1539     0.0820     0.0820 19505.0859     2.3781     2.4879     2.4879     6.1898    87.3492     1.0000     1.0000     1.0000 -1272.3528    73.5690     0.0820     8.0000
  1339.2352  5844.4253 5844425.0000    -999.25     8.5315     8.5315     3.7966   121.9200     0.0000    -999.25    77.4569     2.5472     2.5136  1339.2352     0.5491    -999.25     1.6348     0.1493     0.0794     0.0794 19174.6230     2.3378     2.5481     2.5481     6.4929    87.3065     1.0000     1.0000     1.0000 -1272.5051    74.4040     0.0794     9.0000
  1339.3876  5579.7500 5579750.0000    -999.25     8.5543     8.5543     3.5133   121.9200     3.0000    -999.25    75.2969     2.7932     2.7479  1339.3876     0.5793    -999.25     1.4985     0.1832     0.0639     0.0639 18306.2656     2.2319     2.7991     2.7991     7.8347    87.2300     1.0000     1.0000     0.8368 -1272.6576    79.4230     0.0639     9.0000
  1339.5400  4395.1465 4395146.5000    -999.25     8.5503     8.5503     3.9964   139.5986     3.0000    -999.25    68.3365     3.4725     3.3938  1339.5399     0.6290    -999.25     1.3623     0.1134     0.0340     0.0340 14419.7715     2.0130     3.4834     3.4834    12.1341    87.1938     1.0000     1.0000     0.8963 -1272.8099    67.5130     0.0340     9.0000
  1339.6924  3440.1204 3440120.2500    -999.25     8.4783     8.4783     5.9810   152.4000     3.0000    -999.25    56.7714     5.4129     5.2338  1339.6924     0.7074    -999.25     1.2261     0.0440     0.0206     0.0206 11286.4844     1.7201     5.4490     5.4490    29.6916    86.9656     1.0000     1.0000     0.9948 -1272.9624    45.3950     0.0206     9.0000
  1339.8448  2932.1001 2932100.2500    -999.25     8.4096     8.4096    13.0085   152.4000     3.0000    -999.25    43.9122    11.2395    11.1184  1339.8447     0.8116    -999.25     1.0898     0.0251     0.0200     0.0200  9619.7510     1.4661    11.3487    11.3487   128.7930    86.7067     1.0000     1.0000     1.0000 -1273.1147    27.3790     0.0200     9.0000
  1339.9972  2602.3401 2602340.0000    -999.25     8.4081     8.4081    32.4729   152.4000     3.0000    -999.25    32.6618    25.6877    29.3232  1339.9972     0.9089    -999.25     0.9536     0.0138     0.0200     0.0200  8537.8613     1.3012    25.9109    25.9109   671.3727    86.4646     1.0000     1.0000     1.0000 -1273.2672    15.0850     0.0200     9.0000
  1340.1496  2462.0801 2462080.0000    -999.25     8.5491     8.5491    70.8535   152.4000     3.0000    -999.25    29.0800    30.3037    36.2051  1340.1495     0.9495    -999.25     0.8174     0.0094     0.0200     0.0200  8077.6904     1.2310    29.8259    29.8259   889.5842    86.4588     1.0000     1.0000     1.0000 -1273.4196    10.2910     0.0200     9.0000
  1340.3020  2526.7402 2526740.2500    -999.25     8.9568     8.9568    57.6738   152.4000     3.0000    -999.25    35.2484    18.0548    20.7455  1340.3020     0.9137    -999.25     0.6812     0.0126     0.0200     0.0200  8289.8301     1.2634    17.8312    17.8312   317.9517    86.5929     1.0000     1.0000     1.0000 -1273.5720    13.8000     0.0200     9.0000
  1340.4544  2745.8401 2745840.2500    -999.25     9.5344     9.5344    19.0118   152.4000     3.0000    -999.25    48.6476     6.9142     7.0688  1340.4543     0.8221    -999.25     0.5449     0.0215     0.0200     0.0200  9008.6621     1.3729     7.0974     7.0974    50.3727    86.6335     1.0000     1.0000     1.0000 -1273.7244    23.5320     0.0200     9.0000
  1340.6068  3058.9399 3058940.0000    -999.25     9.7463     9.7463     5.4349   152.4000     3.0000    -999.25    66.5341     3.0339     2.9039  1340.6068     0.7141    -999.25     0.4087     0.0342     0.0200     0.0200 10035.8926     1.5295     3.1341     3.1341     9.8225    86.4357     1.0000     1.0000     1.0000 -1273.8767    37.3690     0.0200     9.0000
