~Version ---------------------------------------------------
VERS. 2.0 : CWLS log ASCII Standard -VERSION 2.0
WRAP.  NO : 
~Well ------------------------------------------------------
STRT.m                                                1187.6524 : 
STOP.m                                                1658.2636 : 
STEP.m                                                   0.1524 : 
NULL.                                                   -999.25 : 
COMP.                                                           : COMPANY
WELL.                                                   Well-19 : WELL
FLD .                                                           : FIELD
LOC .                                                           : LOCATION
SRVC.                                                           : SERVICE COMPANY
DATE. 2021-01-20 14:34:11   : Log Export Date {yyyy-MM-dd HH:mm : ss}
PROV.                                                           : PROVINCE
UWI .                                                   Well-19 : UNIQUE WELL ID
API .                                                           : API NUMBER
~Curve Information -----------------------------------------
DEPTH             .m        : DEPTH
ACOUSTICIMPEDANCE1.kPa.s/m  : ACOUSTICIMPEDANCE1
AI                .kPa.s/m  : AI
AVG_PIGN          .m3/m3    : AVG_PIGN
CALI              .in       : CALI
NPHI              .m3/m3    : NPHI
DT                .us/ft    : DT
DT4P              .us/ft    : DT4P
FACIES            ._        : FACIES
FLD1              ._        : FLD1
GR                .gAPI     : GR
M2R2              .ohm.m    : M2R2
LLS               .ohm.m    : LLS
LLD               .ohm.m    : LLD
DEPTH_1           .m        : DEPTH_1
NPHI_1            .m3/m3    : NPHI_1
PEF               .b/e      : PEF
PERF_INT          ._        : PERF_INT
PERMEABILITY      .mD       : PERMEABILITY
PIGN              .m3/m3    : PIGN
PIGN_MODELLING    .m3/m3    : PIGN_MODELLING
PIMP              .kPa.s/m  : PIMP
RHOB              .g/cm3    : RHOB
LLD_1             .ohm.m    : LLD_1
RT_MODELLING      .ohm.m    : RT_MODELLING
RT_POWER          .ohm.m    : RT_POWER
SP                .mV       : SP
SPDH              .mV       : SPDH
SUWI              ._        : SUWI
SUWI_MODELLING    ._        : SUWI_MODELLING
TDVSS             .m        : TDVSS
TEMP              .K        : TEMP
VCL               .%        : VCL
WATER_VOL         ._        : WATER_VOL
RHOB_1            .g/cm3    : RHOB_1
ZLT               ._        : ZLT
~Params ----------------------------------------------------
~Other -----------------------------------------------------
~ASCII -----------------------------------------------------
# ...
  1219.6564  4647.6699 4647670.0000    -999.25    10.3750     0.4945   143.4852   143.4852    -999.25    -999.25    92.6137     1.0408     1.0852     1.1165  1219.6564     0.4945     6.0919    -999.25    -999.25    -999.25    -999.25 15248.2617     2.1879    -999.25    -999.25    -999.25   -56.9167   316.8496    -999.25    -999.25 -1098.2706   143.7311    -999.25    -999.25     2.1879    -999.25
  1219.8088  4659.4678 4659468.0000    -999.25    10.3018     0.4516   145.3264   145.3264    -999.25    -999.25    93.6567     1.0120     1.0529     1.0830  1219.8087     0.4516     6.4918    -999.25    -999.25    -999.25    -999.25 15286.9678     2.2216    -999.25    -999.25    -999.25   -57.5286   315.9765    -999.25    -999.25 -1098.4093   143.7388    -999.25    -999.25     2.2216    -999.25
  1219.9612  4840.4609 4840460.5000    -999.25    10.2222     0.4447   145.2007   145.2007    -999.25    -999.25    91.5100     1.0369     1.0771     1.1093  1219.9612     0.4447     6.9634    -999.25    -999.25    -999.25    -999.25 15880.7764     2.3059    -999.25    -999.25    -999.25   -57.8566   315.2333    -999.25    -999.25 -1098.5479   143.7466    -999.25    -999.25     2.3059    -999.25
  1220.1136  4968.9355 4968935.5000    -999.25    10.2069     0.4606   148.3412   148.3412    -999.25    -999.25    88.8758     1.0897     1.1301     1.1657  1220.1135     0.4606     7.1667    -999.25    -999.25    -999.25    -999.25 16302.2822     2.4183    -999.25    -999.25    -999.25   -57.9439   314.9058    -999.25    -999.25 -1098.6864   143.7543    -999.25    -999.25     2.4183    -999.25
  1220.2660  5051.4951 5051495.0000    -999.25    10.2434     0.4659   146.9003   146.9003    -999.25    -999.25    86.7683     1.1676     1.2113     1.2514  1220.2660     0.4659     6.7370    -999.25    -999.25    -999.25    -999.25 16573.1465     2.4346    -999.25    -999.25    -999.25   -57.9280   314.9493    -999.25    -999.25 -1098.8250   143.7620    -999.25    -999.25     2.4346    -999.25
  1220.4184  4931.7412 4931741.0000    -999.25    10.3363     0.4762   146.0793   146.0793    -999.25    -999.25    84.2291     1.3410     1.4019     1.4538  1220.4183     0.4762     6.0366    -999.25    -999.25    -999.25    -999.25 16180.2529     2.3636    -999.25    -999.25    -999.25   -57.7341   315.1851    -999.25    -999.25 -1098.9636   143.7697    -999.25    -999.25     2.3636    -999.25
  1220.5708  4472.0498 4472050.0000    -999.25    10.4963     0.5094   153.9659   153.9659    -999.25    -999.25    81.1802     1.5840     1.6862     1.7576  1220.5708     0.5094     5.6118    -999.25    -999.25    -999.25    -999.25 14672.0791     2.2590    -999.25    -999.25    -999.25   -57.3855   315.4006    -999.25    -999.25 -1099.1022   143.7774    -999.25    -999.25     2.2590    -999.25
  1220.7232  4298.4907 4298490.5000    -999.25    10.6464     0.5488   155.0204   155.0204    -999.25    -999.25    79.4713     1.5679     1.6777     1.7328  1220.7231     0.5488     5.4664    -999.25    -999.25    -999.25    -999.25 14102.6592     2.1862    -999.25    -999.25    -999.25   -57.1694   315.5229    -999.25    -999.25 -1099.2407   143.7851    -999.25    -999.25     2.1862    -999.25
  1220.8756  4262.2520 4262252.0000    -999.25    10.7048     0.5672   154.6436   154.6436    -999.25    -999.25    81.5120     1.2290     1.3373     1.3804  1220.8755     0.5672     5.4495    -999.25    -999.25    -999.25    -999.25 13983.7656     2.1625    -999.25    -999.25    -999.25   -57.3754   315.5881    -999.25    -999.25 -1099.3793   143.7928    -999.25    -999.25     2.1625    -999.25
  1221.0280  4289.5728 4289572.5000    -999.25    10.6615     0.5566   153.7013   153.7013    -999.25    -999.25    86.1144     1.0070     1.1109     1.1458  1221.0280     0.5566     5.4734    -999.25    -999.25    -999.25    -999.25 14073.4014     2.1631    -999.25    -999.25    -999.25   -57.7940   315.6028    -999.25    -999.25 -1099.5179   143.8006    -999.25    -999.25     2.1631    -999.25
  1221.1804  4315.6152 4315615.5000    -999.25    10.5086     0.5318   153.0563   153.0563    -999.25    -999.25    89.4749     0.9372     1.0414     1.0732  1221.1803     0.5318     5.5921    -999.25    -999.25    -999.25    -999.25 14158.8428     2.1671    -999.25    -999.25    -999.25   -58.0478   315.5297    -999.25    -999.25 -1099.6565   143.8083    -999.25    -999.25     2.1671    -999.25
  1221.3328  4362.0967 4362097.0000    -999.25    10.3078     0.5044   152.5713   152.5713    -999.25    -999.25    90.9080     0.9329     1.0348     1.0657  1221.3328     0.5044     5.9525    -999.25    -999.25    -999.25    -999.25 14311.3418     2.1835    -999.25    -999.25    -999.25   -58.1366   315.4020    -999.25    -999.25 -1099.7950   143.8160    -999.25    -999.25     2.1835    -999.25
  1221.4852  4585.9028 4585903.0000    -999.25    10.1753     0.4757   148.7211   148.7211    -999.25    -999.25    92.9216     0.9237     1.0160     1.0458  1221.4851     0.4757     6.4630    -999.25    -999.25    -999.25    -999.25 15045.6133     2.2376    -999.25    -999.25    -999.25   -58.3050   315.1425    -999.25    -999.25 -1099.9336   143.8237    -999.25    -999.25     2.2376    -999.25
  1221.6376  4845.0171 4845017.0000    -999.25    10.1445     0.4646   144.9635   144.9635    -999.25    -999.25    95.4911     0.8950     0.9729     1.0011  1221.6376     0.4646     6.8301    -999.25    -999.25    -999.25    -999.25 15895.7256     2.3043    -999.25    -999.25    -999.25   -58.4907   314.7390    -999.25    -999.25 -1100.0721   143.8314    -999.25    -999.25     2.3043    -999.25
  1221.7900  5447.5493 5447549.0000    -999.25    10.1561     0.4875   130.7425   130.7425    -999.25    -999.25    95.5746     0.8990     0.9650     0.9927  1221.7899     0.4875     6.8463    -999.25    -999.25    -999.25    -999.25 17872.5371     2.3367    -999.25    -999.25    -999.25   -58.3854   314.7023    -999.25    -999.25 -1100.2108   143.8391    -999.25    -999.25     2.3367    -999.25
  1221.9424  5565.5815 5565581.5000    -999.25    10.1722     0.5232   127.2633   127.2633    -999.25    -999.25    93.0073     1.0155     1.0774     1.1079  1221.9424     0.5232     6.5555    -999.25    -999.25    -999.25    -999.25 18259.7812     2.3238    -999.25    -999.25    -999.25   -57.7797   315.5522    -999.25    -999.25 -1100.3494   143.8468    -999.25    -999.25     2.3238    -999.25
  1222.0948  5352.5562 5352556.5000    -999.25    10.1791     0.5584   129.7714   129.7714    -999.25    -999.25    89.9140     1.3045     1.3766     1.4151  1222.0947     0.5584     6.1023    -999.25    -999.25    -999.25    -999.25 17560.8809     2.2789    -999.25    -999.25    -999.25   -56.8909   316.8715    -999.25    -999.25 -1100.4879   143.8545    -999.25    -999.25     2.2789    -999.25
  1222.2472  5216.9888 5216988.5000    -999.25    10.1712     0.5857   130.8008   130.8008    -999.25    -999.25    87.7236     1.5651     1.6536     1.6995  1222.2472     0.5857     5.6837    -999.25    -999.25    -999.25    -999.25 17116.1035     2.2388    -999.25    -999.25    -999.25   -56.3923   317.6232    -999.25    -999.25 -1100.6265   143.8623    -999.25    -999.25     2.2388    -999.25
  1222.3996  4622.3501 4622350.0000    -999.25    10.1583     0.5635   145.7944   145.7944    -999.25    -999.25    87.3727     1.4940     1.5667     1.6100  1222.3995     0.5635     5.4417    -999.25    -999.25    -999.25    -999.25 15165.1914     2.2110    -999.25    -999.25    -999.25   -56.5580   317.3927    -999.25    -999.25 -1100.7651   143.8700    -999.25    -999.25     2.2110    -999.25
  1222.5520  4403.9272 4403927.5000    -999.25    10.1247     0.5098   152.5548   152.5548    -999.25    -999.25    90.3579     1.2566     1.3152     1.3522  1222.5520     0.5098     5.3773    -999.25    -999.25    -999.25    -999.25 14448.5811     2.2042    -999.25    -999.25    -999.25   -57.1141   316.5597    -999.25    -999.25 -1100.9037   143.8777    -999.25    -999.25     2.2042    -999.25
  1222.7044  4441.7515 4441751.5000    -999.25    10.0412     0.4809   151.3586   151.3586    -999.25    -999.25    94.9225     1.0894     1.1437     1.1771  1222.7043     0.4809     5.3856    -999.25    -999.25    -999.25    -999.25 14572.6758     2.2057    -999.25    -999.25    -999.25   -57.8541   315.6343    -999.25    -999.25 -1101.0422   143.8854    -999.25    -999.25     2.2057    -999.25
