~Version ---------------------------------------------------
VERS. 2.0 : CWLS log ASCII Standard -VERSION 2.0
WRAP.  NO : 
~Well ------------------------------------------------------
STRT.m                                                   1210.0 : 
STOP.m                                                1487.9776 : 
STEP.m                                                   0.1524 : 
NULL.                                                   -999.25 : 
COMP.                                                           : COMPANY
WELL.                                                   Well-14 : WELL
FLD .                                                           : FIELD
LOC .                                                           : LOCATION
SRVC.                                                           : SERVICE COMPANY
DATE. 2021-01-20 14:34:06   : Log Export Date {yyyy-MM-dd HH:mm : ss}
PROV.                                                           : PROVINCE
UWI .                                                   Well-14 : UNIQUE WELL ID
API .                                                           : API NUMBER
~Curve Information -----------------------------------------
DEPTH             .m        : DEPTH
ACOUSTICIMPEDANCE1.kPa.s/m  : ACOUSTICIMPEDANCE1
AI                .kPa.s/m  : AI
AVG_PIGN          .m3/m3    : AVG_PIGN
CALI              .in       : CALI
CALI[DERIVED]1    .in       : CALI[DERIVED]1
DFL               .ohm.m    : DFL
DT                .us/ft    : DT
FACIES            ._        : FACIES
FLD1              ._        : FLD1
GR                .gAPI     : GR
HDRS              .ohm.m    : HDRS
HMRS              .ohm.m    : HMRS
DEPTH_1           .m        : DEPTH_1
NPHI              .m3/m3    : NPHI
PERF_INT          ._        : PERF_INT
PERMEABILITY      .mD       : PERMEABILITY
PHIT              .m3/m3    : PHIT
PIGN              .m3/m3    : PIGN
PIGN_MODELLING    .m3/m3    : PIGN_MODELLING
PIMP              .kPa.s/m  : PIMP
RHOB              .g/cm3    : RHOB
LLD               .ohm.m    : LLD
RT_MODELLING      .ohm.m    : RT_MODELLING
RT_POWER          .ohm.m    : RT_POWER
SP                .mV       : SP
SUWI              ._        : SUWI
SUWI_MODELLING    ._        : SUWI_MODELLING
SXWI              ._        : SXWI
TDVSS             .m        : TDVSS
VCL               .%        : VCL
WATER_VOL         ._        : WATER_VOL
ZLT               ._        : ZLT
~Params ----------------------------------------------------
~Other -----------------------------------------------------
~ASCII -----------------------------------------------------
# ...
  1283.7616  4584.1206 4584120.5000    -999.25     9.8910     9.8910     1.6775   152.4000     0.0000    -999.25    76.4468     1.2214     1.2438  1283.7616     0.5571    -999.25    -999.25     0.1723     0.0821     0.0821 15039.7656     2.2921     1.2213     1.2213     1.4915    86.9375     1.0000     1.0000     1.0000 -1217.0316    73.5280     0.0821     0.0000
  1283.9140  5239.5156 5239516.0000    -999.25     9.9410     9.9410     1.6522   134.7213     0.0000    -999.25    76.1923     1.2036     1.2323  1283.9139     0.5410    -999.25    -999.25     0.1633     0.0963     0.0963 17190.0117     2.3159     1.2036     1.2036     1.4486    87.1018     1.0000     1.0000     1.0000 -1217.1840    68.9710     0.0963     0.0000
  1284.0664  5839.6753 5839675.0000    -999.25    10.0706    10.0706     1.5968   121.9200     0.0000    -999.25    76.3014     1.1965     1.2315  1284.0664     0.5291    -999.25    -999.25     0.1674     0.0996     0.0996 19159.0391     2.3359     1.1969     1.1969     1.4325    87.0787     1.0000     1.0000     1.0000 -1217.3364    67.8930     0.0996     0.0000
  1284.2188  5838.0249 5838024.5000    -999.25    10.3358    10.3358     1.5701   121.9200     0.0000    -999.25    76.0411     1.2067     1.2485  1284.2188     0.5285    -999.25    -999.25     0.1682     0.1005     0.1005 19153.6250     2.3352     1.2070     1.2070     1.4569    87.0147     1.0000     1.0000     1.0000 -1217.4888    67.6040     0.1005     0.0000
  1284.3712  5783.4258 5783425.5000    -999.25    10.7070    10.7070     1.5801   121.9200     0.0000    -999.25    74.8368     1.2138     1.2588  1284.3712     0.5393    -999.25    -999.25     0.1661     0.1006     0.1006 18974.4941     2.3134     1.2135     1.2135     1.4726    86.8945     1.0000     1.0000     1.0000 -1217.6411    67.5810     0.1006     0.0000
  1284.5236  4980.6211 4980621.5000    -999.25    11.0567    11.0567     1.6041   139.5987     0.0000    -999.25    72.7505     1.1936     1.2324  1284.5236     0.5566    -999.25    -999.25     0.1881     0.0860     0.0860 16340.6211     2.2811     1.1929     1.1929     1.4231    87.1382     1.0000     1.0000     1.0000 -1217.7936    72.3020     0.0860     0.0000
  1284.6760  4476.9604 4476960.5000    -999.25    11.1707    11.1707     1.5680   152.4000     0.0000    -999.25    70.6738     1.1497     1.1749  1284.6760     0.5751    -999.25    -999.25     0.2108     0.0733     0.0733 14688.1904     2.2385     1.1494     1.1494     1.3211    87.3441     1.0000     1.0000     1.0000 -1217.9459    76.3950     0.0733     0.0000
  1284.8284  4386.3398 4386340.0000    -999.25    11.0388    11.0388     1.4737   152.4000     0.0000    -999.25    69.8639     1.1053     1.1161  1284.8284     0.5921    -999.25    -999.25     0.2228     0.0656     0.0656 14390.8789     2.1932     1.1055     1.1055     1.2221    87.4054     1.0000     1.0000     1.0000 -1218.0984    78.8570     0.0656     0.0000
  1284.9808  4313.4600 4313460.0000    -999.25    10.7130    10.7130     1.3943   152.4000     0.0000    -999.25    71.2095     1.0803     1.0804  1284.9807     0.6053    -999.25    -999.25     0.2295     0.0560     0.0560 14151.7715     2.1567     1.0807     1.0807     1.1680    87.1269     1.0000     1.0000     1.0000 -1218.2507    81.9710     0.0560     0.0000
  1285.1332  4273.6802 4273680.5000    -999.25    10.1215    10.1215     1.3361   152.4000     0.0000    -999.25    73.8730     1.0834     1.0782  1285.1332     0.6109    -999.25    -999.25     0.2313     0.0478     0.0478 14021.2607     2.1368     1.0840     1.0840     1.1750    86.6990     1.0000     1.0000     1.0000 -1218.4032    84.6040     0.0478     0.0000
  1285.2856  4853.9028 4853903.0000    -999.25     9.3736     9.3736     1.3541   134.7213     0.0000    -999.25    76.7209     1.1313     1.1275  1285.2855     0.6023    -999.25    -999.25     0.2262     0.0469     0.0469 15924.8789     2.1454     1.1324     1.1324     1.2824    86.1531     1.0000     1.0000     1.0000 -1218.5555    84.8830     0.0469     0.0000
  1285.4380  5467.8999 5467900.0000    -999.25     8.7680     8.7680     1.4775   121.9200     0.0000    -999.25    79.0714     1.2424     1.2511  1285.4380     0.5755    -999.25    -999.25     0.2143     0.0568     0.0568 17939.3047     2.1872     1.2438     1.2438     1.5471    85.4942     1.0000     1.0000     1.0000 -1218.7080    81.6980     0.0568     0.0000
  1285.5904  5625.1504 5625150.5000    -999.25     8.6018     8.6018     1.7277   121.9200     0.0000    -999.25    81.2068     1.4290     1.4683  1285.5903     0.5396    -999.25    -999.25     0.1969     0.0715     0.0715 18455.2168     2.2501     1.4307     1.4307     2.0468    85.0114     1.0000     1.0000     1.0000 -1218.8604    76.9780     0.0715     0.0000
  1285.7428  5785.5249 5785525.0000    -999.25     8.7144     8.7144     2.1748   121.9200     0.0000    -999.25    82.5596     1.6176     1.6863  1285.7428     0.5118    -999.25    -999.25     0.1706     0.0872     0.0872 18981.3809     2.3142     1.6166     1.6166     2.6135    84.8886     1.0000     1.0000     1.0000 -1219.0128    71.8910     0.0872     0.0000
  1285.8952  5875.3496 5875349.5000    -999.25     8.7939     8.7939     2.4730   121.9200     0.0000    -999.25    82.2301     1.6551     1.7155  1285.8951     0.5021    -999.25    -999.25     0.1599     0.0941     0.0941 19276.0820     2.3501     1.6509     1.6509     2.7255    85.1082     1.0000     1.0000     1.0000 -1219.1652    69.6920     0.0941     0.0000
  1286.0476  5868.5498 5868550.0000    -999.25     8.8094     8.8094     2.4544   121.9200     0.0000    -999.25    81.9736     1.5646     1.5952  1286.0476     0.5081    -999.25    -999.25     0.1578     0.0928     0.0928 19253.7734     2.3474     1.5633     1.5633     2.4441    85.2243     1.0000     1.0000     1.0000 -1219.3176    70.1050     0.0928     0.0000
  1286.2000  5825.0000 5825000.0000    -999.25     8.8887     8.8887     2.1252   121.9200     0.0000    -999.25    81.9591     1.4905     1.5095  1286.2000     0.5219    -999.25    -999.25     0.1549     0.0898     0.0898 19110.8926     2.3300     1.4918     1.4918     2.2255    85.2319     1.0000     1.0000     1.0000 -1219.4700    71.0690     0.0898     0.0000
  1286.3524  5750.6504 5750650.5000    -999.25     9.0979     9.0979     1.9110   121.9200     0.0000    -999.25    80.8960     1.4747     1.4967  1286.3524     0.5395    -999.25    -999.25     0.1735     0.0764     0.0764 18866.9629     2.3003     1.4756     1.4756     2.1773    85.4171     1.0000     1.0000     1.0000 -1219.6223    75.3900     0.0764     0.0000
  1286.5048  4869.8135 4869813.5000    -999.25     9.4507     9.4507     1.9220   139.5987     0.0000    -999.25    79.3073     1.4743     1.4897  1286.5048     0.5638    -999.25    -999.25     0.1991     0.0618     0.0618 15977.0791     2.2304     1.4742     1.4742     2.1733    85.7961     1.0000     1.0000     1.0000 -1219.7748    80.0900     0.0618     0.0000
  1286.6572  4246.2202 4246220.5000    -999.25     9.8018     9.8018     1.9249   152.4000     0.0000    -999.25    77.3989     1.4312     1.4293  1286.6572     0.5985    -999.25    -999.25     0.2249     0.0473     0.0473 13931.1689     2.1231     1.4299     1.4299     2.0445    86.1113     1.0000     1.0000     1.0000 -1219.9271    84.7530     0.0473     0.0000
  1286.8096  4075.8000 4075800.0000    -999.25     9.9429     9.9429     1.7844   152.4000     0.0000    -999.25    74.4591     1.3259     1.3101  1286.8096     0.6417    -999.25    -999.25     0.2456     0.0295     0.0295 13372.0479     2.0379     1.3247     1.3247     1.7549    86.2331     1.0000     1.0000     1.0000 -1220.0796    90.4780     0.0295     0.0000
  1286.9620  4001.6599 4001660.0000    -999.25    10.0213    10.0213     1.5655   152.4000     0.0000    -999.25    71.7031     1.2192     1.2026  1286.9619     0.6830    -999.25    -999.25     0.1370     0.0210     0.0210 13128.8057     2.0008     1.2199     1.2199     1.4882    86.4709     1.0000     1.0000     1.0000 -1220.2319    76.7270     0.0210     0.0000
