~Version ---------------------------------------------------
VERS. 2.0 : CWLS log ASCII Standard -VERSION 2.0
WRAP.  NO : 
~Well ------------------------------------------------------
STRT.m                                                   1210.0 : 
STOP.m                                                1487.9776 : 
STEP.m                                                   0.1524 : 
NULL.                                                   -999.25 : 
COMP.                                                           : COMPANY
WELL.                                                   Well-14 : WELL
FLD .                                                           : FIELD
LOC .                                                           : LOCATION
SRVC.                                                           : SERVICE COMPANY
DATE. 2021-01-20 14:34:06   : Log Export Date {yyyy-MM-dd HH:mm : ss}
PROV.                                                           : PROVINCE
UWI .                                                   Well-14 : UNIQUE WELL ID
API .                                                           : API NUMBER
~Curve Information -----------------------------------------
DEPTH             .m        : DEPTH
ACOUSTICIMPEDANCE1.kPa.s/m  : ACOUSTICIMPEDANCE1
AI                .kPa.s/m  : AI
AVG_PIGN          .m3/m3    : AVG_PIGN
CALI              .in       : CALI
CALI[DERIVED]1    .in       : CALI[DERIVED]1
DFL               .ohm.m    : DFL
DT                .us/ft    : DT
FACIES            ._        : FACIES
FLD1              ._        : FLD1
GR                .gAPI     : GR
HDRS              .ohm.m    : HDRS
HMRS              .ohm.m    : HMRS
DEPTH_1           .m        : DEPTH_1
NPHI              .m3/m3    : NPHI
PERF_INT          ._        : PERF_INT
PERMEABILITY      .mD       : PERMEABILITY
PHIT              .m3/m3    : PHIT
PIGN              .m3/m3    : PIGN
PIGN_MODELLING    .m3/m3    : PIGN_MODELLING
PIMP              .kPa.s/m  : PIMP
RHOB              .g/cm3    : RHOB
LLD               .ohm.m    : LLD
RT_MODELLING      .ohm.m    : RT_MODELLING
RT_POWER          .ohm.m    : RT_POWER
SP                .mV       : SP
SUWI              ._        : SUWI
SUWI_MODELLING    ._        : SUWI_MODELLING
SXWI              ._        : SXWI
TDVSS             .m        : TDVSS
VCL               .%        : VCL
WATER_VOL         ._        : WATER_VOL
ZLT               ._        : ZLT
~Params ----------------------------------------------------
~Other -----------------------------------------------------
~ASCII -----------------------------------------------------
# ...
  1431.2848  6086.0996 6086100.0000    -999.25     8.8472     8.8472     4.3688   121.9200     0.0000    -999.25    82.7916     2.1296     2.1497  1431.2848     0.5165     1.0000     7.0517     0.1805     0.1034     0.1034 19967.5195     2.4344     2.1272     2.1272     4.5248    89.8568     1.0000     1.0000     1.0000 -1364.5548    66.6760     0.1034    23.0000
  1431.4372  5994.8501 5994850.0000    -999.25     8.9253     8.9253     3.7396   121.9200     0.0000    -999.25    87.1920     1.9522     1.9651  1431.4371     0.5250     1.0000     7.2468     0.1687     0.0962     0.0962 19668.1426     2.3979     1.9513     1.9513     3.8075    89.6754     1.0000     1.0000     1.0000 -1364.7072    68.9980     0.0962    23.0000
  1431.5896  5956.7500 5956750.0000    -999.25     8.9909     8.9909     2.9798   121.9200     0.0000    -999.25    89.6966     1.8270     1.8338  1431.5896     0.5313     1.0000     7.4420     0.1629     0.0915     0.0915 19543.1426     2.3827     1.8292     1.8292     3.3460    89.1148     1.0000     1.0000     1.0000 -1364.8596    70.5090     0.0915    23.0000
  1431.7420  5931.7749 5931775.0000    -999.25     9.0112     9.0112     2.6038   121.9200     0.0000    -999.25    89.9691     1.8324     1.8404  1431.7419     0.5351     1.0000     7.6372     0.1611     0.0909     0.0909 19461.2051     2.3727     1.8350     1.8350     3.3674    88.5765     1.0000     1.0000     1.0000 -1365.0120    70.7270     0.0909    23.0000
  1431.8944  5944.1494 5944149.5000    -999.25     8.9508     8.9508     2.7690   121.9200     0.0000    -999.25    87.9016     1.9469     1.9634  1431.8944     0.5340     1.0000     7.8324     0.1645     0.0940     0.0940 19501.8027     2.3777     1.9487     1.9487     3.7974    88.2652     1.0000     1.0000     1.0000 -1365.1644    69.6970     0.0940    23.0000
  1432.0468  7080.7871 7080787.0000    -999.25     8.8295     8.8295     3.0579   104.2416     0.0000    -999.25    83.6336     2.1139     2.1358  1432.0468     0.5260     1.0000     8.0276     0.1771     0.1002     0.1002 23230.9297     2.4216     2.1146     2.1146     4.4714    88.2627     1.0000     1.0000     1.0000 -1365.3168    67.6980     0.1002    23.0000
  1432.1992  8346.5996 8346599.5000    -999.25     8.7306     8.7306     3.2073    91.4400     0.0000    -999.25    77.2014     2.3901     2.4046  1432.1992     0.5135     1.0000     8.2228     0.1987     0.1088     0.1088 27383.8574     2.5040     2.3935     2.3935     5.7290    88.4110     1.0000     1.0000     1.0000 -1365.4691    64.9480     0.1088    24.0000
  1432.3516  7232.8232 7232823.0000    -999.25     8.6871     8.6871     3.6193   109.1184     0.0000    -999.25    70.1453     2.9131     2.8911  1432.3516     0.5041     1.0000    11.2405     0.2126     0.1129     0.1129 23729.7344     2.5893     2.9194     2.9194     8.5227    88.7198     0.9767     0.9767     0.9767 -1365.6216    63.6210     0.1103    24.0000
  1432.5040  6590.4497 6590450.0000    -999.25     8.6521     8.6521     4.9988   121.9200     0.0000    -999.25    64.0820     3.5294     3.4467  1432.5040     0.5045     1.0000    11.9129     0.2161     0.1139     0.1139 21622.2109     2.6362     3.5287     3.5287    12.4518    89.0151     0.9109     0.9109     0.9109 -1365.7739    63.2840     0.1038    24.0000
  1432.6564  6549.9502 6549950.5000    -999.25     8.6088     8.6088     6.3646   121.9200     0.0000    -999.25    59.9983     3.6546     3.5703  1432.6564     0.5161     1.0000    11.4802     0.2188     0.1193     0.1193 21489.3379     2.6200     3.6391     3.6391    13.2434    89.0439     0.8661     0.8661     0.8661 -1365.9264    61.5610     0.1033    24.0000
  1432.8088  6364.9502 6364950.0000    -999.25     8.5837     8.5837     5.9146   121.9200     0.0000    -999.25    58.8804     3.2419     3.2155  1432.8087     0.5321     1.0000     9.9226     0.2165     0.1266     0.1266 20882.3828     2.5460     3.2349     3.2349    10.4644    88.7327     0.9035     0.9035     0.9035 -1366.0787    59.2060     0.1144    24.0000
  1432.9612  6150.9746 6150974.5000    -999.25     8.5787     8.5787     4.5664   121.9200     0.0000    -999.25    60.3968     2.8295     2.8477  1432.9612     0.5423     1.0000     8.2193     0.2069     0.1303     0.1303 20180.3633     2.4604     2.8340     2.8340     8.0316    88.3947     0.9721     0.9721     0.9721 -1366.2312    58.0240     0.1266    24.0000
  1433.1136  6016.4248 6016425.0000    -999.25     8.5787     8.5787     3.9698   121.9200     0.0000    -999.25    62.7350     2.6386     2.6724  1433.1135     0.5422     1.0000     8.1735     0.1992     0.1317     0.1317 19738.9277     2.4066     2.6423     2.6423     6.9820    88.3066     0.9987     0.9987     0.9987 -1366.3835    57.5560     0.1316    24.0000
  1433.2660  5962.5752 5962575.0000    -999.25     8.5810     8.5810     4.0018   121.9200     0.0000    -999.25    64.0627     2.5484     2.5814  1433.2660     0.5334     1.0000    10.5624     0.1985     0.1352     0.1352 19562.2539     2.3850     2.5489     2.5489     6.4970    88.5001     1.0000     1.0000     1.0000 -1366.5360    56.4450     0.1352    24.0000
  1433.4184  5935.5249 5935525.0000    -999.25     8.5941     8.5941     3.9729   121.9200     0.0000    -999.25    63.7923     2.4600     2.4861  1433.4183     0.5234     1.0000    14.6138     0.2017     0.1410     0.1410 19473.5059     2.3742     2.4596     2.4596     6.0498    88.7418     1.0000     1.0000     1.0000 -1366.6884    54.5520     0.1410    24.0000
  1433.5708  5907.4497 5907450.0000    -999.25     8.6092     8.6092     3.7997   121.9200     0.0000    -999.25    62.4928     2.3802     2.4013  1433.5708     0.5195     1.0000    17.3887     0.2044     0.1463     0.1463 19381.3965     2.3630     2.3807     2.3807     5.6675    88.7898     1.0000     1.0000     1.0000 -1366.8408    52.8640     0.1463    24.0000
  1433.7232  5890.2754 5890275.5000    -999.25     8.6142     8.6142     3.6357   121.9200     0.0000    -999.25    61.2106     2.3361     2.3564  1433.7231     0.5228     1.0000    17.0056     0.2049     0.1480     0.1480 19325.0508     2.3561     2.3369     2.3369     5.4611    88.8253     1.0000     1.0000     1.0000 -1366.9932    52.2960     0.1480    24.0000
  1433.8756  5929.4751 5929475.0000    -999.25     8.6210     8.6210     3.5997   121.9200     0.0000    -999.25    61.4291     2.3408     2.3616  1433.8756     0.5288     1.0000    14.0375     0.2038     0.1436     0.1436 19453.6582     2.3718     2.3419     2.3419     5.4844    88.8209     1.0000     1.0000     1.0000 -1367.1456    53.7280     0.1436    24.0000
  1434.0280  6042.4751 6042475.0000    -999.25     8.6237     8.6237     3.6507   121.9200     0.0000    -999.25    63.2008     2.4179     2.4367  1434.0280     0.5319     1.0000    11.3710     0.2041     0.1347     0.1347 19824.3945     2.4170     2.4196     2.4196     5.8546    89.0297     1.0000     1.0000     1.0000 -1367.2980    56.6020     0.1347    24.0000
  1434.1804  6221.9253 6221925.0000    -999.25     8.6289     8.6289     3.7717   121.9200     0.0000    -999.25    64.3469     2.6116     2.6225  1434.1804     0.5294     1.0000    10.4275     0.2097     0.1265     0.1265 20413.1406     2.4888     2.6144     2.6144     6.8351    89.2934     0.9963     0.9963     0.9963 -1367.4503    59.2370     0.1260    24.0000
  1434.3328  6447.8501 6447850.0000    -999.25     8.6521     8.6521     4.1036   121.9200     0.0000    -999.25    64.9443     2.9047     2.9016  1434.3328     0.5231     1.0000     9.6966     0.2140     0.1163     0.1163 21154.3633     2.5791     2.9063     2.9063     8.4465    89.7283     0.9668     0.9668     0.9668 -1367.6028    62.5410     0.1124    24.0000
  1434.4852  6651.0249 6651025.0000    -999.25     8.6927     8.6927     4.6061   121.9200     0.0000    -999.25    65.3256     3.1789     3.1618  1434.4852     0.5154     1.0000     4.5082     0.1580     0.0853     0.0853 21820.9473     2.6604     3.1774     3.1774    10.0962    89.9368     0.9803     0.9803     0.9803 -1367.7551    59.8950     0.0836    24.0000
