~Version ---------------------------------------------------
VERS. 2.0 : CWLS log ASCII Standard -VERSION 2.0
WRAP.  NO : 
~Well ------------------------------------------------------
STRT.m                                                 1185.062 : 
STOP.m                                                1563.9284 : 
STEP.m                                                   0.1524 : 
NULL.                                                   -999.25 : 
COMP.                                                           : COMPANY
WELL.                                                    Well-8 : WELL
FLD .                                                           : FIELD
LOC .                                                           : LOCATION
SRVC.                                                           : SERVICE COMPANY
DATE. 2021-01-20 14:34:03   : Log Export Date {yyyy-MM-dd HH:mm : ss}
PROV.                                                           : PROVINCE
UWI .                                                    Well-8 : UNIQUE WELL ID
API .                                                           : API NUMBER
~Curve Information -----------------------------------------
DEPTH             .m        : DEPTH
ACOUSTICIMPEDANCE1.kPa.s/m  : ACOUSTICIMPEDANCE1
AI                .kPa.s/m  : AI
AVG_PIGN          .m3/m3    : AVG_PIGN
AZI1              .deg      : AZI1
CALI              .in       : CALI
CALI[DERIVED]1    .in       : CALI[DERIVED]1
DEVI              .deg      : DEVI
DFL               .ohm.m    : DFL
DT                .us/ft    : DT
FACIES            ._        : FACIES
FLD1              ._        : FLD1
GR                .gAPI     : GR
HDRS              .ohm.m    : HDRS
HMRS              .ohm.m    : HMRS
DEPTH_1           .m        : DEPTH_1
NPHI              .m3/m3    : NPHI
ONE-WAYTIME1      .ms       : ONE-WAYTIME1
PERF_INT          ._        : PERF_INT
PERMEABILITY      .mD       : PERMEABILITY
PIGN              .m3/m3    : PIGN
PIGN_MODELLING    .m3/m3    : PIGN_MODELLING
PIMP              .kPa.s/m  : PIMP
RHOB              .g/cm3    : RHOB
LLD               .ohm.m    : LLD
RT_MODELLING      .ohm.m    : RT_MODELLING
RT_POWER          .ohm.m    : RT_POWER
SUWI              ._        : SUWI
SUWI_MODELLING    ._        : SUWI_MODELLING
SXWI              ._        : SXWI
TDVSS             .m        : TDVSS
VCL               .%        : VCL
WATER_VOL         ._        : WATER_VOL
ZLT               ._        : ZLT
~Params ----------------------------------------------------
~Other -----------------------------------------------------
~ASCII -----------------------------------------------------
# ...
  1309.1156  5345.9282 5345928.5000    -999.25  -639.2500    12.8856    12.8856  -639.2500     2.3617   130.1638     0.0000    -999.25    54.1115     2.1279     2.1392  1309.1156     0.5336  -691.5227    -999.25    -999.25     0.0472     0.0472 17539.1348     2.2830     2.1328     2.1328     4.5490     1.0000     1.0000     1.0000 -1227.8057    71.6720     0.0472     0.0000
  1309.2680  5243.0776 5243077.5000    -999.25  -639.2500    12.8645    12.8645  -639.2500     2.5106   132.5282     0.0000    -999.25    54.8466     2.1721     2.2080  1309.2681     0.5295  -691.6085    -999.25    -999.25     0.0478     0.0478 17201.6973     2.2797     2.1740     2.1740     4.7264     1.0000     1.0000     1.0000 -1227.9580    71.3290     0.0478     0.0000
  1309.4204  5057.1084 5057108.5000    -999.25  -639.2500    12.8670    12.8670  -639.2500     2.5889   136.4001     0.0000    -999.25    54.8795     2.1894     2.2440  1309.4204     0.5351  -691.6943    -999.25    -999.25     0.0456     0.0456 16591.5625     2.2631     2.1901     2.1901     4.7967     1.0000     1.0000     1.0000 -1228.1105    72.6590     0.0456     0.0000
  1309.5728  4837.2529 4837252.5000    -999.25  -639.2500    12.8798    12.8798  -639.2500     2.5981   141.0116     0.0000    -999.25    53.4998     2.1953     2.2572  1309.5729     0.5583  -691.7802    -999.25    -999.25     0.0389     0.0389 15870.2520     2.2379     2.1940     2.1940     4.8138     1.0000     1.0000     1.0000 -1228.2628    76.6580     0.0389     0.0000
  1309.7252  4684.2314 4684231.5000    -999.25  -639.2500    12.9307    12.9307  -639.2500     2.6022   144.4534     0.0000    -999.25    53.2566     2.1795     2.2361  1309.7252     0.5988  -691.8660    -999.25    -999.25     0.0280     0.0280 15368.2139     2.2200     2.1708     2.1708     4.7124     1.0000     1.0000     1.0000 -1228.4153    83.1840     0.0280     0.0000
  1309.8776  4639.2749 4639275.0000    -999.25  -639.2500    13.0483    13.0483  -639.2500     2.5686   145.2658     0.0000    -999.25    55.1257     2.0928     2.1265  1309.8777     0.6401  -691.9518    -999.25    -999.25     0.0178     0.0178 15220.7188     2.2111     2.0728     2.0728     4.2963     1.0000     1.0000     1.0000 -1228.5676    89.6330     0.0178     0.0000
  1310.0300  4683.9771 4683977.0000    -999.25  -639.2500    13.2030    13.2030  -639.2500     2.3682   143.7461     0.0000    -999.25    56.2881     1.9041     1.9125  1310.0300     0.6620  -692.0377    -999.25    -999.25     0.0150     0.0150 15367.3779     2.2090     1.8788     1.8788     3.5301     1.0000     1.0000     1.0000 -1228.7201    92.7060     0.0150     0.0000
  1310.1824  4770.2871 4770287.5000    -999.25  -639.2500    13.3265    13.3265  -639.2500     1.9481   141.7797     0.0000    -999.25    56.1371     1.6741     1.6751  1310.1824     0.6553  -692.1235    -999.25    -999.25     0.0159     0.0159 15650.5488     2.2189     1.6564     1.6564     2.7437     1.0000     1.0000     1.0000 -1228.8724    91.1730     0.0159     0.0000
  1310.3348  4885.0981 4885098.5000    -999.25  -639.2500    13.3803    13.3803  -639.2500     1.5983   139.9793     0.0000    -999.25    55.4660     1.5152     1.5147  1310.3348     0.6291  -692.2094    -999.25    -999.25     0.0218     0.0218 16027.2256     2.2435     1.5068     1.5068     2.2706     1.0000     1.0000     1.0000 -1229.0248    86.8950     0.0218     0.0000
  1310.4872  5004.7666 5004766.5000    -999.25  -639.2500    13.3754    13.3754  -639.2500     1.4547   138.6067     0.0000    -999.25    54.1633     1.4396     1.4378  1310.4872     0.5991  -692.2952    -999.25    -999.25     0.0276     0.0276 16419.8379     2.2759     1.4351     1.4351     2.0595     1.0000     1.0000     1.0000 -1229.1772    83.4490     0.0276     0.0000
  1310.6396  5111.2964 5111296.0000    -999.25  -639.2500    13.3221    13.3221  -639.2500     1.4294   137.7478     0.0000    -999.25    53.3439     1.3986     1.4011  1310.6396     0.5741  -692.3810    -999.25    -999.25     0.0299     0.0299 16769.3438     2.3099     1.3956     1.3956     1.9477     1.0000     1.0000     1.0000 -1229.3296    82.0710     0.0299     0.0000
  1310.7920  5188.7964 5188796.5000    -999.25  -639.2500    13.2354    13.2354  -639.2500     1.4222   137.2787     0.0000    -999.25    53.5210     1.3725     1.3809  1310.7920     0.5621  -692.4669    -999.25    -999.25     0.0294     0.0294 17023.6094     2.3370     1.3725     1.3725     1.8837     1.0000     1.0000     1.0000 -1229.4821    82.3470     0.0294     0.0000
  1310.9444  5225.2954 5225295.5000    -999.25  -639.2500    13.1529    13.1529  -639.2500     1.3777   136.8699     0.0000    -999.25    53.6352     1.3734     1.3823  1310.9445     0.5641  -692.5527    -999.25    -999.25     0.0276     0.0276 17143.3574     2.3464     1.3756     1.3756     1.8923     1.0000     1.0000     1.0000 -1229.6344    83.4240     0.0276     0.0000
  1311.0968  5216.8447 5216844.5000    -999.25  -639.2500    13.1252    13.1252  -639.2500     1.4265   136.4343     0.0000    -999.25    52.8099     1.3932     1.3965  1311.0968     0.5741  -692.6385    -999.25    -999.25     0.0265     0.0265 17115.6328     2.3352     1.3944     1.3944     1.9444     1.0000     1.0000     1.0000 -1229.7869    84.0750     0.0265     0.0000
  1311.2492  5190.4336 5190433.5000    -999.25  -639.2500    13.1560    13.1560  -639.2500     1.5081   135.9382     0.0000    -999.25    51.2221     1.4032     1.4016  1311.2493     0.5858  -692.7244    -999.25    -999.25     0.0260     0.0260 17028.9824     2.3149     1.4024     1.4024     1.9667     1.0000     1.0000     1.0000 -1229.9392    84.4210     0.0260     0.0000
  1311.4016  5185.9111 5185911.5000    -999.25  -639.2500    13.2028    13.2028  -639.2500     1.5386   135.3380     0.0000    -999.25    50.4955     1.3949     1.3909  1311.4016     0.5975  -692.8102    -999.25    -999.25     0.0241     0.0241 17014.1445     2.3027     1.3936     1.3936     1.9420     1.0000     1.0000     1.0000 -1230.0917    85.5360     0.0241     0.0000
  1311.5540  5212.0293 5212029.0000    -999.25  -639.2500    13.2401    13.2401  -639.2500     1.4700   134.5159     0.0000    -999.25    51.4134     1.3838     1.3822  1311.5541     0.6095  -692.8961    -999.25    -999.25     0.0208     0.0208 17099.8340     2.3002     1.3852     1.3852     1.9189     1.0000     1.0000     1.0000 -1230.2440    87.5080     0.0208     0.0000
  1311.7064  5252.4897 5252490.0000    -999.25  -639.2500    13.2608    13.2608  -639.2500     1.4109   133.3817     0.0000    -999.25    53.3425     1.4002     1.4025  1311.7064     0.6196  -692.9819    -999.25    -999.25     0.0182     0.0182 17232.5781     2.2985     1.4079     1.4079     1.9823     1.0000     1.0000     1.0000 -1230.3965    89.1050     0.0182     0.0000
  1311.8588  5308.0161 5308016.5000    -999.25  -639.2500    13.2473    13.2473  -639.2500     1.4470   132.0300     0.0000    -999.25    56.1428     1.4741     1.4743  1311.8589     0.6205  -693.0677    -999.25    -999.25     0.0181     0.0181 17414.7520     2.2993     1.4859     1.4859     2.2080     1.0000     1.0000     1.0000 -1230.5488    89.1550     0.0181     0.0000
  1312.0112  5393.7217 5393722.0000    -999.25  -639.2500    13.1932    13.1932  -639.2500     1.5912   130.5339     0.0000    -999.25    57.9636     1.5836     1.5781  1312.0112     0.6044  -693.1536    -999.25    -999.25     0.0218     0.0218 17695.9375     2.3099     1.5956     1.5956     2.5459     1.0000     1.0000     1.0000 -1230.7013    86.9110     0.0218     0.0000
  1312.1636  5497.9380 5497938.0000    -999.25  -639.2500    13.1434    13.1434  -639.2500     1.7787   128.9948     0.0000    -999.25    57.1990     1.6932     1.6842  1312.1636     0.5728  -693.2394    -999.25    -999.25     0.0292     0.0292 18037.8535     2.3268     1.7025     1.7025     2.8985     1.0000     1.0000     1.0000 -1230.8536    82.4670     0.0292     0.0000
  1312.3160  5604.8472 5604847.5000    -999.25  -639.2500    13.1287    13.1287  -639.2500     1.9108   127.6122     0.0000    -999.25    55.5685     1.7783     1.7685  1312.3160     0.5354  -693.3252    -999.25    -999.25     0.0376     0.0376 18388.6074     2.3466     1.7850     1.7850     3.1863     1.0000     1.0000     1.0000 -1231.0060    77.4250     0.0376     0.0000
