~Version ---------------------------------------------------
VERS. 2.0 : CWLS log ASCII Standard -VERSION 2.0
WRAP.  NO : 
~Well ------------------------------------------------------
STRT.m                                                   1210.0 : 
STOP.m                                                1487.9776 : 
STEP.m                                                   0.1524 : 
NULL.                                                   -999.25 : 
COMP.                                                           : COMPANY
WELL.                                                   Well-14 : WELL
FLD .                                                           : FIELD
LOC .                                                           : LOCATION
SRVC.                                                           : SERVICE COMPANY
DATE. 2021-01-20 14:34:06   : Log Export Date {yyyy-MM-dd HH:mm : ss}
PROV.                                                           : PROVINCE
UWI .                                                   Well-14 : UNIQUE WELL ID
API .                                                           : API NUMBER
~Curve Information -----------------------------------------
DEPTH             .m        : DEPTH
ACOUSTICIMPEDANCE1.kPa.s/m  : ACOUSTICIMPEDANCE1
AI                .kPa.s/m  : AI
AVG_PIGN          .m3/m3    : AVG_PIGN
CALI              .in       : CALI
CALI[DERIVED]1    .in       : CALI[DERIVED]1
DFL               .ohm.m    : DFL
DT                .us/ft    : DT
FACIES            ._        : FACIES
FLD1              ._        : FLD1
GR                .gAPI     : GR
HDRS              .ohm.m    : HDRS
HMRS              .ohm.m    : HMRS
DEPTH_1           .m        : DEPTH_1
NPHI              .m3/m3    : NPHI
PERF_INT          ._        : PERF_INT
PERMEABILITY      .mD       : PERMEABILITY
PHIT              .m3/m3    : PHIT
PIGN              .m3/m3    : PIGN
PIGN_MODELLING    .m3/m3    : PIGN_MODELLING
PIMP              .kPa.s/m  : PIMP
RHOB              .g/cm3    : RHOB
LLD               .ohm.m    : LLD
RT_MODELLING      .ohm.m    : RT_MODELLING
RT_POWER          .ohm.m    : RT_POWER
SP                .mV       : SP
SUWI              ._        : SUWI
SUWI_MODELLING    ._        : SUWI_MODELLING
SXWI              ._        : SXWI
TDVSS             .m        : TDVSS
VCL               .%        : VCL
WATER_VOL         ._        : WATER_VOL
ZLT               ._        : ZLT
~Params ----------------------------------------------------
~Other -----------------------------------------------------
~ASCII -----------------------------------------------------
# ...
  1468.1656  6410.7754 6410775.5000    -999.25     8.6968     8.6968     4.7501   121.9200     0.0000    -999.25    77.6921     3.0787     3.0328  1468.1655     0.4693    -999.25    -999.25     0.1885     0.0979     0.0979 21032.7266     2.5643     3.0708     3.0708     9.4296    90.6390     0.9859     0.9859     0.9859 -1401.4355    62.5320     0.0965    26.0000
  1468.3180  6190.0254 6190025.5000    -999.25     8.6900     8.6900     4.6051   121.9200     0.0000    -999.25    81.4974     2.8216     2.8131  1468.3180     0.4827    -999.25    -999.25     0.1747     0.0948     0.0948 20308.4824     2.4760     2.8177     2.8177     7.9395    90.7727     0.9993     0.9993     0.9993 -1401.5880    64.8260     0.0947    26.0000
  1468.4704  5967.3501 5967350.0000    -999.25     8.6782     8.6782     3.9810   121.9200     0.0000    -999.25    82.5062     2.5279     2.5389  1468.4703     0.4958    -999.25    -999.25     0.1748     0.1051     0.1051 19577.9199     2.3869     2.5291     2.5291     6.3963    90.8253     1.0000     1.0000     1.0000 -1401.7404    64.7060     0.1051    26.0000
  1468.6228  5867.0503 5867050.5000    -999.25     8.6686     8.6686     3.3803   121.9200     0.0000    -999.25    80.5545     2.3614     2.3738  1468.6228     0.4966    -999.25    -999.25     0.1799     0.1163     0.1163 19248.8535     2.3468     2.3645     2.3645     5.5907    90.8734     1.0000     1.0000     1.0000 -1401.8928    62.4520     0.1163    26.0000
  1468.7752  5860.8501 5860850.5000    -999.25     8.6630     8.6630     3.1795   121.9200     0.0000    -999.25    77.8356     2.3579     2.3664  1468.7751     0.4838    -999.25    -999.25     0.1893     0.1281     0.1281 19228.5117     2.3443     2.3610     2.3610     5.5743    90.7748     1.0000     1.0000     1.0000 -1402.0452    58.7190     0.1281    26.0000
  1468.9276  5885.7251 5885725.0000    -999.25     8.6568     8.6568     3.3307   121.9200     0.0000    -999.25    75.0853     2.4585     2.4600  1468.9276     0.4643    -999.25    -999.25     0.2022     0.1419     0.1419 19310.1211     2.3543     2.4598     2.4598     6.0507    90.4502     1.0000     1.0000     1.0000 -1402.1975    54.2810     0.1419    26.0000
  1469.0800  5910.1753 5910175.5000    -999.25     8.6490     8.6490     3.6147   121.9200     0.0000    -999.25    73.1659     2.5635     2.5540  1469.0800     0.4477    -999.25    -999.25     0.2088     0.1495     0.1495 19390.3398     2.3641     2.5629     2.5629     6.5683    90.3360     1.0000     1.0000     1.0000 -1402.3500    51.0750     0.1495    26.0000
  1469.2324  5927.7505 5927750.5000    -999.25     8.6457     8.6457     3.8389   121.9200     0.0000    -999.25    72.3427     2.5926     2.5732  1469.2324     0.4444    -999.25    -999.25     0.2098     0.1504     0.1504 19448.0000     2.3711     2.5906     2.5906     6.7111    90.5663     1.0000     1.0000     1.0000 -1402.5023    50.4430     0.1504    26.0000
  1469.3848  5935.0752 5935075.5000    -999.25     8.6434     8.6434     3.8947   121.9200     0.0000    -999.25    72.7847     2.4997     2.4832  1469.3848     0.4588    -999.25    -999.25     0.2058     0.1448     0.1448 19472.0312     2.3740     2.4970     2.4970     6.2352    90.8886     1.0000     1.0000     1.0000 -1402.6548    52.9240     0.1448    26.0000
  1469.5372  5920.4751 5920475.0000    -999.25     8.6417     8.6417     3.6787   121.9200     0.0000    -999.25    74.3762     2.3286     2.3279  1469.5371     0.4853    -999.25    -999.25     0.1929     0.1308     0.1308 19424.1309     2.3682     2.3277     2.3277     5.4182    90.9710     1.0000     1.0000     1.0000 -1402.8071    57.8230     0.1308    26.0000
  1469.6896  5883.0503 5883050.0000    -999.25     8.6372     8.6372     3.2517   121.9200     0.0000    -999.25    75.7022     2.1868     2.2020  1469.6896     0.5136    -999.25    -999.25     0.1774     0.1158     0.1158 19301.3457     2.3532     2.1882     2.1882     4.7883    90.8039     1.0000     1.0000     1.0000 -1402.9596    62.6970     0.1158    26.0000
  1469.8420  5851.7749 5851775.0000    -999.25     8.6384     8.6384     2.9485   121.9200     0.0000    -999.25    77.3592     2.1424     2.1657  1469.8419     0.5285    -999.25    -999.25     0.1681     0.1066     0.1066 19198.7363     2.3407     2.1445     2.1445     4.5989    90.6792     1.0000     1.0000     1.0000 -1403.1119    65.6420     0.1066    26.0000
  1469.9944  5851.0249 5851025.0000    -999.25     8.6485     8.6485     2.9522   121.9200     0.0000    -999.25    79.8369     2.1990     2.2224  1469.9944     0.5258    -999.25    -999.25     0.1670     0.1039     0.1039 19196.2773     2.3404     2.2008     2.2008     4.8436    90.7795     1.0000     1.0000     1.0000 -1403.2644    66.5160     0.1039    26.0000
  1470.1468  5874.7749 5874775.0000    -999.25     8.6649     8.6649     3.1799   121.9200     0.0000    -999.25    81.3828     2.2915     2.3113  1470.1467     0.5112    -999.25    -999.25     0.1730     0.1080     0.1080 19274.1973     2.3499     2.2914     2.2914     5.2506    90.8867     1.0000     1.0000     1.0000 -1403.4167    65.2030     0.1080    26.0000
  1470.2992  5914.6255 5914625.5000    -999.25     8.6892     8.6892     3.3443   121.9200     0.0000    -999.25    82.6179     2.3441     2.3598  1470.2992     0.4948    -999.25    -999.25     0.1812     0.1132     0.1132 19404.9395     2.3659     2.3429     2.3429     5.4891    90.9399     1.0000     1.0000     1.0000 -1403.5692    63.5300     0.1132    26.0000
  1470.4516  6002.5503 6002550.0000    -999.25     8.7099     8.7099     3.3945   121.9200     0.0000    -999.25    82.8814     2.3332     2.3459  1470.4515     0.4839    -999.25    -999.25     0.1902     0.1166     0.1166 19693.4062     2.4010     2.3320     2.3320     5.4382    91.0864     1.0000     1.0000     1.0000 -1403.7216    62.3730     0.1166    26.0000
  1470.6040  6186.5254 6186525.5000    -999.25     8.7325     8.7325     3.3926   121.9200     0.0000    -999.25    79.7085     2.2851     2.3069  1470.6040     0.4799    -999.25    -999.25     0.2040     0.1204     0.1204 20297.0000     2.4746     2.2847     2.2847     5.2199    91.3434     1.0000     1.0000     1.0000 -1403.8740    61.1470     0.1204    26.0000
  1470.7564  6487.0249 6487025.0000    -999.25     8.7738     8.7738     3.3021   121.9200     0.0000    -999.25    72.8084     2.2960     2.3430  1470.7563     0.4795    -999.25    -999.25     0.1609     0.0939     0.0939 21282.8906     2.5948     2.2982     2.2982     5.2819    91.6180     1.0000     1.0000     1.0000 -1404.0264    58.8730     0.0939    26.0000
  1470.9088  6866.1250 6866125.0000    -999.25     8.8295     8.8295     3.4550   121.9200     0.0000    -999.25    65.3072     2.4919     2.5624  1470.9088     0.4797    -999.25    -999.25     0.1146     0.0621     0.0621 22526.6562     2.7464     2.4966     2.4966     6.2330    91.8651     1.0000     1.0000     1.0000 -1404.1787    56.5340     0.0621    26.0000
  1471.0612  7115.8257 7115825.5000    -999.25     8.8566     8.8566     4.3750   121.9200     0.0000    -999.25    61.7014     2.8337     2.9053  1471.0612     0.4828    -999.25    -999.25     0.0960     0.0443     0.0443 23345.8848     2.8463     2.8356     2.8356     8.0404    92.0815     1.0000     1.0000     1.0000 -1404.3312    56.3800     0.0443    26.0000
  1471.2136  6952.1255 6952125.5000    -999.25     8.8446     8.8446     5.7170   121.9200     0.0000    -999.25    63.2546     2.9492     3.0311  1471.2136     0.4970    -999.25    -999.25     0.1027     0.0485     0.0485 22808.8105     2.7809     2.9406     2.9406     8.6471    92.2890     1.0000     1.0000     1.0000 -1404.4835    59.0390     0.0485    26.0000
  1471.3660  6507.2744 6507274.5000    -999.25     8.8164     8.8164     5.7982   121.9200     0.0000    -999.25    68.9210     2.6396     2.7386  1471.3660     0.5259    -999.25    -999.25     0.1529     0.0794     0.0794 21349.3262     2.6029     2.6314     2.6314     6.9245    92.6100     1.0000     1.0000     1.0000 -1404.6360    65.5380     0.0794    26.0000
