~Version ---------------------------------------------------
VERS. 2.0 : CWLS log ASCII Standard -VERSION 2.0
WRAP.  NO : 
~Well ------------------------------------------------------
STRT.m                                                   1210.0 : 
STOP.m                                                1487.9776 : 
STEP.m                                                   0.1524 : 
NULL.                                                   -999.25 : 
COMP.                                                           : COMPANY
WELL.                                                   Well-14 : WELL
FLD .                                                           : FIELD
LOC .                                                           : LOCATION
SRVC.                                                           : SERVICE COMPANY
DATE. 2021-01-20 14:34:06   : Log Export Date {yyyy-MM-dd HH:mm : ss}
PROV.                                                           : PROVINCE
UWI .                                                   Well-14 : UNIQUE WELL ID
API .                                                           : API NUMBER
~Curve Information -----------------------------------------
DEPTH             .m        : DEPTH
ACOUSTICIMPEDANCE1.kPa.s/m  : ACOUSTICIMPEDANCE1
AI                .kPa.s/m  : AI
AVG_PIGN          .m3/m3    : AVG_PIGN
CALI              .in       : CALI
CALI[DERIVED]1    .in       : CALI[DERIVED]1
DFL               .ohm.m    : DFL
DT                .us/ft    : DT
FACIES            ._        : FACIES
FLD1              ._        : FLD1
GR                .gAPI     : GR
HDRS              .ohm.m    : HDRS
HMRS              .ohm.m    : HMRS
DEPTH_1           .m        : DEPTH_1
NPHI              .m3/m3    : NPHI
PERF_INT          ._        : PERF_INT
PERMEABILITY      .mD       : PERMEABILITY
PHIT              .m3/m3    : PHIT
PIGN              .m3/m3    : PIGN
PIGN_MODELLING    .m3/m3    : PIGN_MODELLING
PIMP              .kPa.s/m  : PIMP
RHOB              .g/cm3    : RHOB
LLD               .ohm.m    : LLD
RT_MODELLING      .ohm.m    : RT_MODELLING
RT_POWER          .ohm.m    : RT_POWER
SP                .mV       : SP
SUWI              ._        : SUWI
SUWI_MODELLING    ._        : SUWI_MODELLING
SXWI              ._        : SXWI
TDVSS             .m        : TDVSS
VCL               .%        : VCL
WATER_VOL         ._        : WATER_VOL
ZLT               ._        : ZLT
~Params ----------------------------------------------------
~Other -----------------------------------------------------
~ASCII -----------------------------------------------------
# ...
  1357.5232  3971.6987 3971698.7500    -999.25     9.5813     9.5813     2.6302   139.5986     0.0000    -999.25    86.6808     1.7506     1.8971  1357.5232     0.7419    -999.25     0.0025     0.0566     0.0200     0.0200 13030.5078     1.8190     1.7470     1.7470     3.0519    92.6427     1.0000     1.0000     1.0000 -1290.7932    61.8380     0.0200    12.0000
  1357.6756  3725.7400 3725740.0000    -999.25    10.2239    10.2239     2.4091   152.4000     0.0000    -999.25    86.9498     1.5591     1.6226  1357.6755     0.6996    -999.25     0.0038     0.0585     0.0200     0.0200 12223.5566     1.8629     1.5550     1.5550     2.4179    92.9176     1.0000     1.0000     1.0000 -1290.9456    63.9310     0.0200    12.0000
  1357.8280  3953.4402 3953440.0000    -999.25    10.3990    10.3990     1.9945   152.4000     0.0000    -999.25    87.1650     1.3225     1.3277  1357.8280     0.5937    -999.25     0.0051     0.0632     0.0200     0.0200 12970.6045     1.9767     1.3237     1.3237     1.7522    93.0159     1.0000     1.0000     1.0000 -1291.0980    69.0990     0.0200    13.0000
  1357.9804  4162.8599 4162860.0000    -999.25    10.4247    10.4247     1.7568   152.4000     0.0000    -999.25    85.1718     1.2176     1.2212  1357.9803     0.4985    -999.25     0.0063     0.1688     0.0794     0.0794 13657.6777     2.0814     1.2209     1.2209     1.4906    93.0542     1.0000     1.0000     1.0000 -1291.2504    65.5170     0.0794    13.0000
  1358.1328  4237.6401 4237640.0000    -999.25    10.5830    10.5830     1.7104   152.4000     0.0000    -999.25    83.5340     1.2136     1.2474  1358.1328     0.4655    -999.25     0.0076     0.2340     0.1184     0.1184 13903.0186     2.1188     1.2145     1.2145     1.4749    92.9911     1.0000     1.0000     1.0000 -1291.4027    61.4270     0.1184    13.0000
  1358.2852  4196.7402 4196740.5000    -999.25    10.2935    10.2935     1.6090   152.4000     0.0000    -999.25    84.7529     1.2138     1.2810  1358.2852     0.4768    -999.25     0.0088     0.2407     0.1110     0.1110 13768.8330     2.0984     1.2132     1.2132     1.4720    92.8108     1.0000     1.0000     1.0000 -1291.5552    64.2240     0.1110    13.0000
  1358.4376  4637.2451 4637245.0000    -999.25     9.6983     9.6983     1.6314   134.7215     0.0000    -999.25    88.9525     1.2387     1.3355  1358.4376     0.5027    -999.25     0.0101     0.2427     0.0883     0.0883 15214.0576     2.0497     1.2399     1.2399     1.5374    92.4617     1.0000     1.0000     1.0000 -1291.7075    71.5430     0.0883    13.0000
  1358.5900  4399.7554 4399755.5000    -999.25     9.4365     9.4365     1.7424   139.5985     0.0000    -999.25    93.5096     1.3408     1.4711  1358.5900     0.5245    -999.25     0.0114     0.2404     0.0669     0.0669 14434.8926     2.0151     1.3426     1.3426     1.8025    92.0605     1.0000     1.0000     1.0000 -1291.8600    78.4080     0.0669    13.0000
  1358.7424  4109.4600 4109460.0000    -999.25     9.5116     9.5116     2.0171   152.4000     0.0000    -999.25    94.9653     1.4244     1.5616  1358.7423     0.5303    -999.25     0.0126     0.2250     0.0610     0.0610 13482.4805     2.0547     1.4226     1.4226     2.0238    91.8651     1.0000     1.0000     1.0000 -1292.0123    80.3070     0.0610    13.0000
  1358.8948  4359.1201 4359120.0000    -999.25     9.6306     9.6306     2.0437   152.4000     0.0000    -999.25    90.5081     1.3700     1.4635  1358.8948     0.5220    -999.25     0.0139     0.2027     0.0751     0.0751 14301.5752     2.1796     1.3667     1.3667     1.8680    91.8996     1.0000     1.0000     1.0000 -1292.1648    75.8040     0.0751    13.0000
  1359.0472  4760.3799 4760380.0000    -999.25     9.9097     9.9097     1.9042   152.4000     0.0000    -999.25    82.5307     1.2516     1.3008  1359.0471     0.5082    -999.25     0.0152     0.1914     0.0925     0.0925 15618.0449     2.3802     1.2517     1.2517     1.5669    92.1038     1.0000     1.0000     1.0000 -1292.3171    70.1990     0.0925    13.0000
  1359.1996  5752.3369 5752337.0000    -999.25    10.3629    10.3629     1.7764   134.7215     0.0000    -999.25    77.2370     1.2066     1.2523  1359.1996     0.4958    -999.25     0.0164     0.1989     0.0975     0.0975 18872.4961     2.5425     1.2088     1.2088     1.4612    92.1083     1.0000     1.0000     1.0000 -1292.4696    68.5780     0.0975    13.0000
  1359.3520  6366.8501 6366850.0000    -999.25    10.7206    10.7206     1.7441   121.9200     0.0000    -999.25    76.7526     1.2531     1.3281  1359.3519     0.4871    -999.25     0.0177     0.2019     0.1021     0.1021 20888.6172     2.5467     1.2545     1.2545     1.5739    92.0383     1.0000     1.0000     1.0000 -1292.6219    67.0960     0.1021    13.0000
  1359.5044  6193.4746 6193474.5000    -999.25    10.7114    10.7114     1.7850   121.9200     0.0000    -999.25    79.7698     1.3127     1.4100  1359.5044     0.4839    -999.25     0.0189     0.1932     0.1046     0.1046 20319.7988     2.4774     1.3121     1.3121     1.7217    91.7662     1.0000     1.0000     1.0000 -1292.7744    66.2840     0.1046    13.0000
  1359.6568  6059.5000 6059500.0000    -999.25    10.5444    10.5444     1.7785   121.9200     0.0000    -999.25    84.5768     1.3486     1.4416  1359.6567     0.4884    -999.25     0.0202     0.1795     0.0990     0.0990 19880.2500     2.4238     1.3483     1.3483     1.8179    91.5093     1.0000     1.0000     1.0000 -1292.9268    68.1100     0.0990    13.0000
  1359.8092  5943.8755 5943875.5000    -999.25    10.5932    10.5932     1.8492   121.9200     0.0000    -999.25    90.6209     1.4257     1.5222  1359.8092     0.4999    -999.25     0.0215     0.1612     0.0868     0.0868 19500.9043     2.3776     1.4274     1.4274     2.0373    91.1174     1.0000     1.0000     1.0000 -1293.0792    72.0450     0.0868    13.0000
  1359.9616  5816.0996 5816099.5000    -999.25    10.7515    10.7515     2.0925   121.9200     0.0000    -999.25    96.9315     1.5347     1.6409  1359.9615     0.5145    -999.25     0.0227     0.1446     0.0726     0.0726 19081.6914     2.3264     1.5347     1.5347     2.3553    90.7775     1.0000     1.0000     1.0000 -1293.2316    76.5990     0.0726    13.0000
  1360.1140  5666.2002 5666200.0000    -999.25    10.6397    10.6397     2.3287   121.9200     0.0000    -999.25   102.0992     1.5300     1.6123  1360.1140     0.5268    -999.25     0.0240     0.1476     0.0390     0.0390 18589.8945     2.2665     1.5263     1.5263     2.3296    90.3520     1.0000     1.0000     1.0000 -1293.3839    85.0930     0.0390    13.0000
  1360.2664  5554.3501 5554350.0000    -999.25    10.3445    10.3445     2.2081   121.9200     0.0000    -999.25   106.3273     1.4363     1.4761  1360.2664     0.5346    -999.25     0.0253     0.1555     0.0209     0.0209 18222.9336     2.2217     1.4359     1.4359     2.0618    89.9132     1.0000     1.0000     1.0000 -1293.5364    91.2680     0.0209    13.0000
  1360.4188  5506.5996 5506599.5000    -999.25    10.1771    10.1771     1.9510   121.9200     0.0000    -999.25   110.9158     1.4140     1.4230  1360.4188     0.5417    -999.25     0.0265     0.1579     0.0200     0.0200 18066.2715     2.2026     1.4165     1.4165     2.0066    89.5206     1.0000     1.0000     1.0000 -1293.6887    94.1010     0.0200    13.0000
  1360.5712  5459.6001 5459600.0000    -999.25    10.0795    10.0795     1.8505   121.9200     0.0000    -999.25   114.9473     1.4535     1.4544  1360.5712     0.5581    -999.25     0.0278     0.1613     0.0200     0.0200 17912.0742     2.1838     1.4537     1.4537     2.1133    89.2969     1.0000     1.0000     1.0000 -1293.8412    97.3690     0.0200    13.0000
  1360.7236  4725.5850 4725584.5000    -999.25     9.6730     9.6730     1.9941   139.5985     0.0000    -999.25   117.0760     1.4449     1.4562  1360.7235     0.5919    -999.25     0.0290     0.1658     0.0200     0.0200 15503.8867     2.1643     1.4432     1.4432     2.0828    89.1450     1.0000     1.0000     1.0000 -1293.9935    99.5020     0.0200    14.0000
