~Version ---------------------------------------------------
VERS. 2.0 : CWLS log ASCII Standard -VERSION 2.0
WRAP.  NO : 
~Well ------------------------------------------------------
STRT.m                                                   1210.0 : 
STOP.m                                                1487.9776 : 
STEP.m                                                   0.1524 : 
NULL.                                                   -999.25 : 
COMP.                                                           : COMPANY
WELL.                                                   Well-14 : WELL
FLD .                                                           : FIELD
LOC .                                                           : LOCATION
SRVC.                                                           : SERVICE COMPANY
DATE. 2021-01-20 14:34:06   : Log Export Date {yyyy-MM-dd HH:mm : ss}
PROV.                                                           : PROVINCE
UWI .                                                   Well-14 : UNIQUE WELL ID
API .                                                           : API NUMBER
~Curve Information -----------------------------------------
DEPTH             .m        : DEPTH
ACOUSTICIMPEDANCE1.kPa.s/m  : ACOUSTICIMPEDANCE1
AI                .kPa.s/m  : AI
AVG_PIGN          .m3/m3    : AVG_PIGN
CALI              .in       : CALI
CALI[DERIVED]1    .in       : CALI[DERIVED]1
DFL               .ohm.m    : DFL
DT                .us/ft    : DT
FACIES            ._        : FACIES
FLD1              ._        : FLD1
GR                .gAPI     : GR
HDRS              .ohm.m    : HDRS
HMRS              .ohm.m    : HMRS
DEPTH_1           .m        : DEPTH_1
NPHI              .m3/m3    : NPHI
PERF_INT          ._        : PERF_INT
PERMEABILITY      .mD       : PERMEABILITY
PHIT              .m3/m3    : PHIT
PIGN              .m3/m3    : PIGN
PIGN_MODELLING    .m3/m3    : PIGN_MODELLING
PIMP              .kPa.s/m  : PIMP
RHOB              .g/cm3    : RHOB
LLD               .ohm.m    : LLD
RT_MODELLING      .ohm.m    : RT_MODELLING
RT_POWER          .ohm.m    : RT_POWER
SP                .mV       : SP
SUWI              ._        : SUWI
SUWI_MODELLING    ._        : SUWI_MODELLING
SXWI              ._        : SXWI
TDVSS             .m        : TDVSS
VCL               .%        : VCL
WATER_VOL         ._        : WATER_VOL
ZLT               ._        : ZLT
~Params ----------------------------------------------------
~Other -----------------------------------------------------
~ASCII -----------------------------------------------------
# ...
  1226.7640  4226.2002 4226200.5000    -999.25    10.5363    10.5363     1.0511   152.4000     0.0000    -999.25    54.0261     0.8351     0.8570  1226.7639     0.6074    -999.25    -999.25     0.2401     0.0397     0.0397 13865.4863     2.1131     0.8350     0.8350     0.6972    85.6295     1.0000     1.0000     1.0000 -1160.0339    87.1910     0.0397    -999.25
  1226.9164  4266.6201 4266620.5000    -999.25    10.2972    10.2972     1.0493   152.4000     0.0000    -999.25    52.5076     0.8315     0.8510  1226.9164     0.5851    -999.25    -999.25     0.2403     0.0557     0.0557 13998.0986     2.1333     0.8315     0.8315     0.6914    85.7059     1.0000     1.0000     1.0000 -1160.1864    82.0490     0.0557    -999.25
  1227.0688  4295.0405 4295040.5000    -999.25    10.1412    10.1412     1.0592   152.4000     0.0000    -999.25    52.1306     0.8293     0.8463  1227.0687     0.5676    -999.25    -999.25     0.2402     0.0669     0.0669 14091.3398     2.1475     0.8293     0.8293     0.6878    85.5998     1.0000     1.0000     1.0000 -1160.3387    78.4360     0.0669    -999.25
  1227.2212  4290.5205 4290520.5000    -999.25    10.1318    10.1318     1.0727   152.4000     0.0000    -999.25    52.9177     0.8289     0.8464  1227.2212     0.5663    -999.25    -999.25     0.2404     0.0667     0.0667 14076.5107     2.1453     0.8289     0.8289     0.6870    85.4876     1.0000     1.0000     1.0000 -1160.4912    78.4950     0.0667    -999.25
  1227.3736  4265.0400 4265040.0000    -999.25    10.1874    10.1874     1.0665   152.4000     0.0000    -999.25    54.2032     0.8296     0.8508  1227.3735     0.5795    -999.25    -999.25     0.2406     0.0568     0.0568 13992.9141     2.1325     0.8296     0.8296     0.6883    85.6364     1.0000     1.0000     1.0000 -1160.6436    81.6970     0.0568    -999.25
  1227.5260  4246.1201 4246120.0000    -999.25    10.3187    10.3187     1.0599   152.4000     0.0000    -999.25    56.0105     0.8298     0.8547  1227.5260     0.5937    -999.25    -999.25     0.2393     0.0452     0.0452 13930.8408     2.1231     0.8297     0.8297     0.6884    85.8362     1.0000     1.0000     1.0000 -1160.7960    85.4300     0.0452    -999.25
  1227.6784  4248.3398 4248340.0000    -999.25    10.4880    10.4880     1.0558   152.4000     0.0000    -999.25    57.7100     0.8262     0.8520  1227.6783     0.5968    -999.25    -999.25     0.2376     0.0406     0.0406 13938.1230     2.1242     0.8261     0.8261     0.6824    85.9531     1.0000     1.0000     1.0000 -1160.9484    86.9100     0.0406    -999.25
  1227.8308  4264.8799 4264880.0000    -999.25    10.5842    10.5842     1.0678   152.4000     0.0000    -999.25    58.2473     0.8200     0.8427  1227.8308     0.5896    -999.25    -999.25     0.2363     0.0440     0.0440 13992.3877     2.1324     0.8199     0.8199     0.6723    85.8666     1.0000     1.0000     1.0000 -1161.1008    85.8280     0.0440    -999.25
  1227.9832  4278.8999 4278900.0000    -999.25    10.5202    10.5202     1.0757   152.4000     0.0000    -999.25    57.6100     0.8144     0.8340  1227.9832     0.5779    -999.25    -999.25     0.2372     0.0524     0.0524 14038.3857     2.1394     0.8145     0.8145     0.6633    85.8639     1.0000     1.0000     1.0000 -1161.2532    83.1070     0.0524    -999.25
  1228.1356  4285.6606 4285660.5000    -999.25    10.3441    10.3441     1.0850   152.4000     0.0000    -999.25    56.6869     0.8123     0.8314  1228.1356     0.5648    -999.25    -999.25     0.2396     0.0625     0.0625 14060.5654     2.1428     0.8124     0.8124     0.6600    85.7951     1.0000     1.0000     1.0000 -1161.4055    79.8600     0.0625    -999.25
  1228.2880  4284.0400 4284040.0000    -999.25    10.1617    10.1617     1.0739   152.4000     0.0000    -999.25    56.2762     0.8142     0.8357  1228.2880     0.5542    -999.25    -999.25     0.2430     0.0704     0.0704 14055.2500     2.1420     0.8143     0.8143     0.6631    85.6870     1.0000     1.0000     1.0000 -1161.5580    77.3030     0.0704    -999.25
  1228.4404  4266.4199 4266420.0000    -999.25    10.0358    10.0358     1.0774   152.4000     0.0000    -999.25    56.3017     0.8177     0.8439  1228.4404     0.5526    -999.25    -999.25     0.2459     0.0721     0.0721 13997.4414     2.1332     0.8177     0.8177     0.6686    85.4856     1.0000     1.0000     1.0000 -1161.7103    76.7610     0.0721    -999.25
  1228.5928  4250.4805 4250480.5000    -999.25    10.0212    10.0212     1.0829   152.4000     0.0000    -999.25    56.3387     0.8226     0.8510  1228.5928     0.5646    -999.25    -999.25     0.2451     0.0644     0.0644 13945.1455     2.1252     0.8227     0.8227     0.6768    85.4018     1.0000     1.0000     1.0000 -1161.8628    79.2550     0.0644    -999.25
  1228.7452  4255.2803 4255280.0000    -999.25    10.1033    10.1033     1.0778   152.4000     0.0000    -999.25    56.6606     0.8285     0.8537  1228.7451     0.5833    -999.25    -999.25     0.2396     0.0509     0.0509 13960.8926     2.1276     0.8285     0.8285     0.6864    85.3356     1.0000     1.0000     1.0000 -1162.0151    83.5980     0.0509    -999.25
  1228.8976  4275.3203 4275320.0000    -999.25    10.1473    10.1473     1.0838   152.4000     0.0000    -999.25    57.2947     0.8334     0.8509  1228.8976     0.5947    -999.25    -999.25     0.2332     0.0414     0.0414 14026.6416     2.1377     0.8334     0.8334     0.6945    85.3557     1.0000     1.0000     1.0000 -1162.1676    86.6480     0.0414    -999.25
  1229.0500  4296.3804 4296380.0000    -999.25    10.0817    10.0817     1.0746   152.4000     0.0000    -999.25    57.4567     0.8348     0.8464  1229.0499     0.5927    -999.25    -999.25     0.2307     0.0418     0.0418 14095.7354     2.1482     0.8347     0.8347     0.6967    85.5683     1.0000     1.0000     1.0000 -1162.3199    86.5240     0.0418    -999.25
  1229.2024  4305.9805 4305980.5000    -999.25     9.9601     9.9601     1.0697   152.4000     0.0000    -999.25    57.6669     0.8309     0.8458  1229.2024     0.5810    -999.25    -999.25     0.2322     0.0491     0.0491 14127.2324     2.1530     0.8308     0.8308     0.6902    85.7526     1.0000     1.0000     1.0000 -1162.4724    84.1840     0.0491    -999.25
  1229.3548  4296.0000 4296000.0000    -999.25     9.8690     9.8690     1.0632   152.4000     0.0000    -999.25    58.3068     0.8264     0.8502  1229.3547     0.5654    -999.25    -999.25     0.2376     0.0593     0.0593 14094.4883     2.1480     0.8264     0.8264     0.6830    85.8642     1.0000     1.0000     1.0000 -1162.6248    80.8880     0.0593    -999.25
  1229.5072  4284.7798 4284779.5000    -999.25     9.9110     9.9110     1.0601   152.4000     0.0000    -999.25    57.5807     0.8278     0.8564  1229.5072     0.5525    -999.25    -999.25     0.2429     0.0697     0.0697 14057.6758     2.1424     0.8280     0.8280     0.6856    85.7003     1.0000     1.0000     1.0000 -1162.7772    77.5320     0.0697    -999.25
  1229.6596  4291.2002 4291200.5000    -999.25    10.0680    10.0680     1.0595   152.4000     0.0000    -999.25    55.7556     0.8392     0.8664  1229.6595     0.5487    -999.25    -999.25     0.2435     0.0747     0.0747 14078.7412     2.1456     0.8395     0.8395     0.7047    85.6525     1.0000     1.0000     1.0000 -1162.9296    75.9190     0.0747    -999.25
  1229.8120  4299.2798 4299280.0000    -999.25    10.2667    10.2667     1.0750   152.4000     0.0000    -999.25    54.7335     0.8626     0.8877  1229.8120     0.5541    -999.25    -999.25     0.2407     0.0721     0.0721 14105.2490     2.1496     0.8629     0.8629     0.7445    85.6500     1.0000     1.0000     1.0000 -1163.0819    76.7580     0.0721    -999.25
  1229.9644  4282.2603 4282260.0000    -999.25    10.4502    10.4502     1.1355   152.4000     0.0000    -999.25    54.9139     0.8914     0.9208  1229.9644     0.5610    -999.25    -999.25     0.2396     0.0677     0.0677 14049.4102     2.1411     0.8914     0.8914     0.7947    85.7461     1.0000     1.0000     1.0000 -1163.2344    78.1890     0.0677    -999.25
