~Version ---------------------------------------------------
VERS. 2.0 : CWLS log ASCII Standard -VERSION 2.0
WRAP.  NO : 
~Well ------------------------------------------------------
STRT.m                                                   1210.0 : 
STOP.m                                                1487.9776 : 
STEP.m                                                   0.1524 : 
NULL.                                                   -999.25 : 
COMP.                                                           : COMPANY
WELL.                                                   Well-14 : WELL
FLD .                                                           : FIELD
LOC .                                                           : LOCATION
SRVC.                                                           : SERVICE COMPANY
DATE. 2021-01-20 14:34:06   : Log Export Date {yyyy-MM-dd HH:mm : ss}
PROV.                                                           : PROVINCE
UWI .                                                   Well-14 : UNIQUE WELL ID
API .                                                           : API NUMBER
~Curve Information -----------------------------------------
DEPTH             .m        : DEPTH
ACOUSTICIMPEDANCE1.kPa.s/m  : ACOUSTICIMPEDANCE1
AI                .kPa.s/m  : AI
AVG_PIGN          .m3/m3    : AVG_PIGN
CALI              .in       : CALI
CALI[DERIVED]1    .in       : CALI[DERIVED]1
DFL               .ohm.m    : DFL
DT                .us/ft    : DT
FACIES            ._        : FACIES
FLD1              ._        : FLD1
GR                .gAPI     : GR
HDRS              .ohm.m    : HDRS
HMRS              .ohm.m    : HMRS
DEPTH_1           .m        : DEPTH_1
NPHI              .m3/m3    : NPHI
PERF_INT          ._        : PERF_INT
PERMEABILITY      .mD       : PERMEABILITY
PHIT              .m3/m3    : PHIT
PIGN              .m3/m3    : PIGN
PIGN_MODELLING    .m3/m3    : PIGN_MODELLING
PIMP              .kPa.s/m  : PIMP
RHOB              .g/cm3    : RHOB
LLD               .ohm.m    : LLD
RT_MODELLING      .ohm.m    : RT_MODELLING
RT_POWER          .ohm.m    : RT_POWER
SP                .mV       : SP
SUWI              ._        : SUWI
SUWI_MODELLING    ._        : SUWI_MODELLING
SXWI              ._        : SXWI
TDVSS             .m        : TDVSS
VCL               .%        : VCL
WATER_VOL         ._        : WATER_VOL
ZLT               ._        : ZLT
~Params ----------------------------------------------------
~Other -----------------------------------------------------
~ASCII -----------------------------------------------------
# ...
  1300.5256  3943.0803 3943080.2500    -999.25    10.8279    10.8279     1.4274   152.4000     0.0000    -999.25    66.0020     1.1850     1.1332  1300.5255     0.5425    -999.25     0.0054     0.0562     0.0200     0.0200 12936.6152     1.9715     1.1844     1.1844     1.4028    87.9257     1.0000     1.0000     1.0000 -1233.7955    61.3620     0.0200     1.0000
  1300.6780  3991.8203 3991820.2500    -999.25    10.7329    10.7329     1.2800   152.4000     0.0000    -999.25    67.9366     1.0487     1.0244  1300.6780     0.5323    -999.25     0.2994     0.1849     0.0716     0.0716 13096.5234     1.9959     1.0501     1.0501     1.1028    88.1297     1.0000     1.0000     1.0000 -1233.9480    64.0980     0.0716     1.0000
  1300.8304  4115.3599 4115360.0000    -999.25    10.3937    10.3937     1.2190   152.4000     0.0000    -999.25    71.8848     0.9934     0.9957  1300.8303     0.5294    -999.25     0.9143     0.2583     0.0990     0.0990 13501.8369     2.0577     0.9949     0.9949     0.9898    88.1449     1.0000     1.0000     1.0000 -1234.1003    67.4860     0.0990     2.0000
  1300.9828  4276.4004 4276400.5000    -999.25    10.0799    10.0799     1.1785   152.4000     0.0000    -999.25    75.5423     1.0032     1.0273  1300.9828     0.5361    -999.25     0.6952     0.2414     0.0885     0.0885 14030.1846     2.1382     1.0043     1.0043     1.0086    87.9108     1.0000     1.0000     1.0000 -1234.2528    71.4760     0.0885     2.0000
  1301.1352  4393.7598 4393760.0000    -999.25     9.9450     9.9450     1.2745   152.4000     0.0000    -999.25    76.8895     1.0502     1.0904  1301.1351     0.5507    -999.25     0.4152     0.2216     0.0759     0.0759 14415.2227     2.1969     1.0507     1.0507     1.1039    87.5850     1.0000     1.0000     1.0000 -1234.4052    75.5460     0.0759     2.0000
  1301.2876  4436.7207 4436720.5000    -999.25     9.8955     9.8955     1.4137   152.4000     0.0000    -999.25    76.5829     1.1157     1.1601  1301.2876     0.5711    -999.25     0.2067     0.2115     0.0639     0.0639 14556.1699     2.2184     1.1160     1.1160     1.2455    87.1833     1.0000     1.0000     1.0000 -1234.5576    79.4170     0.0639     2.0000
  1301.4400  4395.3003 4395300.0000    -999.25     9.8055     9.8055     1.5643   152.4000     0.0000    -999.25    75.7230     1.1814     1.2189  1301.4399     0.5912    -999.25     0.0954     0.2131     0.0542     0.0542 14420.2754     2.1976     1.1813     1.1813     1.3954    86.7074     1.0000     1.0000     1.0000 -1234.7100    82.5370     0.0542     2.0000
  1301.5924  4884.7622 4884762.0000    -999.25     9.5869     9.5869     1.7162   134.7213     0.0000    -999.25    76.0778     1.2454     1.2753  1301.5924     0.6011    -999.25     0.0546     0.2190     0.0484     0.0484 16026.1221     2.1591     1.2455     1.2455     1.5512    86.2866     1.0000     1.0000     1.0000 -1234.8624    84.4000     0.0484     2.0000
  1301.7448  5345.5752 5345575.5000    -999.25     9.3550     9.3550     1.9092   121.9200     0.0000    -999.25    77.8967     1.3346     1.3645  1301.7448     0.5932    -999.25     0.0622     0.2210     0.0498     0.0498 17537.9766     2.1382     1.3354     1.3354     1.7833    85.9946     1.0000     1.0000     1.0000 -1235.0148    83.9450     0.0498     2.0000
  1301.8972  5319.1997 5319199.5000    -999.25     9.4446     9.4446     2.0515   121.9200     0.0000    -999.25    79.9993     1.4276     1.4644  1301.8972     0.5711    -999.25     0.1298     0.2228     0.0587     0.0587 17451.4434     2.1277     1.4273     1.4273     2.0371    85.9611     1.0000     1.0000     1.0000 -1235.1671    81.0740     0.0587     2.0000
  1302.0496  5336.5254 5336525.5000    -999.25     9.8432     9.8432     2.1324   121.9200     0.0000    -999.25    82.5407     1.4323     1.4689  1302.0496     0.5449    -999.25     0.2848     0.2203     0.0690     0.0690 17508.2852     2.1346     1.4297     1.4297     2.0440    86.0029     1.0000     1.0000     1.0000 -1235.3196    77.7560     0.0690     2.0000
  1302.2020  4740.3398 4740339.5000    -999.25    10.1186    10.1186     2.0031   139.5987     0.0000    -999.25    84.0260     1.3409     1.3688  1302.2020     0.5226    -999.25     0.5554     0.2134     0.0785     0.0785 15552.2949     2.1711     1.3395     1.3395     1.7943    86.2191     1.0000     1.0000     1.0000 -1235.4719    74.6950     0.0785     2.0000
  1302.3544  4395.2803 4395280.0000    -999.25    10.1481    10.1481     1.8264   152.4000     0.0000    -999.25    83.5530     1.2603     1.2858  1302.3544     0.5097    -999.25     0.8656     0.2108     0.0864     0.0864 14420.2100     2.1976     1.2616     1.2616     1.5916    86.4429     1.0000     1.0000     1.0000 -1235.6244    72.1610     0.0864     2.0000
  1302.5068  4449.5005 4449500.5000    -999.25    10.1367    10.1367     1.7073   152.4000     0.0000    -999.25    82.8285     1.2461     1.2798  1302.5067     0.5091    -999.25     0.9283     0.2058     0.0872     0.0872 14598.0977     2.2248     1.2474     1.2474     1.5559    86.6720     1.0000     1.0000     1.0000 -1235.7767    71.9090     0.0872     2.0000
  1302.6592  4545.2207 4545220.5000    -999.25    10.2057    10.2057     1.6693   152.4000     0.0000    -999.25    82.3983     1.2584     1.3027  1302.6592     0.5180    -999.25     0.7524     0.1933     0.0815     0.0815 14912.1406     2.2726     1.2584     1.2584     1.5836    86.7377     1.0000     1.0000     1.0000 -1235.9292    73.7260     0.0815     2.0000
  1302.8116  4599.8198 4599820.0000    -999.25    10.2520    10.2520     1.6942   152.4000     0.0000    -999.25    82.2600     1.2563     1.3009  1302.8115     0.5264    -999.25     0.8728     0.1688     0.0865     0.0865 15091.2725     2.2999     1.2559     1.2559     1.5772    86.8880     1.0000     1.0000     1.0000 -1236.0815    72.1150     0.0865     2.0000
  1302.9640  4586.4805 4586480.5000    -999.25    10.1127    10.1127     1.6929   152.4000     0.0000    -999.25    81.2033     1.2451     1.2744  1302.9640     0.5254    -999.25     0.8545     0.1781     0.0859     0.0859 15047.5078     2.2932     1.2451     1.2451     1.5503    87.0105     1.0000     1.0000     1.0000 -1236.2340    72.3160     0.0859     2.0000
  1303.1164  5159.9883 5159988.5000    -999.25     9.7606     9.7606     1.6665   134.7213     0.0000    -999.25    79.3196     1.2494     1.2590  1303.1163     0.5183    -999.25     0.9445     0.1948     0.0877     0.0877 16929.0957     2.2807     1.2499     1.2499     1.5623    86.9907     1.0000     1.0000     1.0000 -1236.3864    71.7530     0.0877     2.0000
  1303.2688  5741.4502 5741450.5000    -999.25     9.2933     9.2933     1.6653   121.9200     0.0000    -999.25    77.4604     1.3074     1.3111  1303.2688     0.5170    -999.25     1.4278     0.1798     0.0997     0.0997 18836.7793     2.2966     1.3088     1.3088     1.7130    86.6454     1.0000     1.0000     1.0000 -1236.5388    67.8900     0.0997     2.0000
  1303.4212  5865.7002 5865700.5000    -999.25     8.9016     8.9016     1.8791   121.9200     0.0000    -999.25    75.3755     1.4688     1.4944  1303.4211     0.5267    -999.25     1.3443     0.1687     0.0986     0.0986 19244.4238     2.3463     1.4714     1.4714     2.1649    86.0903     1.0000     1.0000     1.0000 -1236.6912    68.2410     0.0986     2.0000
  1303.5736  6035.7500 6035750.0000    -999.25     8.7380     8.7380     2.2920   121.9200     0.0000    -999.25    74.3089     1.7150     1.8136  1303.5736     0.5427    -999.25     0.7596     0.1659     0.0833     0.0833 19802.3301     2.4143     1.7163     1.7163     2.9456    85.5821     1.0000     1.0000     1.0000 -1236.8436    73.1720     0.0833     2.0000
  1303.7260  6162.5249 6162525.0000    -999.25     8.9175     8.9175     2.9500   121.9200     0.0000    -999.25    76.2062     1.8811     2.0466  1303.7260     0.5562    -999.25     0.3440     0.1574     0.0653     0.0653 20218.2578     2.4650     1.8778     1.8778     3.5261    85.5640     1.0000     1.0000     1.0000 -1236.9960    78.9720     0.0653     2.0000
