~Version ---------------------------------------------------
VERS. 2.0 : CWLS log ASCII Standard -VERSION 2.0
WRAP.  NO : 
~Well ------------------------------------------------------
STRT.m                                                   1210.0 : 
STOP.m                                                1487.9776 : 
STEP.m                                                   0.1524 : 
NULL.                                                   -999.25 : 
COMP.                                                           : COMPANY
WELL.                                                   Well-14 : WELL
FLD .                                                           : FIELD
LOC .                                                           : LOCATION
SRVC.                                                           : SERVICE COMPANY
DATE. 2021-01-20 14:34:06   : Log Export Date {yyyy-MM-dd HH:mm : ss}
PROV.                                                           : PROVINCE
UWI .                                                   Well-14 : UNIQUE WELL ID
API .                                                           : API NUMBER
~Curve Information -----------------------------------------
DEPTH             .m        : DEPTH
ACOUSTICIMPEDANCE1.kPa.s/m  : ACOUSTICIMPEDANCE1
AI                .kPa.s/m  : AI
AVG_PIGN          .m3/m3    : AVG_PIGN
CALI              .in       : CALI
CALI[DERIVED]1    .in       : CALI[DERIVED]1
DFL               .ohm.m    : DFL
DT                .us/ft    : DT
FACIES            ._        : FACIES
FLD1              ._        : FLD1
GR                .gAPI     : GR
HDRS              .ohm.m    : HDRS
HMRS              .ohm.m    : HMRS
DEPTH_1           .m        : DEPTH_1
NPHI              .m3/m3    : NPHI
PERF_INT          ._        : PERF_INT
PERMEABILITY      .mD       : PERMEABILITY
PHIT              .m3/m3    : PHIT
PIGN              .m3/m3    : PIGN
PIGN_MODELLING    .m3/m3    : PIGN_MODELLING
PIMP              .kPa.s/m  : PIMP
RHOB              .g/cm3    : RHOB
LLD               .ohm.m    : LLD
RT_MODELLING      .ohm.m    : RT_MODELLING
RT_POWER          .ohm.m    : RT_POWER
SP                .mV       : SP
SUWI              ._        : SUWI
SUWI_MODELLING    ._        : SUWI_MODELLING
SXWI              ._        : SXWI
TDVSS             .m        : TDVSS
VCL               .%        : VCL
WATER_VOL         ._        : WATER_VOL
ZLT               ._        : ZLT
~Params ----------------------------------------------------
~Other -----------------------------------------------------
~ASCII -----------------------------------------------------
# ...
  1374.2872  7833.4663 7833466.5000    -999.25     9.1678     9.1678     9.6198    91.4400     4.0000    -999.25    64.1065     6.4272     5.9745  1374.2871     0.3893    -999.25   151.9757     0.2291     0.1801     0.1801 25700.3496     2.3500     6.4190     6.4190    41.2032    90.2565     0.5275     0.5275     0.8417 -1307.5571    38.1150     0.0950    16.0000
  1374.4396  6557.7017 6557701.5000    -999.25     9.0651     9.0651     9.7105   109.1185     4.0000    -999.25    65.9941     7.0194     6.1421  1374.4396     0.3857    -999.25   129.2555     0.2169     0.1693     0.1693 21514.7695     2.3477     7.0255     7.0255    49.3572    90.2677     0.5152     0.5152     0.8435 -1307.7096    39.5040     0.0872    16.0000
  1374.5920  5897.0498 5897050.0000    -999.25     8.9605     8.9605     9.3329   121.9200     4.0000    -999.25    68.0147     8.1859     6.9470  1374.5919     0.3853    -999.25   103.0618     0.2063     0.1571     0.1571 19347.2773     2.3588     8.2018     8.2018    67.2702    90.1117     0.4650     0.4650     0.8360 -1307.8619    41.5840     0.0731    16.0000
  1374.7444  5931.1748 5931175.0000    -999.25     8.9588     8.9588     9.5841   121.9200     4.0000    -999.25    69.1879     9.3355     7.9376  1374.7444     0.3910    -999.25    85.0594     0.2021     0.1499     0.1499 19459.2344     2.3725     9.3249     9.3249    86.9541    89.8471     0.3982     0.3982     0.8183 -1308.0144    43.5820     0.0597    16.0000
  1374.8968  5944.6753 5944675.5000    -999.25     9.0008     9.0008     9.9695   121.9200     4.0000    -999.25    69.2337     8.9813     7.8159  1374.8967     0.4039    -999.25    77.6879     0.2064     0.1511     0.1511 19503.5273     2.3779     8.9392     8.9392    79.9093    89.5342     0.3885     0.3885     0.8081 -1308.1667    45.1560     0.0587    16.0000
  1375.0492  5950.6499 5950650.0000    -999.25     9.0249     9.0249     9.0175   121.9200     4.0000    -999.25    68.8130     7.3588     6.6154  1375.0492     0.4236    -999.25    75.4177     0.2189     0.1589     0.1589 19523.1309     2.3803     7.3455     7.3455    53.9567    89.2180     0.4428     0.4428     0.8158 -1308.3192    46.7080     0.0704    16.0000
  1375.2016  5961.1499 5961150.0000    -999.25     9.0269     9.0269     7.4921   121.9200     4.0000    -999.25    68.6737     5.8283     5.4075  1375.2015     0.4493    -999.25    54.1291     0.2195     0.1553     0.1553 19557.5781     2.3845     5.8389     5.8389    34.0928    89.0338     0.5601     0.5601     0.8419 -1308.4716    49.8540     0.0870    16.0000
  1375.3540  5967.4253 5967425.0000    -999.25     9.0944     9.0944     6.4547   121.9200     4.0000    -999.25    69.1843     4.8892     4.6336  1375.3540     0.4793    -999.25    28.7482     0.2087     0.1411     0.1411 19578.1660     2.3870     4.8997     4.8997    24.0071    89.0706     0.7029     0.7029     0.8754 -1308.6240    54.5240     0.0992    16.0000
  1375.5064  5973.0503 5973050.0000    -999.25     9.3238     9.3238     5.8146   121.9200     4.0000    -999.25    69.1191     4.4152     4.2193  1375.5063     0.5081    -999.25    14.6344     0.1991     0.1285     0.1285 19596.6211     2.3892     4.4222     4.4222    19.5558    89.1737     0.8179     0.8179     0.9022 -1308.7764    58.5840     0.1051    16.0000
  1375.6588  6011.1499 6011150.0000    -999.25     9.4231     9.4231     5.4933   121.9200     4.0000    -999.25    68.0488     4.2252     4.0503  1375.6588     0.5277    -999.25     9.1049     0.1964     0.1217     0.1217 19721.6211     2.4045     4.2292     4.2292    17.8860    89.2655     0.8702     0.8702     0.9093 -1308.9287    60.7830     0.1059    16.0000
  1375.8112  6081.3247 6081325.0000    -999.25     9.2120     9.2120     5.5860   121.9200     0.0000    -999.25    66.6140     4.2292     4.0562  1375.8112     0.5330    -999.25     8.3202     0.2010     0.1215     0.1215 19951.8535     2.4325     4.2327     4.2327    17.9154    89.1885     0.8450     0.8450     0.8911 -1309.0812    60.8550     0.1027    16.0000
  1375.9636  6159.9751 6159975.0000    -999.25     8.9401     8.9401     5.9844   121.9200     0.0000    -999.25    65.2379     4.3874     4.1892  1375.9636     0.5257    -999.25    10.7855     0.2103     0.1264     0.1264 20209.8926     2.4640     4.3901     4.3901    19.2730    89.0604     0.7667     0.7667     0.8589 -1309.2335    59.2670     0.0969    16.0000
  1376.1160  6237.5747 6237575.0000    -999.25     8.8653     8.8653     6.4955   121.9200     0.0000    -999.25    64.4315     4.5389     4.3380  1376.1160     0.5132    -999.25    15.6146     0.2201     0.1323     0.1323 20464.4844     2.4950     4.5369     4.5369    20.5834    89.2200     0.6947     0.6947     0.8287 -1309.3860    57.3630     0.0919    16.0000
  1376.2684  6299.0005 6299000.5000    -999.25     8.8727     8.8727     6.6585   121.9200     0.0000    -999.25    65.0046     4.4370     4.2883  1376.2683     0.5030    -999.25    19.3890     0.2248     0.1338     0.1338 20666.0117     2.5196     4.4300     4.4300    19.6253    89.6156     0.6959     0.6959     0.8207 -1309.5383    56.8880     0.0931    16.0000
  1376.4208  6263.4004 6263400.5000    -999.25     8.8661     8.8661     6.1340   121.9200     0.0000    -999.25    67.6173     4.0925     3.9960  1376.4208     0.4995    -999.25    18.9738     0.2190     0.1302     0.1302 20549.2148     2.5054     4.0892     4.0892    16.7213    90.0036     0.8039     0.8039     0.8549 -1309.6908    58.0610     0.1046    16.0000
  1376.5732  6155.0000 6155000.0000    -999.25     8.8684     8.8684     5.4912   121.9200     0.0000    -999.25    71.5123     3.7485     3.6888  1376.5731     0.5024    -999.25    15.0411     0.2054     0.1223     0.1223 20193.5684     2.4620     3.7505     3.7505    14.0664    90.3050     0.9021     0.9021     0.9081 -1309.8431    60.5800     0.1104    16.0000
  1376.7256  6063.2256 6063225.5000    -999.25     8.8792     8.8792     5.0541   121.9200     0.0000    -999.25    73.7444     3.5302     3.5202  1376.7256     0.5085    -999.25    11.9884     0.1947     0.1167     0.1167 19892.4707     2.4253     3.5326     3.5326    12.4790    90.6862     0.9528     0.9528     0.9530 -1309.9956    62.4090     0.1112    16.0000
  1376.8780  5984.1997 5984199.5000    -999.25     8.8904     8.8904     4.9167   121.9200     0.0000    -999.25    74.5228     3.3776     3.4287  1376.8779     0.5144    -999.25    10.3526     0.1869     0.1137     0.1137 19633.2012     2.3937     3.3778     3.3778    11.4095    91.2987     0.9869     0.9869     0.9869 -1310.1479    63.3630     0.1122    16.0000
  1377.0304  5921.6250 5921625.0000    -999.25     8.9051     8.9051     4.8218   121.9200     0.0000    -999.25    76.7883     3.2233     3.3224  1377.0304     0.5181    -999.25     8.5944     0.1781     0.1081     0.1081 19427.9043     2.3686     3.2229     3.2229    10.3871    91.9070     0.9993     0.9993     0.9993 -1310.3004    65.1580     0.1081    16.0000
  1377.1828  5879.7998 5879800.0000    -999.25     8.9271     8.9271     4.4895   121.9200     0.0000    -999.25    80.1048     3.0963     3.2137  1377.1827     0.5198    -999.25     6.8878     0.1696     0.1012     0.1012 19290.6816     2.3519     3.0974     3.0974     9.5938    92.1363     1.0000     1.0000     1.0000 -1310.4528    67.3990     0.1012    16.0000
  1377.3352  5802.6748 5802675.0000    -999.25     8.9621     8.9621     4.1753   121.9200     0.0000    -999.25    83.5020     2.9958     3.1122  1377.3352     0.5221    -999.25     5.4258     0.1607     0.0948     0.0948 19037.6484     2.3211     2.9957     2.9957     8.9745    92.2919     1.0000     1.0000     1.0000 -1310.6052    69.4410     0.0948    16.0000
  1377.4876  5684.3252 5684325.0000    -999.25     9.0351     9.0351     3.9061   121.9200     0.0000    -999.25    86.6977     2.8188     2.8914  1377.4875     0.5271    -999.25     3.7412     0.1714     0.0853     0.0853 18649.3613     2.2737     2.8161     2.8161     7.9301    93.1585     1.0000     1.0000     1.0000 -1310.7576    72.5050     0.0853    16.0000
