~Version ---------------------------------------------------
VERS. 2.0 : CWLS log ASCII Standard -VERSION 2.0
WRAP.  NO : 
~Well ------------------------------------------------------
STRT.m                                                1187.6524 : 
STOP.m                                                1658.2636 : 
STEP.m                                                   0.1524 : 
NULL.                                                   -999.25 : 
COMP.                                                           : COMPANY
WELL.                                                   Well-19 : WELL
FLD .                                                           : FIELD
LOC .                                                           : LOCATION
SRVC.                                                           : SERVICE COMPANY
DATE. 2021-01-20 14:34:11   : Log Export Date {yyyy-MM-dd HH:mm : ss}
PROV.                                                           : PROVINCE
UWI .                                                   Well-19 : UNIQUE WELL ID
API .                                                           : API NUMBER
~Curve Information -----------------------------------------
DEPTH             .m        : DEPTH
ACOUSTICIMPEDANCE1.kPa.s/m  : ACOUSTICIMPEDANCE1
AI                .kPa.s/m  : AI
AVG_PIGN          .m3/m3    : AVG_PIGN
CALI              .in       : CALI
NPHI              .m3/m3    : NPHI
DT                .us/ft    : DT
DT4P              .us/ft    : DT4P
FACIES            ._        : FACIES
FLD1              ._        : FLD1
GR                .gAPI     : GR
M2R2              .ohm.m    : M2R2
LLS               .ohm.m    : LLS
LLD               .ohm.m    : LLD
DEPTH_1           .m        : DEPTH_1
NPHI_1            .m3/m3    : NPHI_1
PEF               .b/e      : PEF
PERF_INT          ._        : PERF_INT
PERMEABILITY      .mD       : PERMEABILITY
PIGN              .m3/m3    : PIGN
PIGN_MODELLING    .m3/m3    : PIGN_MODELLING
PIMP              .kPa.s/m  : PIMP
RHOB              .g/cm3    : RHOB
LLD_1             .ohm.m    : LLD_1
RT_MODELLING      .ohm.m    : RT_MODELLING
RT_POWER          .ohm.m    : RT_POWER
SP                .mV       : SP
SPDH              .mV       : SPDH
SUWI              ._        : SUWI
SUWI_MODELLING    ._        : SUWI_MODELLING
TDVSS             .m        : TDVSS
TEMP              .K        : TEMP
VCL               .%        : VCL
WATER_VOL         ._        : WATER_VOL
RHOB_1            .g/cm3    : RHOB_1
ZLT               ._        : ZLT
~Params ----------------------------------------------------
~Other -----------------------------------------------------
~ASCII -----------------------------------------------------
# ...
  1590.9028  7461.7388 7461739.0000    -999.25     9.0388     0.5156   103.0972   103.0972     0.0000    -999.25    94.0875     3.5556     3.3922     3.5113  1590.9027     0.5156     7.8874    -999.25     0.0303     0.0455     0.0455 24480.7715     2.5239     3.0617     3.0617     9.3743   -71.1734   298.4230     1.0000     1.0000 -1435.9548   162.5212    72.4670     0.0455     2.5239    18.0000
  1591.0552  7240.2251 7240225.0000    -999.25     9.0617     0.5166   105.7505   105.7505     0.0000    -999.25    95.5704     3.6281     3.4763     3.6060  1591.0552     0.5166     7.9089    -999.25     0.0207     0.0442     0.0442 23754.0195     2.5120     3.1442     3.1442     9.8861   -71.2303   298.4593     1.0000     1.0000 -1436.0934   162.5289    73.2000     0.0442     2.5120    18.0000
  1591.2076  7148.4307 7148430.5000    -999.25     9.0709     0.4952   106.6821   106.6821     0.0000    -999.25    94.7662     3.5141     3.3800     3.5057  1591.2075     0.4952     7.9274    -999.25     0.0758     0.0524     0.0524 23452.8555     2.5020     3.0572     3.0572     9.3464   -71.1197   298.4964     1.0000     1.0000 -1436.2318   162.5366    68.1150     0.0524     2.5020    18.0000
  1591.3600  7253.6274 7253627.5000    -999.25     9.0700     0.4733   104.1096   104.1096     0.0000    -999.25    92.7184     3.2047     3.0940     3.2006  1591.3600     0.4733     7.8278    -999.25     0.1998     0.0608     0.0608 23797.9902     2.4776     2.7916     2.7916     7.7930   -70.8038   298.5507     1.0000     1.0000 -1436.3704   162.5444    62.9610     0.0608     2.4776    18.0000
  1591.5124  7397.8438 7397843.5000    -999.25     9.0604     0.4554   101.2396   101.2396     0.0000    -999.25    91.5244     3.0836     2.9789     3.0778  1591.5123     0.4554     7.7173    -999.25     0.3029     0.0627     0.0627 24271.1406     2.4572     2.6841     2.6841     7.2044   -70.4316   298.5437     1.0000     1.0000 -1436.5088   162.5521    61.7960     0.0627     2.4572    18.0000
  1591.6648  7049.7378 7049738.0000    -999.25     9.0396     0.4546   106.1954   106.1954     0.0000    -999.25    91.3033     3.3166     3.1899     3.3024  1591.6648     0.4546     7.5922    -999.25     0.3053     0.0625     0.0625 23129.0625     2.4562     2.8792     2.8792     8.2897   -70.1545   298.3762     1.0000     1.0000 -1436.6473   162.5598    61.9410     0.0625     2.4562    18.0000
  1591.8172  7050.2764 7050276.5000    -999.25     9.0238     0.4793   106.4726   106.4726     0.0000    -999.25    93.3971     3.6406     3.4793     3.6112  1591.8171     0.4793     7.4530    -999.25     0.1006     0.0536     0.0536 23130.8281     2.4628     3.1483     3.1483     9.9117   -70.0583   298.0609     1.0000     1.0000 -1436.7858   162.5675    67.4080     0.0536     2.4628    18.0000
  1591.9696  6967.8203 6967820.5000    -999.25     9.0228     0.5079   107.7282   107.7282     0.0000    -999.25    97.8071     3.6544     3.4826     3.6115  1591.9696     0.5079     7.3012    -999.25     0.0141     0.0454     0.0454 22860.3027     2.4627     3.1492     3.1492     9.9176   -70.2315   297.7292     1.0000     1.0000 -1436.9243   162.5752    72.3890     0.0454     2.4627    18.0000
  1592.1220  7122.2412 7122241.5000    -999.25     9.0257     0.5059   105.3369   105.3369     0.0000    -999.25   100.8346     3.5773     3.4077     3.5267  1592.1219     0.5059     7.1373    -999.25     0.0116     0.0453     0.0453 23366.9336     2.4614     3.0755     3.0755     9.4585   -70.5655   297.4702     1.0000     1.0000 -1437.0627   162.5829    72.3780     0.0453     2.4614    18.0000
  1592.2744  7169.4277 7169428.0000    -999.25     9.0273     0.4852   104.9284   104.9284     0.0000    -999.25    99.4901     3.5990     3.4299     3.5454  1592.2743     0.4852     6.9948    -999.25     0.0573     0.0517     0.0517 23521.7441     2.4681     3.0916     3.0916     9.5577   -70.9138   297.2680     1.0000     1.0000 -1437.2013   162.5906    68.4860     0.0517     2.4681    18.0000
  1592.4268  7198.8467 7198846.5000    -999.25     9.0334     0.4661   104.8680   104.8680     0.0000    -999.25    96.1503     3.6249     3.4627     3.5746  1592.4268     0.4661     6.8284    -999.25     0.1739     0.0574     0.0574 23618.2637     2.4768     3.1170     3.1170     9.7156   -71.2639   297.0921     1.0000     1.0000 -1437.3397   162.5983    65.1040     0.0574     2.4768    18.0000
  1592.5792  7148.5005 7148500.5000    -999.25     9.0361     0.4573   105.8581   105.8581     0.0000    -999.25    94.4275     3.6179     3.4692     3.5759  1592.5791     0.4573     6.6625    -999.25     0.2728     0.0603     0.0603 23453.0859     2.4827     3.1182     3.1182     9.7230   -71.5707   296.9669     1.0000     1.0000 -1437.4783   162.6061    63.3530     0.0603     2.4827    18.0000
  1592.7316  7146.7456 7146745.5000    -999.25     9.0277     0.4637   106.6262   106.6262     0.0000    -999.25    94.4203     3.5268     3.3959     3.4939  1592.7316     0.4637     6.5352    -999.25     0.4331     0.0711     0.0711 23447.3281     2.5001     3.0469     3.0469     9.2834   -71.6701   296.9274     1.0000     1.0000 -1437.6167   162.6138    56.8880     0.0711     2.5001    18.0000
  1592.8840  7225.1284 7225128.5000    -999.25     9.0233     0.4799   107.5028   107.5028     0.0000    -999.25    93.2449     3.4382     3.3201     3.4111  1592.8839     0.4799     6.5205    -999.25     0.2409     0.0589     0.0589 23704.4883     2.5483     2.9747     2.9747     8.8486   -71.4369   296.8940     1.0000     1.0000 -1437.7552   162.6215    58.4290     0.0589     2.5483    18.0000
  1593.0364  7576.9863 7576986.0000    -999.25     9.0345     0.4824   105.2743   105.2743     0.0000    -999.25    90.5366     3.5658     3.4423     3.5386  1593.0364     0.4824     6.5412    -999.25     0.0510     0.0307     0.0307 24858.8789     2.6170     3.0854     3.0854     9.5196   -71.1682   296.8113     1.0000     1.0000 -1437.8937   162.6292    64.0370     0.0307     2.6170    18.0000
  1593.1888  7730.4072 7730407.0000    -999.25     9.0482     0.4685   104.6911   104.6911     0.0000    -999.25    89.3105     3.8491     3.7122     3.8252  1593.1887     0.4685     6.5299    -999.25     0.0728     0.0300     0.0300 25362.2285     2.6552     3.3349     3.3349    11.1218   -71.2074   296.7755     1.0000     1.0000 -1438.0322   162.6369    60.3730     0.0300     2.6552    18.0000
  1593.3412  7675.0630 7675063.0000    -999.25     9.0482     0.4636   104.1712   104.1712     0.0000    -999.25    89.4821     3.8376     3.7108     3.8252  1593.3412     0.4636     6.5119    -999.25     0.1424     0.0383     0.0383 25180.6523     2.6231     3.3356     3.3356    11.1260   -71.5251   296.8513     1.0000     1.0000 -1438.1707   162.6446    57.8330     0.0383     2.6231    18.0000
  1593.4936  7613.0732 7613073.0000    -999.25     9.0383     0.4681   102.2690   102.2690     0.0000    -999.25    90.1123     3.5852     3.4860     3.5907  1593.4935     0.4681     6.5155    -999.25     0.5208     0.0675     0.0675 24977.2734     2.5544     3.1316     3.1316     9.8070   -71.7690   296.9462     1.0000     1.0000 -1438.3092   162.6523    52.4180     0.0675     2.5544    18.0000
  1593.6460  7539.4639 7539464.0000    -999.25     9.0271     0.4670   101.4482   101.4482     0.0000    -999.25    91.0729     3.6165     3.5266     3.6386  1593.6460     0.4670     6.5303    -999.25     0.8082     0.0848     0.0848 24735.7754     2.5094     3.1727     3.1727    10.0663   -71.7874   296.9541     1.0000     1.0000 -1438.4476   162.6600    48.7070     0.0848     2.5094    18.0000
  1593.7984  7466.2153 7466215.5000    -999.25     9.0213     0.4692   101.7413   101.7413     0.0000    -999.25    91.1924     3.9961     3.8976     4.0441  1593.7983     0.4692     6.5127    -999.25     0.3812     0.0695     0.0695 24495.4570     2.4922     3.5255     3.5255    12.4295   -71.6520   296.8529     1.0000     1.0000 -1438.5862   162.6678    57.9410     0.0695     2.4922    18.0000
  1593.9508  7356.9072 7356907.5000    -999.25     9.0210     0.4817   103.0251   103.0251     0.0000    -999.25    89.8696     4.4472     4.3356     4.5344  1593.9508     0.4817     6.5057    -999.25     0.2067     0.0624     0.0624 24136.8359     2.4867     3.9529     3.9529    15.6255   -71.5005   296.7268     1.0000     1.0000 -1438.7247   162.6755    62.3690     0.0624     2.4867    18.0000
