~Version ---------------------------------------------------
VERS. 2.0 : CWLS log ASCII Standard -VERSION 2.0
WRAP.  NO : 
~Well ------------------------------------------------------
STRT.m                                                1187.6524 : 
STOP.m                                                1658.2636 : 
STEP.m                                                   0.1524 : 
NULL.                                                   -999.25 : 
COMP.                                                           : COMPANY
WELL.                                                   Well-19 : WELL
FLD .                                                           : FIELD
LOC .                                                           : LOCATION
SRVC.                                                           : SERVICE COMPANY
DATE. 2021-01-20 14:34:11   : Log Export Date {yyyy-MM-dd HH:mm : ss}
PROV.                                                           : PROVINCE
UWI .                                                   Well-19 : UNIQUE WELL ID
API .                                                           : API NUMBER
~Curve Information -----------------------------------------
DEPTH             .m        : DEPTH
ACOUSTICIMPEDANCE1.kPa.s/m  : ACOUSTICIMPEDANCE1
AI                .kPa.s/m  : AI
AVG_PIGN          .m3/m3    : AVG_PIGN
CALI              .in       : CALI
NPHI              .m3/m3    : NPHI
DT                .us/ft    : DT
DT4P              .us/ft    : DT4P
FACIES            ._        : FACIES
FLD1              ._        : FLD1
GR                .gAPI     : GR
M2R2              .ohm.m    : M2R2
LLS               .ohm.m    : LLS
LLD               .ohm.m    : LLD
DEPTH_1           .m        : DEPTH_1
NPHI_1            .m3/m3    : NPHI_1
PEF               .b/e      : PEF
PERF_INT          ._        : PERF_INT
PERMEABILITY      .mD       : PERMEABILITY
PIGN              .m3/m3    : PIGN
PIGN_MODELLING    .m3/m3    : PIGN_MODELLING
PIMP              .kPa.s/m  : PIMP
RHOB              .g/cm3    : RHOB
LLD_1             .ohm.m    : LLD_1
RT_MODELLING      .ohm.m    : RT_MODELLING
RT_POWER          .ohm.m    : RT_POWER
SP                .mV       : SP
SPDH              .mV       : SPDH
SUWI              ._        : SUWI
SUWI_MODELLING    ._        : SUWI_MODELLING
TDVSS             .m        : TDVSS
TEMP              .K        : TEMP
VCL               .%        : VCL
WATER_VOL         ._        : WATER_VOL
RHOB_1            .g/cm3    : RHOB_1
ZLT               ._        : ZLT
~Params ----------------------------------------------------
~Other -----------------------------------------------------
~ASCII -----------------------------------------------------
# ...
  1558.8988  6949.2573 6949257.5000    -999.25     9.1381     0.5299   111.5863   111.5863     0.0000    -999.25   127.4535     2.1073     2.0812     2.0972  1558.8988     0.5299     5.8447    -999.25     0.0002     0.0226     0.0226 22799.4004     2.5441     1.8287     1.8287     3.3440   -67.5550   295.7058     1.0000     1.0000 -1406.8745   160.9014    77.9970     0.0226     2.5441    16.0000
  1559.0512  6706.8003 6706800.5000    -999.25     9.1389     0.5257   115.1703   115.1703     0.0000    -999.25   128.8331     2.0698     2.0498     2.0622  1559.0511     0.5257     5.7430    -999.25     0.0002     0.0223     0.0223 22003.9395     2.5342     1.7983     1.7983     3.2340   -67.4682   295.5256     1.0000     1.0000 -1407.0129   160.9091    79.2810     0.0223     2.5342    16.0000
  1559.2036  6429.0811 6429081.0000    -999.25     9.1347     0.5185   119.5575   119.5575     0.0000    -999.25   128.5422     2.0151     1.9997     2.0098  1559.2035     0.5185     5.5240    -999.25     0.0001     0.0226     0.0226 21092.7852     2.5218     1.7527     1.7527     3.0718   -67.4337   295.3129     1.0000     1.0000 -1407.1514   160.9168    80.1030     0.0226     2.5218    16.0000
  1559.3560  6092.0264 6092026.5000    -999.25     9.1294     0.5095   124.3961   124.3961     0.0000    -999.25   129.8401     1.9796     1.9705     1.9809  1559.3560     0.5095     5.4218    -999.25     0.0002     0.0226     0.0226 19986.9629     2.4863     1.7274     1.7274     2.9839   -67.7214   295.1525     1.0000     1.0000 -1407.2899   160.9245    84.3430     0.0226     2.4863    16.0000
  1559.5084  5453.1392 5453139.0000    -999.25     9.1279     0.5113   132.2630   132.2630     0.0000    -999.25   133.5029     1.9699     1.9691     1.9807  1559.5083     0.5113     5.3926    -999.25     0.0000     0.0001     0.0100 17890.8750     2.3663     1.7272     1.7272     2.9831   -67.9181   295.1288     1.0000     1.0000 -1407.4283   160.9322    95.3670     0.0001     2.3663    16.0000
  1559.6608  4764.0571 4764057.0000    -999.25     9.1320     0.5277   133.5691   133.5691     0.0000    -999.25   134.0455     1.9502     1.9586     1.9724  1559.6608     0.5277     5.1817    -999.25     0.0000     0.0001     0.0100 15630.1084     2.0877     1.7199     1.7199     2.9582   -67.6549   295.2777     1.0000     1.0000 -1407.5668   160.9399    92.3020     0.0001     2.0877    16.0000
  1559.8132  4103.9966 4103996.5000    -999.25     9.1390     0.5477   129.7778   129.7778     3.0000    -999.25   127.7173     2.0167     2.0292     2.0443  1559.8131     0.5477     4.5190    -999.25     0.0000     0.0001     0.0100 13464.5557     1.7474     1.7825     1.7825     3.1772   -67.2222   295.4790     1.0000     1.0000 -1407.7053   160.9477    62.1680     0.0001     1.7474    16.0000
  1559.9656  3208.6404 3208640.5000    -999.25     9.1419     0.5767   141.7778   141.7778     3.0000    -999.25   111.8747     2.4852     2.4946     2.5176  1559.9656     0.5767     3.3991    -999.25     0.0000     0.0001     0.0100 10527.0352     1.4925     2.1943     2.1943     4.8150   -67.0973   295.6170     1.0000     1.0000 -1407.8438   160.9554    42.7400     0.0001     1.4925    16.0000
  1560.1180  2914.0271 2914027.2500    -999.25     9.1389     0.6040   142.7861   142.7861     3.0000    -999.25    90.2659     4.2107     4.1706     4.2269  1560.1179     0.6040     2.4648    -999.25     0.0000     0.0001     0.0100  9560.4561     1.3651     3.6821     3.6821    13.5576   -67.2731   295.7050     1.0000     1.0000 -1407.9822   160.9631    34.5300     0.0001     1.3651    16.0000
  1560.2704  3187.5105 3187510.5000    -999.25     9.1489     0.5926   136.4639   136.4639     3.0000    -999.25    76.5183     5.1038     4.7977     4.8517  1560.2704     0.5926     2.3707    -999.25     0.0000     0.0001     0.0100 10457.7119     1.4271     4.2293     4.2293    17.8869   -67.3956   295.8514     1.0000     1.0000 -1408.1207   160.9708    26.4050     0.0001     1.4271    16.0000
  1560.4228  3823.0037 3823003.7500    -999.25     9.1890     0.5660   132.6194   132.6194     3.0000    -999.25    81.5641     5.0413     4.6853     4.7246  1560.4227     0.5660     3.0461    -999.25     0.0000     0.0001     0.0100 12542.6631     1.6634     4.1201     4.1201    16.9755   -67.3226   296.0632     1.0000     1.0000 -1408.2592   160.9785    31.1660     0.0001     1.6634    16.0000
  1560.5752  4667.4927 4667492.5000    -999.25     9.2088     0.5602   130.2463   130.2463     3.0000    -999.25   103.1731     4.0379     3.8731     3.9011  1560.5752     0.5602     4.0350    -999.25     0.0000     0.0001     0.0100 15313.2959     1.9945     3.4036     3.4036    11.5844   -67.2982   296.3383     1.0000     1.0000 -1408.3976   160.9862    69.7380     0.0001     1.9945    16.0000
  1560.7276  5388.6743 5388674.5000    -999.25     9.1557     0.5549   127.6176   127.6176     3.0000    -999.25   130.5963     2.5070     2.4438     2.4494  1560.7275     0.5549     4.9491    -999.25     0.0000     0.0001     0.0100 17679.3789     2.2562     2.1391     2.1391     4.5757   -67.3777   296.6574     1.0000     1.0000 -1408.5361   160.9939    98.1950     0.0001     2.2562    16.0000
  1560.8800  6040.1909 6040191.0000    -999.25     9.0747     0.5239   120.0137   120.0137     0.0000    -999.25   149.2740     2.1552     2.1104     2.1124  1560.8800     0.5239     5.5290    -999.25     0.0000     0.0001     0.0100 19816.9004     2.3783     1.8428     1.8428     3.3958   -67.3744   296.9260     1.0000     1.0000 -1408.6746   161.0016    94.4600     0.0001     2.3783    16.0000
  1561.0324  6422.8711 6422871.0000    -999.25     9.0379     0.4783   115.9383   115.9383     0.0000    -999.25   152.2967     2.3058     2.2524     2.2513  1561.0323     0.4783     5.7137    -999.25     0.0004     0.0157     0.0157 21072.4121     2.4431     1.9628     1.9628     3.8527   -67.2192   297.0980     1.0000     1.0000 -1408.8130   161.0094    80.7000     0.0157     2.4431    16.0000
  1561.1848  6639.6841 6639684.0000    -999.25     9.0393     0.4576   114.1999   114.1999     0.0000    -999.25   146.2925     2.6171     2.5451     2.5458  1561.1847     0.4576     5.7476    -999.25     0.0001     0.0164     0.0164 21783.7402     2.4877     2.2193     2.2193     4.9252   -67.1400   297.1427     1.0000     1.0000 -1408.9515   161.0171    74.6550     0.0164     2.4877    16.0000
  1561.3372  6541.1050 6541105.0000    -999.25     9.0415     0.4832   116.4568   116.4568     0.0000    -999.25   140.2619     2.5718     2.5028     2.5072  1561.3372     0.4832     5.7956    -999.25     0.0000     0.0183     0.0183 21460.3184     2.4992     2.1864     2.1864     4.7802   -67.2268   297.0927     1.0000     1.0000 -1409.0900   161.0248    73.1650     0.0183     2.4992    16.0000
  1561.4896  6519.9609 6519961.0000    -999.25     9.0411     0.5314   115.9088   115.9088     0.0000    -999.25   138.1961     2.2041     2.1601     2.1689  1561.4895     0.5314     5.7159    -999.25     0.0029     0.0207     0.0207 21390.9492     2.4794     1.8920     1.8920     3.5798   -67.3795   297.0447     1.0000     1.0000 -1409.2284   161.0325    81.6030     0.0207     2.4794    16.0000
  1561.6420  6229.8203 6229820.5000    -999.25     9.0451     0.5579   119.6827   119.6827     0.0000    -999.25   141.3806     1.9067     1.8897     1.9038  1561.6420     0.5579     5.4442    -999.25     0.0088     0.0200     0.0200 20439.0430     2.4462     1.6607     1.6607     2.7579   -67.4577   297.0025     1.0000     1.0000 -1409.3669   161.0402    86.9970     0.0200     2.4462    16.0000
  1561.7944  6120.2739 6120274.0000    -999.25     9.0442     0.5496   119.9723   119.9723     0.0000    -999.25   146.9236     1.8248     1.8263     1.8498  1561.7943     0.5496     5.1474    -999.25     0.0121     0.0207     0.0207 20079.6387     2.4090     1.6132     1.6132     2.6023   -67.3798   296.8375     1.0000     1.0000 -1409.5054   161.0479    86.6540     0.0207     2.4090    16.0000
  1561.9468  6104.0322 6104032.0000    -999.25     9.0224     0.5377   119.1680   119.1680     0.0000    -999.25   150.1691     1.9538     1.9711     2.0097  1561.9468     0.5377     4.9597    -999.25     0.0111     0.0202     0.0202 20026.3516     2.3865     1.7521     1.7521     3.0699   -67.2073   296.6259     1.0000     1.0000 -1409.6438   161.0556    86.9060     0.0202     2.3865    16.0000
