~Version ---------------------------------------------------
VERS. 2.0 : CWLS log ASCII Standard -VERSION 2.0
WRAP.  NO : 
~Well ------------------------------------------------------
STRT.m                                                   1210.0 : 
STOP.m                                                1487.9776 : 
STEP.m                                                   0.1524 : 
NULL.                                                   -999.25 : 
COMP.                                                           : COMPANY
WELL.                                                   Well-14 : WELL
FLD .                                                           : FIELD
LOC .                                                           : LOCATION
SRVC.                                                           : SERVICE COMPANY
DATE. 2021-01-20 14:34:06   : Log Export Date {yyyy-MM-dd HH:mm : ss}
PROV.                                                           : PROVINCE
UWI .                                                   Well-14 : UNIQUE WELL ID
API .                                                           : API NUMBER
~Curve Information -----------------------------------------
DEPTH             .m        : DEPTH
ACOUSTICIMPEDANCE1.kPa.s/m  : ACOUSTICIMPEDANCE1
AI                .kPa.s/m  : AI
AVG_PIGN          .m3/m3    : AVG_PIGN
CALI              .in       : CALI
CALI[DERIVED]1    .in       : CALI[DERIVED]1
DFL               .ohm.m    : DFL
DT                .us/ft    : DT
FACIES            ._        : FACIES
FLD1              ._        : FLD1
GR                .gAPI     : GR
HDRS              .ohm.m    : HDRS
HMRS              .ohm.m    : HMRS
DEPTH_1           .m        : DEPTH_1
NPHI              .m3/m3    : NPHI
PERF_INT          ._        : PERF_INT
PERMEABILITY      .mD       : PERMEABILITY
PHIT              .m3/m3    : PHIT
PIGN              .m3/m3    : PIGN
PIGN_MODELLING    .m3/m3    : PIGN_MODELLING
PIMP              .kPa.s/m  : PIMP
RHOB              .g/cm3    : RHOB
LLD               .ohm.m    : LLD
RT_MODELLING      .ohm.m    : RT_MODELLING
RT_POWER          .ohm.m    : RT_POWER
SP                .mV       : SP
SUWI              ._        : SUWI
SUWI_MODELLING    ._        : SUWI_MODELLING
SXWI              ._        : SXWI
TDVSS             .m        : TDVSS
VCL               .%        : VCL
WATER_VOL         ._        : WATER_VOL
ZLT               ._        : ZLT
~Params ----------------------------------------------------
~Other -----------------------------------------------------
~ASCII -----------------------------------------------------
# ...
  1448.0488  6040.3003 6040300.0000    -999.25     8.9397     8.9397     2.4188   121.9200     0.0000    -999.25    88.5064     1.5969     1.6329  1448.0488     0.6227    -999.25    -999.25     0.1367     0.0547     0.0547 19817.2578     2.4161     1.5968     1.5968     2.5499    92.2727     1.0000     1.0000     1.0000 -1381.3187    82.3780     0.0547    25.0000
  1448.2012  5990.7251 5990725.0000    -999.25     8.9445     8.9445     2.2845   121.9200     0.0000    -999.25    87.8471     1.5541     1.5746  1448.2012     0.5989    -999.25    -999.25     0.1451     0.0678     0.0678 19654.6113     2.3963     1.5544     1.5544     2.4161    92.4926     1.0000     1.0000     1.0000 -1381.4712    78.1640     0.0678    25.0000
  1448.3536  5218.3652 5218365.5000    -999.25     8.9596     8.9596     2.1548   139.5983     0.0000    -999.25    87.8396     1.5328     1.5408  1448.3535     0.5724    -999.25    -999.25     0.1545     0.0791     0.0791 17120.6211     2.3900     1.5333     1.5333     2.3511    92.4136     1.0000     1.0000     1.0000 -1381.6235    74.5000     0.0791    25.0000
  1448.5060  4800.8804 4800880.0000    -999.25     8.9691     8.9691     2.1496   152.4000     0.0000    -999.25    91.6420     1.5512     1.5604  1448.5060     0.5559    -999.25    -999.25     0.1556     0.0778     0.0778 15750.9189     2.4004     1.5522     1.5522     2.4092    92.2202     1.0000     1.0000     1.0000 -1381.7760    74.9220     0.0778    25.0000
  1448.6584  4829.1401 4829140.5000    -999.25     8.9610     8.9610     2.2661   152.4000     0.0000    -999.25    97.4385     1.5957     1.6137  1448.6583     0.5550    -999.25    -999.25     0.1481     0.0663     0.0663 15843.6367     2.4146     1.5960     1.5960     2.5471    92.1511     1.0000     1.0000     1.0000 -1381.9283    78.6370     0.0663    25.0000
  1448.8108  5492.2827 5492282.5000    -999.25     8.9642     8.9642     2.4403   134.7217     0.0000    -999.25   102.2072     1.6151     1.6351  1448.8108     0.5670    -999.25    -999.25     0.1374     0.0514     0.0514 18019.3008     2.4276     1.6141     1.6141     2.6053    92.2438     1.0000     1.0000     1.0000 -1382.0808    83.4340     0.0514    25.0000
  1448.9632  6091.3506 6091350.5000    -999.25     8.9838     8.9838     2.4166   121.9200     0.0000    -999.25   104.7403     1.5915     1.6051  1448.9631     0.5846    -999.25    -999.25     0.1285     0.0393     0.0393 19984.7461     2.4365     1.5908     1.5908     2.5305    92.4093     1.0000     1.0000     1.0000 -1382.2332    87.3430     0.0393    25.0000
  1449.1156  5287.8853 5287885.5000    -999.25     8.9944     8.9944     2.2477   139.5983     0.0000    -999.25   103.6005     1.5754     1.5785  1449.1156     0.5989    -999.25    -999.25     0.1244     0.0375     0.0375 17348.7051     2.4219     1.5761     1.5761     2.4841    92.8487     1.0000     1.0000     1.0000 -1382.3856    87.8990     0.0375    25.0000
  1449.2680  4784.0200 4784020.0000    -999.25     8.9915     8.9915     2.1896   152.4000     0.0000    -999.25    98.3581     1.6125     1.6053  1449.2679     0.6014    -999.25    -999.25     0.1286     0.0486     0.0486 15695.6045     2.3920     1.6137     1.6137     2.6042    93.3457     1.0000     1.0000     1.0000 -1382.5380    84.3340     0.0486    25.0000
  1449.4204  4737.8398 4737840.0000    -999.25     8.9996     8.9996     2.2847   152.4000     0.0000    -999.25    92.8229     1.6950     1.6849  1449.4204     0.5891    -999.25    -999.25     0.1379     0.0647     0.0647 15544.0938     2.3689     1.6957     1.6957     2.8754    93.4706     1.0000     1.0000     1.0000 -1382.6904    79.1610     0.0647    25.0000
  1449.5728  4688.1602 4688160.0000    -999.25     9.0535     9.0535     2.5636   152.4000     0.0000    -999.25    90.4414     1.7813     1.7767  1449.5728     0.5667    -999.25    -999.25     0.1480     0.0798     0.0798 15381.1025     2.3441     1.7811     1.7811     3.1722    93.4309     1.0000     1.0000     1.0000 -1382.8428    74.2990     0.0798    25.0000
  1449.7252  4624.8398 4624840.0000    -999.25     9.1505     9.1505     2.9468   152.4000     0.0000    -999.25    91.3701     1.7866     1.7979  1449.7252     0.5433    -999.25    -999.25     0.1664     0.0843     0.0843 15173.3594     2.3124     1.7841     1.7841     3.1831    93.5092     1.0000     1.0000     1.0000 -1382.9951    72.8490     0.0843    25.0000
  1449.8776  4592.9399 4592940.0000    -999.25     9.2425     9.2425     3.1275   152.4000     0.0000    -999.25    94.3682     1.6587     1.6798  1449.8776     0.5279    -999.25    -999.25     0.1706     0.0702     0.0702 15068.7012     2.2965     1.6559     1.6559     2.7422    93.7070     1.0000     1.0000     1.0000 -1383.1476    74.4970     0.0702    25.0000
  1450.0300  4595.1001 4595100.0000    -999.25     9.2847     9.2847     2.7157   152.4000     0.0000    -999.25    97.2433     1.4888     1.5037  1450.0300     0.5253    -999.25    -999.25     0.1666     0.0535     0.0535 15075.7881     2.2975     1.4892     1.4892     2.2177    93.5528     1.0000     1.0000     1.0000 -1383.2999    77.0970     0.0535    25.0000
  1450.1824  5223.5044 5223504.0000    -999.25     9.2799     9.2799     2.1294   134.7217     0.0000    -999.25    97.2321     1.4100     1.4138  1450.1824     0.5324    -999.25    -999.25     0.1579     0.0712     0.0712 17137.4805     2.3088     1.4126     1.4126     1.9955    93.0826     1.0000     1.0000     1.0000 -1383.4524    74.5370     0.0712    25.0000
  1450.3348  5863.8003 5863800.0000    -999.25     9.1963     9.1963     1.8544   121.9200     0.0000    -999.25    92.9341     1.4463     1.4442  1450.3347     0.5405    -999.25    -999.25     0.1580     0.0877     0.0877 19238.1895     2.3455     1.4483     1.4483     2.0975    92.5334     1.0000     1.0000     1.0000 -1383.6047    71.6320     0.0877    25.0000
  1450.4872  6005.5503 6005550.0000    -999.25     9.0892     9.0892     2.0171   121.9200     0.0000    -999.25    86.8332     1.5649     1.5782  1450.4872     0.5411    -999.25    -999.25     0.1693     0.0930     0.0930 19703.2480     2.4022     1.5663     1.5663     2.4535    92.4504     1.0000     1.0000     1.0000 -1383.7572    70.0460     0.0930    25.0000
  1450.6396  6140.0005 6140000.5000    -999.25     9.1722     9.1722     2.3873   121.9200     0.0000    -999.25    83.4603     1.7389     1.7888  1450.6395     0.5329    -999.25    -999.25     0.1804     0.0961     0.0961 20144.3574     2.4560     1.7399     1.7399     3.0271    92.7058     1.0000     1.0000     1.0000 -1383.9095    69.0460     0.0961    25.0000
  1450.7920  6189.6753 6189675.5000    -999.25     9.4745     9.4745     2.8203   121.9200     0.0000    -999.25    84.1440     1.8629     1.9409  1450.7920     0.5198    -999.25    -999.25     0.1843     0.0975     0.0975 20307.3340     2.4759     1.8608     1.8608     3.4624    92.9971     1.0000     1.0000     1.0000 -1384.0620    68.5940     0.0975    25.0000
  1450.9444  6094.2754 6094275.0000    -999.25     9.6870     9.6870     2.9672   121.9200     0.0000    -999.25    88.7802     1.7953     1.8609  1450.9443     0.5073    -999.25    -999.25     0.1780     0.0978     0.0978 19994.3418     2.4377     1.7905     1.7905     3.2060    93.0593     1.0000     1.0000     1.0000 -1384.2144    68.4860     0.0978    25.0000
  1451.0968  5902.9746 5902974.5000    -999.25     9.7443     9.7443     2.6531   121.9200     0.0000    -999.25    96.2900     1.5978     1.6223  1451.0968     0.5007    -999.25    -999.25     0.1632     0.0942     0.0942 19366.7148     2.3612     1.5968     1.5968     2.5497    92.9359     1.0000     1.0000     1.0000 -1384.3668    69.3590     0.0942    25.0000
  1451.2492  5723.3252 5723325.0000    -999.25     9.9135     9.9135     2.1837   121.9200     0.0000    -999.25   103.1405     1.4444     1.4402  1451.2491     0.5019    -999.25    -999.25     0.1578     0.0488     0.0488 18777.3125     2.2893     1.4464     1.4464     2.0921    92.7057     1.0000     1.0000     1.0000 -1384.5192    77.9520     0.0488    25.0000
