~Version ---------------------------------------------------
VERS. 2.0 : CWLS log ASCII Standard -VERSION 2.0
WRAP.  NO : 
~Well ------------------------------------------------------
STRT.m                                                 1185.062 : 
STOP.m                                                1563.9284 : 
STEP.m                                                   0.1524 : 
NULL.                                                   -999.25 : 
COMP.                                                           : COMPANY
WELL.                                                    Well-8 : WELL
FLD .                                                           : FIELD
LOC .                                                           : LOCATION
SRVC.                                                           : SERVICE COMPANY
DATE. 2021-01-20 14:34:03   : Log Export Date {yyyy-MM-dd HH:mm : ss}
PROV.                                                           : PROVINCE
UWI .                                                    Well-8 : UNIQUE WELL ID
API .                                                           : API NUMBER
~Curve Information -----------------------------------------
DEPTH             .m        : DEPTH
ACOUSTICIMPEDANCE1.kPa.s/m  : ACOUSTICIMPEDANCE1
AI                .kPa.s/m  : AI
AVG_PIGN          .m3/m3    : AVG_PIGN
AZI1              .deg      : AZI1
CALI              .in       : CALI
CALI[DERIVED]1    .in       : CALI[DERIVED]1
DEVI              .deg      : DEVI
DFL               .ohm.m    : DFL
DT                .us/ft    : DT
FACIES            ._        : FACIES
FLD1              ._        : FLD1
GR                .gAPI     : GR
HDRS              .ohm.m    : HDRS
HMRS              .ohm.m    : HMRS
DEPTH_1           .m        : DEPTH_1
NPHI              .m3/m3    : NPHI
ONE-WAYTIME1      .ms       : ONE-WAYTIME1
PERF_INT          ._        : PERF_INT
PERMEABILITY      .mD       : PERMEABILITY
PIGN              .m3/m3    : PIGN
PIGN_MODELLING    .m3/m3    : PIGN_MODELLING
PIMP              .kPa.s/m  : PIMP
RHOB              .g/cm3    : RHOB
LLD               .ohm.m    : LLD
RT_MODELLING      .ohm.m    : RT_MODELLING
RT_POWER          .ohm.m    : RT_POWER
SUWI              ._        : SUWI
SUWI_MODELLING    ._        : SUWI_MODELLING
SXWI              ._        : SXWI
TDVSS             .m        : TDVSS
VCL               .%        : VCL
WATER_VOL         ._        : WATER_VOL
ZLT               ._        : ZLT
~Params ----------------------------------------------------
~Other -----------------------------------------------------
~ASCII -----------------------------------------------------
# ...
  1409.6996  6027.9048 6027904.5000    -999.25  -639.2500    12.7467    12.7467  -639.2500     4.4324   121.8334     0.0000    -999.25    62.2001     3.0934     3.1230  1409.6996     0.5983  -748.1735    -999.25     0.0297     0.0001     0.0100 19776.5898     2.4095     3.1127     3.1127     9.6888     1.0000     1.0000     1.0000 -1328.3896    75.3750     0.0001    10.0000
  1409.8520  5702.2964 5702296.5000    -999.25  -639.2500    12.6926    12.6926  -639.2500     4.4344   121.7121     0.0000    -999.25    57.2175     3.2943     3.3249  1409.8521     0.6194  -748.2593    -999.25     0.0214     0.0001     0.0100 18708.3223     2.2770     3.3577     3.3577    11.2745     1.0000     1.0000     1.0000 -1328.5420    61.2210     0.0001    10.0000
  1410.0044  4902.9150 4902915.5000    -999.25  -639.2500    12.6428    12.6428  -639.2500     4.6746   124.5226     3.0000    -999.25    49.0525     3.9399     3.9450  1410.0044     0.6693  -748.3451    -999.25     0.0105     0.0001     0.0100 16085.6797     2.0030     4.1168     4.1168    16.9478     1.0000     1.0000     1.0000 -1328.6945    36.2720     0.0001    11.0000
  1410.1568  3961.1550 3961155.0000    -999.25  -639.2500    12.6133    12.6133  -639.2500     5.7937   130.3402     3.0000    -999.25    39.2242     5.6822     5.5637  1410.1569     0.7542  -748.4310    -999.25     0.0070     0.0001     0.0100 12995.9160     1.6939     6.0631     6.0631    36.7614     1.0000     1.0000     1.0000 -1328.8468     4.4790     0.0001    11.0000
  1410.3092  3233.3806 3233380.7500    -999.25  -639.2500    12.6080    12.6080  -639.2500     9.3712   137.8829     3.0000    -999.25    30.2670     9.4893     8.9558  1410.3092     0.8610  -748.5168    -999.25     0.0160     0.0001     0.0100 10608.2041     1.4627    10.4177    10.4177   108.5274     1.0000     1.0000     1.0000 -1328.9993     0.0000     0.0001    11.0000
  1410.4616  2776.1006 2776100.7500    -999.25  -639.2500    12.6157    12.6157  -639.2500    21.0908   144.7188     3.0000    -999.25    24.7271    18.3505    16.1000  1410.4617     0.9537  -748.6026    -999.25     0.0634     0.0001     0.0100  9107.9414     1.3181    19.7954    19.7954   391.8574     1.0000     1.0000     1.0000 -1329.1516     0.0000     0.0001    11.0000
  1410.6140  2558.2612 2558261.2500    -999.25  -639.2500    12.6233    12.6233  -639.2500    45.9120   148.9412     3.0000    -999.25    21.9944    31.7947    25.6999  1410.6140     1.0045  -748.6885    -999.25     0.1733     0.0001     0.0100  8393.2461     1.2501    33.3630    33.3630  1113.0918     1.0000     1.0000     1.0000 -1329.3041     0.0000     0.0001    11.0000
  1410.7664  2489.6318 2489631.7500    -999.25  -639.2500    12.6450    12.6450  -639.2500    66.9611   150.9130     3.0000    -999.25    20.6868    46.2140    34.7933  1410.7665     1.0152  -748.7743    -999.25     0.3158     0.0001     0.0100  8168.0835     1.2327    47.5763    47.5763  2263.5063     1.0000     1.0000     1.0000 -1329.4564     0.0000     0.0001    11.0000
  1410.9188  2465.3816 2465381.5000    -999.25  -639.2500    12.6712    12.6712  -639.2500    80.0295   151.8955     3.0000    -999.25    20.7003    58.6231    42.3356  1410.9188     1.0041  -748.8601    -999.25     0.4564     0.0001     0.0100  8088.5220     1.2286    59.5784    59.5784  3549.5908     1.0000     1.0000     1.0000 -1329.6089     0.0000     0.0001    11.0000
  1411.0712  2448.8210 2448821.0000    -999.25  -639.2500    12.6488    12.6488  -639.2500    84.6603   152.5070     3.0000    -999.25    21.5420    67.3672    49.3558  1411.0713     0.9933  -748.9460    -999.25     0.6233     0.0001     0.0100  8034.1895     1.2253    68.1195    68.1195  4640.2661     1.0000     1.0000     1.0000 -1329.7612     0.0000     0.0001    11.0000
  1411.2236  2450.4421 2450442.2500    -999.25  -639.2500    12.5997    12.5997  -639.2500    76.9950   152.3526     3.0000    -999.25    21.6349    74.2432    58.2601  1411.2236     0.9948  -749.0318    -999.25     0.9050     0.0001     0.0100  8039.5088     1.2248    74.8164    74.8164  5597.4878     1.0000     1.0000     1.0000 -1329.9136     0.0000     0.0001    11.0000
  1411.3760  2468.4705 2468470.5000    -999.25  -639.2500    12.5802    12.5802  -639.2500    66.0799   151.3140     3.0000    -999.25    21.9867    79.4790    68.0421  1411.3760     1.0066  -749.1176    -999.25     1.3013     0.0001     0.0100  8098.6562     1.2254    79.9108    79.9108  6385.7305     1.0000     1.0000     1.0000 -1330.0660     0.0000     0.0001    11.0000
  1411.5284  2487.2488 2487248.7500    -999.25  -639.2500    12.5915    12.5915  -639.2500    59.4760   150.0723     3.0000    -999.25    23.2226    83.1059    73.6663  1411.5284     1.0126  -749.2034    -999.25     1.5611     0.0001     0.0100  8160.2651     1.2246    82.8097    82.8097  6857.4502     1.0000     1.0000     1.0000 -1330.2184     0.0000     0.0001    11.0000
  1411.6808  2513.1787 2513178.7500    -999.25  -639.2500    12.6321    12.6321  -639.2500    56.0389   149.2080     3.0000    -999.25    25.2815    78.7087    65.1448  1411.6808     0.9941  -749.2893    -999.25     1.1787     0.0001     0.0100  8245.3369     1.2303    75.1706    75.1706  5650.6226     1.0000     1.0000     1.0000 -1330.3709     0.0000     0.0001    11.0000
  1411.8332  2596.6135 2596613.5000    -999.25  -639.2500    12.6910    12.6910  -639.2500    48.6243   148.3401     3.0000    -999.25    29.4495    46.0684    38.3235  1411.8333     0.9406  -749.3751    -999.25     0.3809     0.0001     0.0100  8519.0732     1.2637    42.7779    42.7779  1829.9462     1.0000     1.0000     1.0000 -1330.5232     0.0000     0.0001    11.0000
  1411.9856  2825.3882 2825388.2500    -999.25  -639.2500    12.7726    12.7726  -639.2500    28.5646   146.1695     3.0000    -999.25    35.9628    16.6903    15.3751  1411.9856     0.8634  -749.4609    -999.25     0.0500     0.0001     0.0100  9269.6465     1.3549    15.5475    15.5475   241.7241     1.0000     1.0000     1.0000 -1330.6757     0.0000     0.0001    11.0000
  1412.1380  3246.1521 3246152.0000    -999.25  -639.2500    12.9366    12.9366  -639.2500    12.8309   142.3798     3.0000    -999.25    43.4618     6.5220     6.3395  1412.1381     0.7889  -749.5468    -999.25     0.0066     0.0001     0.0100 10650.1045     1.5164     6.1928     6.1928    38.3511     1.0000     1.0000     1.0000 -1330.8280     1.9060     0.0001    11.0000
  1412.2904  3910.6509 3910651.0000    -999.25  -639.2500    13.1133    13.1133  -639.2500     5.3625   137.3110     3.0000    -999.25    50.6404     3.5912     3.5753  1412.2904     0.7342  -749.6326    -999.25     0.0058     0.0001     0.0100 12830.2197     1.7617     3.4928     3.4928    12.1994     1.0000     1.0000     1.0000 -1330.9805    17.5000     0.0001    11.0000
  1412.4428  4873.9321 4873932.5000    -999.25  -639.2500    13.1489    13.1489  -639.2500     3.4404   130.3735     0.0000    -999.25    56.9869     2.7224     2.7694  1412.4429     0.6888  -749.7184    -999.25     0.1097     0.0030     0.0100 15990.5918     2.0847     2.7085     2.7085     7.3358     1.0000     1.0000     1.0000 -1331.1328    54.1590     0.0030    12.0000
  1412.5952  5929.6084 5929608.0000    -999.25  -639.2500    13.0334    13.0334  -639.2500     2.8648   121.1606     0.0000    -999.25    62.4017     2.6127     2.6801  1412.5952     0.6389  -749.8043    -999.25     1.2982     0.0190     0.0190 19454.0957     2.3571     2.6367     2.6367     6.9520     1.0000     1.0000     1.0000 -1331.2853    88.5990     0.0190    12.0000
  1412.7476  6608.4673 6608467.0000    -999.25  -639.2500    12.9230    12.9230  -639.2500     3.2084   113.0992     0.0000    -999.25    65.9102     2.8302     2.8627  1412.7477     0.5899  -749.8901    -999.25     0.5936     0.0259     0.0259 21681.3223     2.4521     2.8458     2.8458     8.0984     1.0000     1.0000     1.0000 -1331.4376    84.4510     0.0259    12.0000
  1412.9000  6697.8843 6697884.0000    -999.25  -639.2500    12.9300    12.9300  -639.2500     3.8270   109.8396     0.0000    -999.25    67.7129     2.9572     2.9263  1412.9000     0.5581  -749.9760    -999.25     0.4487     0.0357     0.0357 21974.6855     2.4137     2.9385     2.9385     8.6347     1.0000     1.0000     1.0000 -1331.5901    78.5900     0.0357    12.0000
