~Version ---------------------------------------------------
VERS. 2.0 : CWLS log ASCII Standard -VERSION 2.0
WRAP.  NO : 
~Well ------------------------------------------------------
STRT.m                                                   1210.0 : 
STOP.m                                                1487.9776 : 
STEP.m                                                   0.1524 : 
NULL.                                                   -999.25 : 
COMP.                                                           : COMPANY
WELL.                                                   Well-14 : WELL
FLD .                                                           : FIELD
LOC .                                                           : LOCATION
SRVC.                                                           : SERVICE COMPANY
DATE. 2021-01-20 14:34:06   : Log Export Date {yyyy-MM-dd HH:mm : ss}
PROV.                                                           : PROVINCE
UWI .                                                   Well-14 : UNIQUE WELL ID
API .                                                           : API NUMBER
~Curve Information -----------------------------------------
DEPTH             .m        : DEPTH
ACOUSTICIMPEDANCE1.kPa.s/m  : ACOUSTICIMPEDANCE1
AI                .kPa.s/m  : AI
AVG_PIGN          .m3/m3    : AVG_PIGN
CALI              .in       : CALI
CALI[DERIVED]1    .in       : CALI[DERIVED]1
DFL               .ohm.m    : DFL
DT                .us/ft    : DT
FACIES            ._        : FACIES
FLD1              ._        : FLD1
GR                .gAPI     : GR
HDRS              .ohm.m    : HDRS
HMRS              .ohm.m    : HMRS
DEPTH_1           .m        : DEPTH_1
NPHI              .m3/m3    : NPHI
PERF_INT          ._        : PERF_INT
PERMEABILITY      .mD       : PERMEABILITY
PHIT              .m3/m3    : PHIT
PIGN              .m3/m3    : PIGN
PIGN_MODELLING    .m3/m3    : PIGN_MODELLING
PIMP              .kPa.s/m  : PIMP
RHOB              .g/cm3    : RHOB
LLD               .ohm.m    : LLD
RT_MODELLING      .ohm.m    : RT_MODELLING
RT_POWER          .ohm.m    : RT_POWER
SP                .mV       : SP
SUWI              ._        : SUWI
SUWI_MODELLING    ._        : SUWI_MODELLING
SXWI              ._        : SXWI
TDVSS             .m        : TDVSS
VCL               .%        : VCL
WATER_VOL         ._        : WATER_VOL
ZLT               ._        : ZLT
~Params ----------------------------------------------------
~Other -----------------------------------------------------
~ASCII -----------------------------------------------------
# ...
  1484.9296  5056.8403 5056840.0000    -999.25     8.7611     8.7611     3.1534   152.4000     0.0000    -999.25    66.7366     1.7178     1.7142  1484.9296     0.5142    -999.25    -999.25     0.1991     0.1084     0.1084 16590.6836     2.5284     1.7159     1.7159     2.9445    96.5415     1.0000     1.0000     1.0000 -1418.1996    65.0690     0.1084    -999.25
  1485.0820  5160.3198 5160320.0000    -999.25     8.7654     8.7654     3.1121   152.4000     0.0000    -999.25    66.7366     1.7068     1.6740  1485.0819     0.5389    -999.25    -999.25     0.1935     0.0943     0.0943 16930.1836     2.5802     1.7042     1.7042     2.9042    96.5305     1.0000     1.0000     1.0000 -1418.3519    69.6200     0.0943    -999.25
  1485.2344  5156.1206 5156120.5000    -999.25     8.7546     8.7546     2.6251   152.4000     0.0000    -999.25    66.7366     1.6363     1.5908  1485.2344     0.5667    -999.25    -999.25     0.1811     0.0804     0.0804 16916.4062     2.5781     1.6362     1.6362     2.6772    96.4065     1.0000     1.0000     1.0000 -1418.5044    74.0890     0.0804    -999.25
  1485.3868  4990.8003 4990800.0000    -999.25     8.7480     8.7480     2.3236   152.4000     0.0000    -999.25    66.7366     1.6028     1.5618  1485.3867     0.5888    -999.25    -999.25     0.1603     0.0700     0.0700 16374.0156     2.4954     1.6041     1.6041     2.5732    96.2360     1.0000     1.0000     1.0000 -1418.6567    77.4530     0.0700    -999.25
  1485.5392  4737.5205 4737520.5000    -999.25     8.7457     8.7457     2.2997   152.4000     0.0000    -999.25    66.7366     1.6149     1.5913  1485.5392     0.6003    -999.25    -999.25     0.1446     0.0679     0.0679 15543.0459     2.3688     1.6155     1.6155     2.6098    96.0640     1.0000     1.0000     1.0000 -1418.8092    78.1320     0.0679    -999.25
  1485.6916  4601.1602 4601160.0000    -999.25     8.7441     8.7441     2.3992   152.4000     0.0000    -999.25    66.7366     1.6646     1.6599  1485.6915     0.6069    -999.25    -999.25     0.1587     0.0589     0.0589 15095.6699     2.3006     1.6655     1.6655     2.7739    96.0453     1.0000     1.0000     1.0000 -1418.9615    81.0300     0.0589    -999.25
  1485.8440  4613.1401 4613140.5000    -999.25     8.7669     8.7669     2.5475   152.4000     0.0000    -999.25    66.7366     1.7436     1.7599  1485.8440     0.6107    -999.25    -999.25     0.1496     0.0592     0.0592 15134.9746     2.3066     1.7441     1.7441     3.0417    96.0404     1.0000     1.0000     1.0000 -1419.1140    80.9200     0.0592    -999.25
  1485.9964  4663.6602 4663660.0000    -999.25     8.8223     8.8223     2.7269   152.4000     0.0000    -999.25    66.7366     1.8206     1.8662  1485.9963     0.6150    -999.25    -999.25     0.1345     0.0595     0.0595 15300.7227     2.3318     1.8204     1.8204     3.3137    96.0098     1.0000     1.0000     1.0000 -1419.2664    80.8320     0.0595    -999.25
  1486.1488  4698.3604 4698360.0000    -999.25     8.8892     8.8892     3.0049   152.4000     0.0000    -999.25    66.7366     1.8058     1.8801  1486.1488     0.6263    -999.25    -999.25     0.1287     0.0524     0.0524 15414.5674     2.3492     1.8029     1.8029     3.2506    96.0396     1.0000     1.0000     1.0000 -1419.4188    83.1240     0.0524    -999.25
  1486.3012  4693.4199 4693420.0000    -999.25     8.9516     8.9516     3.0763   152.4000     0.0000    -999.25    66.7366     1.6072     1.7134  1486.3011     0.6453    -999.25    -999.25     0.1233     0.0447     0.0447 15398.3604     2.3467     1.6030     1.6030     2.5695    96.1845     1.0000     1.0000     1.0000 -1419.5712    85.5950     0.0447    -999.25
  1486.4536  4658.9199 4658920.0000    -999.25     8.9650     8.9650     2.5937   152.4000     0.0000    -999.25    66.7366     1.3219     1.4700  1486.4536     0.6588    -999.25    -999.25     0.1220     0.0429     0.0429 15285.1709     2.3295     1.3217     1.3217     1.7469    96.0417     1.0000     1.0000     1.0000 -1419.7235    86.1870     0.0429    -999.25
  1486.6060  4628.8604 4628860.0000    -999.25     8.9179     8.9179     1.9317   152.4000     0.0000    -999.25    66.7366     1.1187     1.3169  1486.6060     0.6513    -999.25    -999.25     0.1275     0.0507     0.0507 15186.5488     2.3144     1.1212     1.1212     1.2571    95.9543     1.0000     1.0000     1.0000 -1419.8760    83.6620     0.0507    -999.25
  1486.7584  4605.6201 4605620.0000    -999.25     8.8258     8.8258     1.6346   152.4000     0.0000    -999.25    66.7366     1.0326     1.2948  1486.7584     0.6230    -999.25    -999.25     0.1603     0.0553     0.0553 15110.3018     2.3028     1.0345     1.0345     1.0702    96.0952     1.0000     1.0000     1.0000 -1420.0283    82.1720     0.0553    -999.25
  1486.9108  4604.1606 4604160.5000    -999.25     8.7361     8.7361     1.7769   152.4000     0.0000    -999.25    66.7366     1.0095     1.3490  1486.9108     0.5885    -999.25    -999.25     0.1632     0.0747     0.0747 15105.5137     2.3021     1.0102     1.0102     1.0205    96.4392     1.0000     1.0000     1.0000 -1420.1808    75.9380     0.0747    -999.25
  1487.0632  4634.2202 4634220.5000    -999.25     8.6659     8.6659     1.9634   152.4000     0.0000    -999.25    66.7366     0.9969     1.3767  1487.0631     0.5628    -999.25    -999.25     0.1581     0.0916     0.0916 15204.1348     2.3171     0.9968     0.9968     0.9936    96.4272     1.0000     1.0000     1.0000 -1420.3331    70.4800     0.0916    -999.25
  1487.2156  4659.2598 4659260.0000    -999.25     8.6492     8.6492     2.0876   152.4000     0.0000    -999.25    66.7366     0.9686     1.2931  1487.2156     0.5517    -999.25    -999.25     0.1619     0.0966     0.0966 15286.2861     2.3296     0.9682     0.9682     0.9374    95.9817     1.0000     1.0000     1.0000 -1420.4856    68.8680     0.0966    -999.25
  1487.3680  4675.5801 4675580.0000    -999.25     8.6643     8.6643     2.1837   152.4000     0.0000    -999.25    66.7366     0.9118     1.1015  1487.3679     0.5548    -999.25    -999.25     0.1614     0.0950     0.0950 15339.8301     2.3378     0.9111     0.9111     0.8302    95.5057     1.0000     1.0000     1.0000 -1420.6379    69.3740     0.0950    -999.25
  1487.5204  4684.4404 4684440.5000    -999.25     8.6852     8.6852     2.1419   152.4000     0.0000    -999.25    66.7366     0.8294     0.8887  1487.5204     0.5619    -999.25    -999.25     0.1597     0.0925     0.0925 15368.8984     2.3422     0.8289     0.8289     0.6871    95.5171     1.0000     1.0000     1.0000 -1420.7904    70.1890     0.0925    -999.25
  1487.6728  4687.6401 4687640.5000    -999.25     8.6763     8.6763     1.8806   152.4000     0.0000    -999.25    66.7366     0.7472     0.7298  1487.6727     0.5375    -999.25    -999.25     0.1750     0.1085     0.1085 15379.3975     2.3438     0.7475     0.7475     0.5587    90.4659     1.0000     1.0000     1.0000 -1420.9427    65.0400     0.1085    -999.25
  1487.8252  4694.1602 4694160.0000    -999.25     8.6180     8.6180     1.5977   152.4000     0.0000    -999.25    66.7366     0.7138     0.6525  1487.8252     0.4454    -999.25    -999.25     0.2250     0.1622     0.1622 15400.7881     2.3471     0.7152     0.7152     0.5115 304088.9062     1.0000     1.0000     1.0000 -1421.0952    47.7280     0.1622    -999.25
  1487.9776  4686.3398 4686340.0000    -999.25     8.5364     8.5364     1.4736   152.4000    -999.25    -999.25    66.7366     0.8637     0.8158  1487.9775     0.2985    -999.25    -999.25     0.2344     0.1887     0.1887 15375.1318     2.3432     0.8689     0.8689     0.7551 2491761.5000     1.0000     1.0000     1.0000 -1421.2476    28.9580     0.1887    -999.25
