~Version ---------------------------------------------------
VERS. 2.0 : CWLS log ASCII Standard -VERSION 2.0
WRAP.  NO : 
~Well ------------------------------------------------------
STRT.m                                                 1185.062 : 
STOP.m                                                1563.9284 : 
STEP.m                                                   0.1524 : 
NULL.                                                   -999.25 : 
COMP.                                                           : COMPANY
WELL.                                                    Well-8 : WELL
FLD .                                                           : FIELD
LOC .                                                           : LOCATION
SRVC.                                                           : SERVICE COMPANY
DATE. 2021-01-20 14:34:03   : Log Export Date {yyyy-MM-dd HH:mm : ss}
PROV.                                                           : PROVINCE
UWI .                                                    Well-8 : UNIQUE WELL ID
API .                                                           : API NUMBER
~Curve Information -----------------------------------------
DEPTH             .m        : DEPTH
ACOUSTICIMPEDANCE1.kPa.s/m  : ACOUSTICIMPEDANCE1
AI                .kPa.s/m  : AI
AVG_PIGN          .m3/m3    : AVG_PIGN
AZI1              .deg      : AZI1
CALI              .in       : CALI
CALI[DERIVED]1    .in       : CALI[DERIVED]1
DEVI              .deg      : DEVI
DFL               .ohm.m    : DFL
DT                .us/ft    : DT
FACIES            ._        : FACIES
FLD1              ._        : FLD1
GR                .gAPI     : GR
HDRS              .ohm.m    : HDRS
HMRS              .ohm.m    : HMRS
DEPTH_1           .m        : DEPTH_1
NPHI              .m3/m3    : NPHI
ONE-WAYTIME1      .ms       : ONE-WAYTIME1
PERF_INT          ._        : PERF_INT
PERMEABILITY      .mD       : PERMEABILITY
PIGN              .m3/m3    : PIGN
PIGN_MODELLING    .m3/m3    : PIGN_MODELLING
PIMP              .kPa.s/m  : PIMP
RHOB              .g/cm3    : RHOB
LLD               .ohm.m    : LLD
RT_MODELLING      .ohm.m    : RT_MODELLING
RT_POWER          .ohm.m    : RT_POWER
SUWI              ._        : SUWI
SUWI_MODELLING    ._        : SUWI_MODELLING
SXWI              ._        : SXWI
TDVSS             .m        : TDVSS
VCL               .%        : VCL
WATER_VOL         ._        : WATER_VOL
ZLT               ._        : ZLT
~Params ----------------------------------------------------
~Other -----------------------------------------------------
~ASCII -----------------------------------------------------
# ...
  1335.9380  5099.7920 5099792.0000    -999.25  -639.2500    15.2517    15.2517  -639.2500     1.4542   136.7938     0.0000    -999.25    48.8994     1.4768     1.4405  1335.9380     0.5943  -706.6296    -999.25    -999.25     0.0237     0.0237 16731.6016     2.2888     1.4853     1.4853     2.2062     1.0000     1.0000     1.0000 -1254.6281    85.8010     0.0237     0.0000
  1336.0904  5464.2622 5464262.0000    -999.25  -639.2500    14.8731    14.8731  -639.2500     1.5140   130.3811     0.0000    -999.25    49.8690     1.5573     1.5461  1336.0905     0.5642  -706.7154    -999.25    -999.25     0.0290     0.0290 17927.3691     2.3374     1.5694     1.5694     2.4630     1.0000     1.0000     1.0000 -1254.7804    82.6150     0.0290     0.0000
  1336.2428  5838.4736 5838473.5000    -999.25  -639.2500    14.4480    14.4480  -639.2500     1.6422   124.4196     0.0000    -999.25    50.9728     1.6706     1.6975  1336.2428     0.5392  -706.8012    -999.25    -999.25     0.0329     0.0329 19155.0977     2.3833     1.6848     1.6848     2.8386     1.0000     1.0000     1.0000 -1254.9329    80.2870     0.0329     0.0000
  1336.3952  6098.0928 6098092.5000    -999.25  -639.2500    14.1266    14.1266  -639.2500     1.8595   120.3942     0.0000    -999.25    53.4330     1.7998     1.8658  1336.3953     0.5290  -706.8871    -999.25    -999.25     0.0336     0.0336 20006.8652     2.4087     1.8099     1.8099     3.2757     1.0000     1.0000     1.0000 -1255.0852    79.8180     0.0336     0.0000
  1336.5476  6140.7759 6140776.0000    -999.25  -639.2500    13.9846    13.9846  -639.2500     2.1699   119.7594     0.0000    -999.25    55.1723     1.8874     1.9657  1336.5476     0.5394  -706.9729    -999.25    -999.25     0.0302     0.0302 20146.9023     2.4128     1.8866     1.8866     3.5593     1.0000     1.0000     1.0000 -1255.2377    81.8560     0.0302     0.0000
  1336.7000  5939.5098 5939509.5000    -999.25  -639.2500    14.1182    14.1182  -639.2500     2.4004   122.5418     0.0000    -999.25    55.3741     1.8743     1.9209  1336.7001     0.5666  -707.0587    -999.25    -999.25     0.0243     0.0243 19486.5801     2.3879     1.8622     1.8622     3.4678     1.0000     1.0000     1.0000 -1255.3900    85.3950     0.0243     0.0000
  1336.8524  5622.4951 5622495.0000    -999.25  -639.2500    14.3511    14.3511  -639.2500     2.3323   127.3396     0.0000    -999.25    55.2731     1.7608     1.7647  1336.8524     0.5963  -707.1445    -999.25    -999.25     0.0185     0.0185 18446.5059     2.3490     1.7463     1.7463     3.0495     1.0000     1.0000     1.0000 -1255.5425    88.8820     0.0185     0.0000
  1337.0048  5340.4673 5340467.0000    -999.25  -639.2500    14.4607    14.4607  -639.2500     2.0424   132.5376     0.0000    -999.25    54.7301     1.6276     1.6125  1337.0049     0.6163  -707.2304    -999.25    -999.25     0.0150     0.0150 17521.2168     2.3222     1.6157     1.6157     2.6105     1.0000     1.0000     1.0000 -1255.6948    91.2320     0.0150     0.0000
  1337.1572  5154.0215 5154021.5000    -999.25  -639.2500    14.4687    14.4687  -639.2500     1.8342   136.7685     0.0000    -999.25    53.6337     1.5187     1.5058  1337.1572     0.6223  -707.3162    -999.25    -999.25     0.0150     0.0150 16909.5195     2.3127     1.5097     1.5097     2.2791     1.0000     1.0000     1.0000 -1255.8473    91.9360     0.0150     0.0000
  1337.3096  5072.9136 5072913.5000    -999.25  -639.2500    14.4786    14.4786  -639.2500     1.6238   139.5693     0.0000    -999.25    52.2194     1.4377     1.4373  1337.3097     0.6161  -707.4020    -999.25    -999.25     0.0150     0.0150 16643.4160     2.3229     1.4339     1.4339     2.0560     1.0000     1.0000     1.0000 -1255.9996    91.4710     0.0150     0.0000
  1337.4620  5093.3843 5093384.5000    -999.25  -639.2500    14.5601    14.5601  -639.2500     1.5663   140.9526     0.0000    -999.25    49.7888     1.4047     1.4194  1337.4620     0.6042  -707.4879    -999.25    -999.25     0.0153     0.0153 16710.5781     2.3554     1.4060     1.4060     1.9769     1.0000     1.0000     1.0000 -1256.1520    90.8440     0.0153     0.0000
  1337.6144  5135.3374 5135337.5000    -999.25  -639.2500    14.5375    14.5375  -639.2500     1.5531   141.3033     0.0000    -999.25    47.0203     1.4163     1.4377  1337.6144     0.5971  -707.5737    -999.25    -999.25     0.0158     0.0158 16848.2207     2.3807     1.4170     1.4170     2.0078     1.0000     1.0000     1.0000 -1256.3044    90.5370     0.0158     0.0000
  1337.7668  5109.7461 5109746.0000    -999.25  -639.2500    14.3580    14.3580  -639.2500     1.6382   141.4145     0.0000    -999.25    45.7661     1.4182     1.4370  1337.7668     0.6004  -707.6595    -999.25    -999.25     0.0157     0.0157 16764.2598     2.3707     1.4098     1.4098     1.9875     1.0000     1.0000     1.0000 -1256.4568    90.5740     0.0157     0.0000
  1337.9192  5019.5059 5019506.0000    -999.25  -639.2500    14.3151    14.3151  -639.2500     1.7043   142.1692     0.0000    -999.25    46.0505     1.3362     1.3465  1337.9192     0.6101  -707.7454    -999.25    -999.25     0.0150     0.0150 16468.1953     2.3413     1.3201     1.3201     1.7425     1.0000     1.0000     1.0000 -1256.6093    91.1830     0.0150     0.0000
  1338.0716  4872.2705 4872270.5000    -999.25  -639.2500    14.5466    14.5466  -639.2500     1.5302   143.9237     0.0000    -999.25    46.8431     1.1876     1.1906  1338.0717     0.6177  -707.8312    -999.25    -999.25     0.0152     0.0152 15985.1396     2.3006     1.1738     1.1738     1.3777     1.0000     1.0000     1.0000 -1256.7616    91.2910     0.0152     0.0000
  1338.2240  4704.0249 4704024.5000    -999.25  -639.2500    14.7888    14.7888  -639.2500     1.3281   146.2961     0.0000    -999.25    48.0688     1.0630     1.0668  1338.2240     0.6163  -707.9171    -999.25    -999.25     0.0164     0.0164 15433.1523     2.2578     1.0555     1.0555     1.1141     1.0000     1.0000     1.0000 -1256.9141    90.1410     0.0164     0.0000
  1338.3764  4586.1353 4586135.0000    -999.25  -639.2500    14.7859    14.7859  -639.2500     1.2306   149.3077     0.0000    -999.25    48.9835     0.9958     1.0026  1338.3765     0.6108  -708.0029    -999.25    -999.25     0.0176     0.0176 15046.3750     2.2465     0.9921     0.9921     0.9843     1.0000     1.0000     1.0000 -1257.0664    89.4630     0.0176     0.0000
  1338.5288  4515.5391 4515539.0000    -999.25  -639.2500    14.5924    14.5924  -639.2500     1.2060   152.2691     0.0000    -999.25    48.5250     0.9632     0.9722  1338.5288     0.6124  -708.0887    -999.25    -999.25     0.0164     0.0164 14814.7607     2.2558     0.9615     0.9615     0.9245     1.0000     1.0000     1.0000 -1257.2189    90.3640     0.0164     0.0000
  1338.6812  4438.5181 4438518.5000    -999.25  -639.2500    14.3484    14.3484  -639.2500     1.1768   154.9292     0.0000    -999.25    47.8776     0.9481     0.9582  1338.6813     0.6266  -708.1746    -999.25    -999.25     0.0150     0.0150 14562.0674     2.2561     0.9480     0.9480     0.8987     1.0000     1.0000     1.0000 -1257.3712    92.8320     0.0150     0.0000
  1338.8336  4410.7236 4410724.0000    -999.25  -639.2500    14.1526    14.1526  -639.2500     1.1318   155.5821     0.0000    -999.25    47.5944     0.9488     0.9606  1338.8336     0.6488  -708.2604    -999.25     0.4036     0.0150     0.0150 14470.8789     2.2514     0.9514     0.9514     0.9052     1.0000     1.0000     1.0000 -1257.5237    96.1050     0.0150     0.0000
  1338.9860  4635.6875 4635687.5000    -999.25  -639.2500    14.0033    14.0033  -639.2500     1.1439   149.0267     0.0000    -999.25    47.2315     0.9753     0.9894  1338.9861     0.6587  -708.3463    -999.25     0.3302     0.0150     0.0150 15208.9482     2.2665     0.9818     0.9818     0.9639     1.0000     1.0000     1.0000 -1257.6760    97.7310     0.0150     1.0000
  1339.1384  5299.3696 5299369.5000    -999.25  -639.2500    13.8001    13.8001  -639.2500     1.2258   133.5591     0.0000    -999.25    48.0091     1.0383     1.0548  1339.1384     0.6348  -708.4321    -999.25     0.4436     0.0153     0.0153 17386.3828     2.3221     1.0504     1.0504     1.1033     1.0000     1.0000     1.0000 -1257.8285    95.3300     0.0153     1.0000
