~Version ---------------------------------------------------
VERS. 2.0 : CWLS log ASCII Standard -VERSION 2.0
WRAP.  NO : 
~Well ------------------------------------------------------
STRT.m                                                1187.6524 : 
STOP.m                                                1658.2636 : 
STEP.m                                                   0.1524 : 
NULL.                                                   -999.25 : 
COMP.                                                           : COMPANY
WELL.                                                   Well-19 : WELL
FLD .                                                           : FIELD
LOC .                                                           : LOCATION
SRVC.                                                           : SERVICE COMPANY
DATE. 2021-01-20 14:34:11   : Log Export Date {yyyy-MM-dd HH:mm : ss}
PROV.                                                           : PROVINCE
UWI .                                                   Well-19 : UNIQUE WELL ID
API .                                                           : API NUMBER
~Curve Information -----------------------------------------
DEPTH             .m        : DEPTH
ACOUSTICIMPEDANCE1.kPa.s/m  : ACOUSTICIMPEDANCE1
AI                .kPa.s/m  : AI
AVG_PIGN          .m3/m3    : AVG_PIGN
CALI              .in       : CALI
NPHI              .m3/m3    : NPHI
DT                .us/ft    : DT
DT4P              .us/ft    : DT4P
FACIES            ._        : FACIES
FLD1              ._        : FLD1
GR                .gAPI     : GR
M2R2              .ohm.m    : M2R2
LLS               .ohm.m    : LLS
LLD               .ohm.m    : LLD
DEPTH_1           .m        : DEPTH_1
NPHI_1            .m3/m3    : NPHI_1
PEF               .b/e      : PEF
PERF_INT          ._        : PERF_INT
PERMEABILITY      .mD       : PERMEABILITY
PIGN              .m3/m3    : PIGN
PIGN_MODELLING    .m3/m3    : PIGN_MODELLING
PIMP              .kPa.s/m  : PIMP
RHOB              .g/cm3    : RHOB
LLD_1             .ohm.m    : LLD_1
RT_MODELLING      .ohm.m    : RT_MODELLING
RT_POWER          .ohm.m    : RT_POWER
SP                .mV       : SP
SPDH              .mV       : SPDH
SUWI              ._        : SUWI
SUWI_MODELLING    ._        : SUWI_MODELLING
TDVSS             .m        : TDVSS
TEMP              .K        : TEMP
VCL               .%        : VCL
WATER_VOL         ._        : WATER_VOL
RHOB_1            .g/cm3    : RHOB_1
ZLT               ._        : ZLT
~Params ----------------------------------------------------
~Other -----------------------------------------------------
~ASCII -----------------------------------------------------
# ...
  1405.2796  6200.4531 6200453.0000    -999.25     9.6306     0.4841   118.4651   118.4651     0.0000    -999.25   112.1816     1.6519     1.5875     1.6237  1405.2795     0.4841     5.0207    -999.25     0.6329     0.0678     0.0678 20342.6934     2.4099     1.4158     1.4158     2.0044   -61.3720   304.0145     1.0000     1.0000 -1267.3815   153.1262    54.9020     0.0678     2.4099     1.0000
  1405.4320  6213.7681 6213768.0000    -999.25     9.6386     0.4609   118.7607   118.7607     0.0000    -999.25   113.7395     1.8323     1.7429     1.7859  1405.4319     0.4609     5.0118    -999.25     0.3918     0.0550     0.0550 20386.3789     2.4211     1.5569     1.5569     2.4241   -61.2673   304.1512     1.0000     1.0000 -1267.5199   153.1339    55.5670     0.0550     2.4211     1.0000
  1405.5844  6279.7646 6279764.5000    -999.25     9.6464     0.4264   117.5126   117.5126     0.0000    -999.25   112.4255     1.9789     1.8598     1.9084  1405.5844     0.4264     4.9730    -999.25     0.3692     0.0506     0.0506 20602.9023     2.4211     1.6638     1.6638     2.7684   -61.1887   304.5256     1.0000     1.0000 -1267.6583   153.1416    54.7710     0.0506     2.4211     1.0000
  1405.7368  6260.8887 6260888.5000    -999.25     9.6702     0.3978   117.5066   117.5066     0.0000    -999.25   111.6937     2.0499     1.9055     1.9558  1405.7367     0.3978     4.9672    -999.25     0.3385     0.0468     0.0468 20540.9727     2.4137     1.7054     1.7054     2.9082   -60.8669   305.1355     1.0000     1.0000 -1267.7968   153.1493    54.8870     0.0468     2.4137     1.0000
  1405.8892  6304.5654 6304565.5000    -999.25     9.7160     0.3845   116.3928   116.3928     0.0000    -999.25   113.1641     2.0780     1.9168     1.9681  1405.8892     0.3845     5.1737    -999.25     0.5427     0.0537     0.0537 20684.2695     2.4075     1.7162     1.7162     2.9452   -60.2354   305.9547     1.0000     1.0000 -1267.9351   153.1570    52.0040     0.0537     2.4075     1.0000
  1406.0416  6401.1660 6401166.0000    -999.25     9.7629     0.3834   115.2505   115.2505     0.0000    -999.25   113.4331     2.1154     1.9413     1.9940  1406.0415     0.3834     5.6902    -999.25     1.0719     0.0670     0.0670 21001.2012     2.4204     1.7387     1.7387     3.0231   -59.6381   306.8455     1.0000     1.0000 -1268.0735   153.1647    45.6300     0.0670     2.4204     1.0000
  1406.1940  6852.8843 6852884.0000    -999.25     9.7891     0.3783   110.0109   110.0109     0.0000    -999.25   110.5419     2.2889     2.0843     2.1468  1406.1940     0.3783     6.3970    -999.25     0.3795     0.0465     0.0465 22483.2148     2.4734     1.8717     1.8717     3.5031   -59.0976   307.7691     1.0000     1.0000 -1268.2119   153.1725    51.1680     0.0465     2.4734     1.0000
  1406.3464  6624.4995 6624499.5000    -999.25     9.7761     0.3669   118.7038   118.7038     0.0000    -999.25   106.2838     2.6878     2.4130     2.4995  1406.3463     0.3669     6.8443    -999.25     0.1908     0.0355     0.0355 21733.9219     2.5799     2.1788     2.1788     4.7471   -58.3540   308.8019     1.0000     1.0000 -1268.3503   153.1802    46.1560     0.0355     2.5799     1.0000
  1406.4988  6933.9517 6933952.0000    -999.25     9.6565     0.3746   117.5031   117.5031     0.0000    -999.25   101.7594     2.8622     2.5475     2.6403  1406.4988     0.3746     6.6534    -999.25     0.0555     0.0233     0.0233 22749.1855     2.6731     2.3020     2.3020     5.2993   -57.5573   309.9413     1.0000     1.0000 -1268.4888   153.1879    42.4560     0.0233     2.6731     1.0000
  1406.6512  6762.0986 6762099.0000    -999.25     9.4662     0.4137   117.6316   117.6316     0.0000    -999.25    96.2996     2.9476     2.6486     2.7547  1406.6511     0.4137     6.1868    -999.25     0.1340     0.0340     0.0340 22185.3633     2.6097     2.4018     2.4018     5.7688   -56.9741   310.9019     1.0000     1.0000 -1268.6271   153.1956    47.2790     0.0340     2.6097     1.0000
  1406.8036  6411.4585 6411458.5000    -999.25     9.3779     0.4527   118.0035   118.0035     0.0000    -999.25    93.1351     2.8711     2.6527     2.7711  1406.8036     0.4527     5.9018    -999.25     0.2584     0.0473     0.0473 21034.9688     2.4822     2.4164     2.4164     5.8388   -56.5913   311.3786     1.0000     1.0000 -1268.7655   153.2033    60.6840     0.0473     2.4822     1.0000
  1406.9560  6111.1450 6111145.0000    -999.25     9.4606     0.4547   119.1041   119.1041     0.0000    -999.25    95.8768     2.3052     2.2275     2.3216  1406.9559     0.4547     5.6845    -999.25     0.7275     0.0684     0.0684 20049.6895     2.3880     2.0254     2.0254     4.1024   -56.5062   311.4095     1.0000     1.0000 -1268.9039   153.2110    58.3390     0.0684     2.3880     1.0000
  1407.1084  5969.1665 5969166.5000    -999.25     9.6044     0.4311   119.3482   119.3482     0.0000    -999.25   102.0249     1.9699     1.9577     2.0325  1407.1084     0.4311     5.4611    -999.25     0.9704     0.0725     0.0725 19583.8789     2.3373     1.7730     1.7730     3.1435   -56.7082   311.3521     1.0000     1.0000 -1269.0424   153.2187    55.5200     0.0725     2.3373     1.0000
  1407.2608  5905.6758 5905675.5000    -999.25     9.7198     0.4218   119.4339   119.4339     0.0000    -999.25   105.6101     1.9324     1.9651     2.0436  1407.2607     0.4218     5.3706    -999.25     0.9846     0.0721     0.0721 19375.5762     2.3141     1.7820     1.7820     3.1755   -56.7607   311.5522     1.0000     1.0000 -1269.1807   153.2264    55.6220     0.0721     2.3141     1.0000
  1407.4132  5772.6802 5772680.0000    -999.25     9.7943     0.4560   121.8106   121.8106     0.0000    -999.25   105.8634     1.8805     1.9481     2.0255  1407.4131     0.4560     5.4091    -999.25     0.5096     0.0622     0.0622 18939.2383     2.3070     1.7663     1.7663     3.1197   -56.2672   312.1152     1.0000     1.0000 -1269.3191   153.2342    61.6660     0.0622     2.3070     1.0000
  1407.5656  5673.6543 5673654.5000    -999.25     9.8428     0.5223   123.6949   123.6949     0.0000    -999.25   106.2595     1.7243     1.8066     1.8710  1407.5656     0.5223     5.4345    -999.25     0.1604     0.0497     0.0497 18614.3516     2.3025     1.6319     1.6319     2.6630   -55.5688   312.7134     1.0000     1.0000 -1269.4575   153.2419    69.5320     0.0497     2.3025     1.0000
  1407.7180  5597.9087 5597909.0000    -999.25     9.8714     0.5562   124.9493   124.9493     0.0000    -999.25   108.0685     1.5709     1.6591     1.7130  1407.7179     0.5562     5.4243    -999.25     0.0736     0.0423     0.0423 18365.8418     2.2948     1.4941     1.4941     2.2323   -55.4057   312.7247     1.0000     1.0000 -1269.5959   153.2496    74.0920     0.0423     2.2948     1.0000
  1407.8704  5412.7012 5412701.5000    -999.25     9.8791     0.5343   129.1234   129.1234     0.0000    -999.25   109.5630     1.4454     1.5345     1.5787  1407.8704     0.5343     5.4087    -999.25     0.1206     0.0465     0.0465 17758.2070     2.2930     1.3769     1.3769     1.8959   -55.9802   311.9008     1.0000     1.0000 -1269.7344   153.2573    71.4240     0.0465     2.2930     1.0000
  1408.0228  5476.6450 5476645.0000    -999.25     9.8765     0.5045   127.9887   127.9887     0.0000    -999.25   110.1199     1.3282     1.4130     1.4488  1408.0227     0.5045     5.4045    -999.25     0.1205     0.0426     0.0426 17967.9941     2.2997     1.2636     1.2636     1.5968   -56.8372   310.6639     1.0000     1.0000 -1269.8727   153.2650    73.6860     0.0426     2.2997     1.0000
  1408.1752  5266.8047 5266804.5000    -999.25     9.8703     0.5050   133.5915   133.5915     0.0000    -999.25   109.5683     1.2336     1.3114     1.3405  1408.1752     0.5050     5.4103    -999.25     0.1179     0.0420     0.0420 17279.5430     2.3084     1.1692     1.1692     1.3669   -57.6782   309.5724     1.0000     1.0000 -1270.0111   153.2727    74.0530     0.0420     2.3084     1.0000
  1408.3276  5230.5415 5230541.5000    -999.25     9.8496     0.5362   134.5585   134.5585     0.0000    -999.25   107.3543     1.1735     1.2433     1.2678  1408.3275     0.5362     5.4334    -999.25     0.1077     0.0442     0.0442 17160.5684     2.3091     1.1057     1.1057     1.2225   -58.4494   308.7917     1.0000     1.0000 -1270.1495   153.2804    72.9350     0.0442     2.3091     1.0000
