~Version ---------------------------------------------------
VERS. 2.0 : CWLS log ASCII Standard -VERSION 2.0
WRAP.  NO : 
~Well ------------------------------------------------------
STRT.m                                                 1185.062 : 
STOP.m                                                1563.9284 : 
STEP.m                                                   0.1524 : 
NULL.                                                   -999.25 : 
COMP.                                                           : COMPANY
WELL.                                                    Well-8 : WELL
FLD .                                                           : FIELD
LOC .                                                           : LOCATION
SRVC.                                                           : SERVICE COMPANY
DATE. 2021-01-20 14:34:03   : Log Export Date {yyyy-MM-dd HH:mm : ss}
PROV.                                                           : PROVINCE
UWI .                                                    Well-8 : UNIQUE WELL ID
API .                                                           : API NUMBER
~Curve Information -----------------------------------------
DEPTH             .m        : DEPTH
ACOUSTICIMPEDANCE1.kPa.s/m  : ACOUSTICIMPEDANCE1
AI                .kPa.s/m  : AI
AVG_PIGN          .m3/m3    : AVG_PIGN
AZI1              .deg      : AZI1
CALI              .in       : CALI
CALI[DERIVED]1    .in       : CALI[DERIVED]1
DEVI              .deg      : DEVI
DFL               .ohm.m    : DFL
DT                .us/ft    : DT
FACIES            ._        : FACIES
FLD1              ._        : FLD1
GR                .gAPI     : GR
HDRS              .ohm.m    : HDRS
HMRS              .ohm.m    : HMRS
DEPTH_1           .m        : DEPTH_1
NPHI              .m3/m3    : NPHI
ONE-WAYTIME1      .ms       : ONE-WAYTIME1
PERF_INT          ._        : PERF_INT
PERMEABILITY      .mD       : PERMEABILITY
PIGN              .m3/m3    : PIGN
PIGN_MODELLING    .m3/m3    : PIGN_MODELLING
PIMP              .kPa.s/m  : PIMP
RHOB              .g/cm3    : RHOB
LLD               .ohm.m    : LLD
RT_MODELLING      .ohm.m    : RT_MODELLING
RT_POWER          .ohm.m    : RT_POWER
SUWI              ._        : SUWI
SUWI_MODELLING    ._        : SUWI_MODELLING
SXWI              ._        : SXWI
TDVSS             .m        : TDVSS
VCL               .%        : VCL
WATER_VOL         ._        : WATER_VOL
ZLT               ._        : ZLT
~Params ----------------------------------------------------
~Other -----------------------------------------------------
~ASCII -----------------------------------------------------
# ...
  1459.9916  2511.2939 2511294.0000    -999.25  -639.2500    12.8284    12.8284  -639.2500    67.5851   149.3891     3.0000    -999.25    20.0347    74.8601    44.3691  1459.9916     0.9433  -776.4988     1.0000     0.0537     0.0001     0.0100  8239.1533     1.2308    74.9786    74.9786  5621.7905     1.0000     1.0000     1.0000 -1378.6816     0.0000     0.0001    19.0000
  1460.1440  2508.7068 2508706.7500    -999.25  -639.2500    12.8081    12.8081  -639.2500    70.3453   149.4217     3.0000    -999.25    19.9094    75.6277    44.8651  1460.1440     0.8837  -776.5847     1.0000     0.0534     0.0001     0.0100  8230.6650     1.2298    75.0996    75.0996  5639.9443     1.0000     1.0000     1.0000 -1378.8340     0.0000     0.0001    19.0000
  1460.2964  2505.7468 2505747.0000    -999.25  -639.2500    12.7793    12.7793  -639.2500    69.2713   149.4753     3.0000    -999.25    19.1858    70.5542    43.4958  1460.2964     0.8153  -776.6705     1.0000     0.0531     0.0001     0.0100  8220.9541     1.2288    69.6683    69.6683  4853.6675     1.0000     1.0000     1.0000 -1378.9865     0.0000     0.0001    19.0000
  1460.4488  2506.2251 2506225.2500    -999.25  -639.2500    12.7257    12.7257  -639.2500    63.6134   149.5234     3.0000    -999.25    17.9598    62.4485    40.5868  1460.4489     0.7659  -776.7563     1.0000     0.0527     0.0001     0.0100  8222.5234     1.2295    61.7563    61.7563  3813.8372     1.0000     1.0000     1.0000 -1379.1388     0.0000     0.0001    19.0000
  1460.6012  2509.6934 2509693.2500    -999.25  -639.2500    12.6563    12.6563  -639.2500    57.6083   149.6751     3.0000    -999.25    17.0209    56.1251    38.0660  1460.6012     0.7451  -776.8422     1.0000     0.0524     0.0001     0.0100  8233.9023     1.2324    55.6043    55.6043  3091.8350     1.0000     1.0000     1.0000 -1379.2913     0.0000     0.0001    19.0000
  1460.7536  2512.6382 2512638.2500    -999.25  -639.2500    12.6093    12.6093  -639.2500    53.0538   149.9570     3.0000    -999.25    16.9758    51.3458    36.0122  1460.7537     0.7495  -776.9280     1.0000     0.0521     0.0001     0.0100  8243.5635     1.2362    50.9114    50.9114  2591.9749     1.0000     1.0000     1.0000 -1379.4436     0.0000     0.0001    19.0000
  1460.9060  2515.1423 2515142.5000    -999.25  -639.2500    12.6157    12.6157  -639.2500    49.8544   150.1773     3.0000    -999.25    17.0439    47.3912    33.7559  1460.9060     0.7748  -777.0139     1.0000     0.0518     0.0001     0.0100  8251.7793     1.2392    47.0904    47.0904  2217.5046     1.0000     1.0000     1.0000 -1379.5961     0.0000     0.0001    19.0000
  1461.0584  2515.1416 2515141.5000    -999.25  -639.2500    12.6832    12.6832  -639.2500    47.5365   150.2173     3.0000    -999.25    16.5568    44.6606    31.6965  1461.0585     0.8159  -777.0997     1.0000     0.0514     0.0001     0.0100  8251.7764     1.2396    44.4678    44.4678  1977.3843     1.0000     1.0000     1.0000 -1379.7484     0.0000     0.0001    19.0000
  1461.2108  2510.5598 2510559.7500    -999.25  -639.2500    12.7722    12.7722  -639.2500    46.0956   150.1710     3.0000    -999.25    16.1252    42.9388    30.3107  1461.2108     0.8667  -777.1855     1.0000     0.0511     0.0001     0.0100  8236.7451     1.2369    42.8709    42.8709  1837.9124     1.0000     1.0000     1.0000 -1379.9009     0.0000     0.0001    19.0000
  1461.3632  2503.3579 2503358.0000    -999.25  -639.2500    12.8302    12.8302  -639.2500    45.3434   150.2231     3.0000    -999.25    16.1681    42.3403    29.7842  1461.3633     0.9210  -777.2714     1.0000     0.0508     0.0001     0.0100  8213.1162     1.2338    42.3314    42.3314  1791.9508     1.0000     1.0000     1.0000 -1380.0532     0.0000     0.0001    19.0000
  1461.5156  2495.8088 2495808.7500    -999.25  -639.2500    12.8559    12.8559  -639.2500    45.3020   150.4638     3.0000    -999.25    16.9534    42.2462    29.8903  1461.5156     0.9716  -777.3572     1.0000     0.0505     0.0001     0.0100  8188.3491     1.2321    42.2134    42.2134  1781.9719     1.0000     1.0000     1.0000 -1380.2057     0.0000     0.0001    19.0000
  1461.6680  2493.2942 2493294.2500    -999.25  -639.2500    12.8740    12.8740  -639.2500    45.1389   150.7635     3.0000    -999.25    18.5728    41.8447    30.4790  1461.6681     1.0060  -777.4430     1.0000     0.0501     0.0001     0.0100  8180.0991     1.2333    41.6200    41.6200  1732.2262     1.0000     1.0000     1.0000 -1380.3580     0.0000     0.0001    19.0000
  1461.8204  2503.6541 2503654.0000    -999.25  -639.2500    12.9202    12.9202  -639.2500    43.2377   150.9431     3.0000    -999.25    19.6001    39.6796    30.4334  1461.8204     1.0142  -777.5288     1.0000     0.0498     0.0001     0.0100  8214.0879     1.2399    39.2902    39.2902  1543.7183     1.0000     1.0000     1.0000 -1380.5104     0.0000     0.0001    19.0000
  1461.9728  2519.3850 2519385.0000    -999.25  -639.2500    12.9606    12.9606  -639.2500    39.3842   150.9745     3.0000    -999.25    19.9179    36.0960    28.8608  1461.9728     0.9929  -777.6147     1.0000     0.0495     0.0001     0.0100  8265.6992     1.2479    35.7520    35.7520  1278.2041     1.0000     1.0000     1.0000 -1380.6628     0.0000     0.0001    19.0000
  1462.1252  2528.1760 2528176.0000    -999.25  -639.2500    12.9476    12.9476  -639.2500    35.6218   150.8848     3.0000    -999.25    20.2939    32.9576    26.5062  1462.1252     0.9420  -777.7005    -999.25     0.0492     0.0001     0.0100  8294.5400     1.2515    32.7070    32.7070  1069.7491     1.0000     1.0000     1.0000 -1380.8152     0.0000     0.0001    19.0000
  1462.2776  2531.8635 2531863.5000    -999.25  -639.2500    12.8991    12.8991  -639.2500    33.5970   150.6783     3.0000    -999.25    20.3809    30.6762    24.1832  1462.2776     0.8823  -777.7863    -999.25     0.0488     0.0001     0.0100  8306.6387     1.2516    30.5017    30.5017   930.3531     1.0000     1.0000     1.0000 -1380.9677     0.0000     0.0001    19.0000
  1462.4300  2529.5969 2529596.7500    -999.25  -639.2500    12.8547    12.8547  -639.2500    32.7879   150.4795     3.0000    -999.25    20.9463    29.1191    22.4840  1462.4301     0.8399  -777.8722    -999.25     0.0485     0.0001     0.0100  8299.2021     1.2489    29.0607    29.0607   844.5237     1.0000     1.0000     1.0000 -1381.1200     0.0000     0.0001    19.0000
  1462.5824  2535.9961 2535996.0000    -999.25  -639.2500    12.8112    12.8112  -639.2500    33.0720   150.3354     3.0000    -999.25    23.1700    28.5580    21.8912  1462.5824     0.8353  -777.9580    -999.25     0.0482     0.0001     0.0100  8320.1973     1.2508    28.4601    28.4601   809.9756     1.0000     1.0000     1.0000 -1381.2725     0.0000     0.0001    19.0000
  1462.7348  2576.1550 2576155.0000    -999.25  -639.2500    12.7296    12.7296  -639.2500    34.1453   150.1050     3.0000    -999.25    26.2915    27.4842    21.4883  1462.7349     0.8700  -778.0438    -999.25     0.0479     0.0001     0.0100  8451.9521     1.2687    27.0597    27.0597   732.2269     1.0000     1.0000     1.0000 -1381.4248     0.0000     0.0001    19.0000
  1462.8872  2658.3643 2658364.2500    -999.25  -639.2500    12.6721    12.6721  -639.2500    32.6964   149.8406     3.0000    -999.25    28.8950    23.4839    19.4468  1462.8872     0.9236  -778.1297    -999.25     0.0476     0.0001     0.0100  8721.6680     1.3069    22.9248    22.9248   525.5474     1.0000     1.0000     1.0000 -1381.5773     0.0000     0.0001    19.0000
  1463.0396  2746.2778 2746277.7500    -999.25  -639.2500    12.7073    12.7073  -639.2500    25.1069   149.9063     3.0000    -999.25    30.5030    18.4417    16.2941  1463.0397     0.9698  -778.2155    -999.25     0.0472     0.0001     0.0100  9010.0977     1.3507    18.1479    18.1479   329.3466     1.0000     1.0000     1.0000 -1381.7296     0.0000     0.0001    19.0000
  1463.1920  2790.8894 2790889.5000    -999.25  -639.2500    12.8066    12.8066  -639.2500    18.9152   150.5188     3.0000    -999.25    31.5202    15.8552    14.4376  1463.1920     0.9785  -778.3013    -999.25     0.0469     0.0001     0.0100  9156.4609     1.3782    15.8252    15.8252   250.4382     1.0000     1.0000     1.0000 -1381.8821     0.0000     0.0001    19.0000
