~Version ---------------------------------------------------
VERS. 2.0 : CWLS log ASCII Standard -VERSION 2.0
WRAP.  NO : 
~Well ------------------------------------------------------
STRT.m                                                1187.6524 : 
STOP.m                                                1658.2636 : 
STEP.m                                                   0.1524 : 
NULL.                                                   -999.25 : 
COMP.                                                           : COMPANY
WELL.                                                   Well-19 : WELL
FLD .                                                           : FIELD
LOC .                                                           : LOCATION
SRVC.                                                           : SERVICE COMPANY
DATE. 2021-01-20 14:34:11   : Log Export Date {yyyy-MM-dd HH:mm : ss}
PROV.                                                           : PROVINCE
UWI .                                                   Well-19 : UNIQUE WELL ID
API .                                                           : API NUMBER
~Curve Information -----------------------------------------
DEPTH             .m        : DEPTH
ACOUSTICIMPEDANCE1.kPa.s/m  : ACOUSTICIMPEDANCE1
AI                .kPa.s/m  : AI
AVG_PIGN          .m3/m3    : AVG_PIGN
CALI              .in       : CALI
NPHI              .m3/m3    : NPHI
DT                .us/ft    : DT
DT4P              .us/ft    : DT4P
FACIES            ._        : FACIES
FLD1              ._        : FLD1
GR                .gAPI     : GR
M2R2              .ohm.m    : M2R2
LLS               .ohm.m    : LLS
LLD               .ohm.m    : LLD
DEPTH_1           .m        : DEPTH_1
NPHI_1            .m3/m3    : NPHI_1
PEF               .b/e      : PEF
PERF_INT          ._        : PERF_INT
PERMEABILITY      .mD       : PERMEABILITY
PIGN              .m3/m3    : PIGN
PIGN_MODELLING    .m3/m3    : PIGN_MODELLING
PIMP              .kPa.s/m  : PIMP
RHOB              .g/cm3    : RHOB
LLD_1             .ohm.m    : LLD_1
RT_MODELLING      .ohm.m    : RT_MODELLING
RT_POWER          .ohm.m    : RT_POWER
SP                .mV       : SP
SPDH              .mV       : SPDH
SUWI              ._        : SUWI
SUWI_MODELLING    ._        : SUWI_MODELLING
TDVSS             .m        : TDVSS
TEMP              .K        : TEMP
VCL               .%        : VCL
WATER_VOL         ._        : WATER_VOL
RHOB_1            .g/cm3    : RHOB_1
ZLT               ._        : ZLT
~Params ----------------------------------------------------
~Other -----------------------------------------------------
~ASCII -----------------------------------------------------
# ...
  1434.0832  6374.4155 6374415.5000    -999.25     8.9863     0.4408   112.3632   112.3632     0.0000    -999.25    78.7640     1.6595     1.8973     2.0423  1434.0831     0.4408     5.6364    -999.25     1.2178     0.0794     0.0794 20913.4375     2.3499     1.7806     1.7806     3.1706   -41.5588   328.3228     1.0000     1.0000 -1293.5327   154.5840    52.0630     0.0794     2.3499     2.0000
  1434.2356  6561.9648 6561965.0000    -999.25     9.0378     0.4519   110.5405   110.5405     0.0000    -999.25    77.0577     1.8333     2.0747     2.2272  1434.2356     0.4519     5.9491    -999.25     1.0309     0.0764     0.0764 21528.7559     2.3798     1.9417     1.9417     3.7702   -42.7920   326.7380     1.0000     1.0000 -1293.6709   154.5917    53.9790     0.0764     2.3798     2.0000
  1434.3880  6476.7188 6476718.5000    -999.25     9.0798     0.4543   112.2119   112.2119     0.0000    -999.25    76.3612     2.0316     2.2736     2.4316  1434.3879     0.4543     6.0276    -999.25     0.9846     0.0759     0.0759 21249.0762     2.3844     2.1199     2.1199     4.4940   -44.2874   324.7532     1.0000     1.0000 -1293.8092   154.5994    54.3100     0.0759     2.3844     2.0000
  1434.5404  6425.0781 6425078.0000    -999.25     9.1693     0.4551   112.4592   112.4592     0.0000    -999.25    76.4345     2.1771     2.4075     2.5586  1434.5404     0.4551     5.9215    -999.25     0.8955     0.0743     0.0743 21079.6523     2.3706     2.2308     2.2308     4.9766   -46.0417   322.3975     1.0000     1.0000 -1293.9475   154.6072    55.2940     0.0743     2.3706     2.0000
  1434.6928  6295.1113 6295111.0000    -999.25     9.3195     0.4565   114.1128   114.1128     0.0000    -999.25    77.0845     2.2095     2.4193     2.5502  1434.6927     0.4565     5.9161    -999.25     0.7050     0.0691     0.0691 20653.2520     2.3568     2.2238     2.2238     4.9452   -47.9341   319.9162     1.0000     1.0000 -1294.0857   154.6149    58.3910     0.0691     2.3568     2.0000
  1434.8452  5933.4302 5933430.0000    -999.25     9.4690     0.4654   120.3290   120.3290     0.0000    -999.25    80.9138     2.1501     2.3456     2.4357  1434.8451     0.4654     5.9836    -999.25     0.5273     0.0641     0.0641 19466.6348     2.3424     2.1242     2.1242     4.5122   -49.7297   317.4525     1.0000     1.0000 -1294.2240   154.6226    61.3000     0.0641     2.3424     2.0000
  1434.9976  5723.8691 5723869.0000    -999.25     9.5800     0.5089   123.3659   123.3659     0.0000    -999.25    88.3638     1.8557     1.9976     2.0571  1434.9976     0.5089     5.9941    -999.25     0.1684     0.0487     0.0487 18779.0977     2.3167     1.7946     1.7946     3.2207   -51.3622   314.8018     1.0000     1.0000 -1294.3623   154.6303    70.5850     0.0487     2.3167     2.0000
  1435.1500  5412.3359 5412336.0000    -999.25     9.6718     0.5665   128.1184   128.1184     0.0000    -999.25    95.7639     1.4195     1.5306     1.5649  1435.1499     0.5665     5.9599    -999.25     0.0209     0.0289     0.0289 17757.0078     2.2750     1.3657     1.3657     1.8651   -53.0315   311.9362     1.0000     1.0000 -1294.5005   154.6380    82.5190     0.0289     2.2750     2.0000
  1435.3024  5192.3901 5192390.5000    -999.25     9.7325     0.5804   133.4046   133.4046     0.0000    -999.25   100.8536     1.1565     1.2470     1.2674  1435.3024     0.5804     5.9689    -999.25     0.0163     0.0276     0.0276 17035.4023     2.2726     1.1058     1.1058     1.2229   -54.6133   309.4199     1.0000     1.0000 -1294.6388   154.6457    83.1900     0.0276     2.2726     2.0000
  1435.4548  5150.8286 5150829.0000    -999.25     9.7206     0.5636   136.3746   136.3746     0.0000    -999.25   104.6395     1.0751     1.1548     1.1677  1435.4547     0.5636     6.0387    -999.25     0.0192     0.0270     0.0270 16899.0449     2.3046     1.0185     1.0185     1.0373   -55.6928   307.6428     1.0000     1.0000 -1294.7771   154.6534    83.4810     0.0270     2.3046     2.0000
  1435.6072  5177.3101 5177310.0000    -999.25     9.6396     0.5644   137.0252   137.0252     0.0000    -999.25   107.6376     1.0895     1.1610     1.1695  1435.6072     0.5644     6.1062    -999.25     0.0353     0.0327     0.0327 16985.9238     2.3275     1.0198     1.0198     1.0400   -56.3146   306.4729     1.0000     1.0000 -1294.9153   154.6612    79.9560     0.0327     2.3275     2.0000
  1435.7596  5217.5801 5217580.0000    -999.25     9.5367     0.5780   136.4992   136.4992     0.0000    -999.25   108.8235     1.1450     1.2063     1.2114  1435.7595     0.5780     6.1677    -999.25     0.0295     0.0321     0.0321 17118.0449     2.3366     1.0562     1.0562     1.1157   -56.9230   305.7957     1.0000     1.0000 -1295.0536   154.6689    80.3350     0.0321     2.3366     2.0000
  1435.9120  5384.7114 5384711.5000    -999.25     9.4572     0.5573   132.7210   132.7210     0.0000    -999.25   108.1900     1.2263     1.2754     1.2784  1435.9120     0.5573     6.0883    -999.25     0.0904     0.0436     0.0436 17666.3770     2.3447     1.1146     1.1146     1.2424   -57.6225   305.4152     1.0000     1.0000 -1295.1919   154.6766    73.3520     0.0436     2.3447     2.0000
  1436.0644  5585.8364 5585836.5000    -999.25     9.4216     0.5009   128.4716   128.4716     0.0000    -999.25   108.0249     1.3128     1.3482     1.3496  1436.0643     0.5009     5.8847    -999.25     0.3348     0.0578     0.0578 18326.2344     2.3544     1.1767     1.1767     1.3846   -58.1549   304.9695     1.0000     1.0000 -1295.3302   154.6843    64.5650     0.0578     2.3544     2.0000
  1436.2168  5696.7822 5696782.0000    -999.25     9.4183     0.4571   126.3601   126.3601     0.0000    -999.25   109.9512     1.3758     1.3973     1.3984  1436.2168     0.4571     5.7010    -999.25     0.7139     0.0674     0.0674 18690.2305     2.3617     1.2193     1.2193     1.4867   -58.7382   304.3389     1.0000     1.0000 -1295.4684   154.6920    58.5710     0.0674     2.3617     2.0000
  1436.3692  5777.2432 5777243.0000    -999.25     9.4179     0.4561   124.8588   124.8588     0.0000    -999.25   111.9699     1.4247     1.4342     1.4354  1436.3691     0.4561     5.6215    -999.25     0.8663     0.0716     0.0716 18954.2090     2.3666     1.2516     1.2516     1.5665   -59.5853   303.7322     1.0000     1.0000 -1295.6067   154.6997    55.9500     0.0716     2.3666     2.0000
  1436.5216  5843.4624 5843462.5000    -999.25     9.4138     0.4608   123.8090   123.8090     0.0000    -999.25   111.8680     1.4733     1.4728     1.4755  1436.5216     0.4608     5.5804    -999.25     0.8635     0.0722     0.0722 19171.4648     2.3736     1.2866     1.2866     1.6552   -60.2856   303.3356     1.0000     1.0000 -1295.7450   154.7074    55.6870     0.0722     2.3736     2.0000
  1436.6740  5858.5005 5858500.5000    -999.25     9.4102     0.4426   123.9594   123.9594     0.0000    -999.25   111.6372     1.5127     1.5034     1.5081  1436.6740     0.4426     5.5214    -999.25     1.1145     0.0755     0.0755 19220.8027     2.3826     1.3150     1.3150     1.7292   -60.4872   303.0772     1.0000     1.0000 -1295.8832   154.7151    53.5990     0.0755     2.3826     2.0000
  1436.8264  5901.0107 5901010.5000    -999.25     9.4096     0.4385   123.4074   123.4074     0.0000    -999.25   112.6537     1.5426     1.5257     1.5334  1436.8263     0.4385     5.4521    -999.25     1.2432     0.0776     0.0776 19360.2715     2.3892     1.3371     1.3371     1.7878   -60.5059   302.7272     1.0000     1.0000 -1296.0215   154.7229    52.3540     0.0776     2.3892     2.0000
  1436.9788  6012.2563 6012256.5000    -999.25     9.4074     0.4678   121.3977   121.3977     0.0000    -999.25   112.4343     1.5943     1.5693     1.5807  1436.9788     0.4678     5.3896    -999.25     0.9668     0.0757     0.0757 19725.2500     2.3946     1.3783     1.3783     1.8996   -60.5995   302.2581     1.0000     1.0000 -1296.1598   154.7306    53.6830     0.0757     2.3946     2.0000
  1437.1312  6021.5093 6021509.0000    -999.25     9.4044     0.4793   121.5300   121.5300     0.0000    -999.25   111.4503     1.6813     1.6467     1.6633  1437.1311     0.4793     5.3352    -999.25     0.9566     0.0773     0.0773 19755.6074     2.4009     1.4502     1.4502     2.1031   -60.6030   301.9104     1.0000     1.0000 -1296.2980   154.7383    52.8120     0.0773     2.4009     2.0000
