~Version ---------------------------------------------------
VERS. 2.0 : CWLS log ASCII Standard -VERSION 2.0
WRAP.  NO : 
~Well ------------------------------------------------------
STRT.m                                                1235.3544 : 
STOP.m                                                1623.2124 : 
STEP.m                                                   0.1524 : 
NULL.                                                   -999.25 : 
COMP.                                                           : COMPANY
WELL.                                                   Well-20 : WELL
FLD .                                                           : FIELD
LOC .                                                           : LOCATION
SRVC.                                                           : SERVICE COMPANY
DATE. 2021-01-20 14:34:13   : Log Export Date {yyyy-MM-dd HH:mm : ss}
PROV.                                                           : PROVINCE
UWI .                                                   Well-20 : UNIQUE WELL ID
API .                                                           : API NUMBER
~Curve Information -----------------------------------------
DEPTH             .m        : DEPTH
ACOUSTICIMPEDANCE1.kPa.s/m  : ACOUSTICIMPEDANCE1
AI                .kPa.s/m  : AI
AVG_PIGN          .m3/m3    : AVG_PIGN
BIT               .m        : BIT
CALI              .in       : CALI
NPHI              .m3/m3    : NPHI
DT                .us/ft    : DT
DTDS              .us/ft    : DTDS
FACIES            ._        : FACIES
FLD1              ._        : FLD1
GR                .gAPI     : GR
M2R1              .ohm.m    : M2R1
LLD               .ohm.m    : LLD
NPHI_1            .m3/m3    : NPHI_1
PEF               .b/e      : PEF
PERF_INT          ._        : PERF_INT
PERMEABILITY      .mD       : PERMEABILITY
PHIT              .m3/m3    : PHIT
PIGN              .m3/m3    : PIGN
PIGN_MODELLING    .m3/m3    : PIGN_MODELLING
PIMP              .kPa.s/m  : PIMP
RHOB              .g/cm3    : RHOB
LLD_1             .ohm.m    : LLD_1
RT_MODELLING      .ohm.m    : RT_MODELLING
RT_POWER          .ohm.m    : RT_POWER
SP                .mV       : SP
SUWI              ._        : SUWI
SUWI_MODELLING    ._        : SUWI_MODELLING
TDVSS             .m        : TDVSS
TEMP              .K        : TEMP
TH                .kg/kg    : TH
U                 .kg/kg    : U
VCL               .%        : VCL
WATER_VOL         ._        : WATER_VOL
RHOB_1            .g/cm3    : RHOB_1
ZLT               ._        : ZLT
~Params ----------------------------------------------------
~Other -----------------------------------------------------
~ASCII -----------------------------------------------------
# ...
  1616.3544  6649.1172 6649117.0000    -999.25     0.2159     8.5325     0.5074   116.8708   116.8708    -999.25    -999.25    78.5090     2.2026     2.1053     0.5074     5.3343    -999.25    -999.25     0.6617    -999.25    -999.25 21814.6875     2.5495    -999.25    -999.25    -999.25   249.5779    -999.25    -999.25 -1535.8544   162.9906     0.0000     0.0000    -999.25    -999.25     2.5495    24.0000
  1616.5068  6933.5293 6933529.0000    -999.25     0.2159     8.5339     0.5286   114.4858   114.4858    -999.25    -999.25    80.2504     2.3059     2.2028     0.5286     5.7414    -999.25    -999.25     0.6515    -999.25    -999.25 22747.7988     2.6043    -999.25    -999.25    -999.25   249.8028    -999.25    -999.25 -1536.0068   162.9984     0.0000     0.0000    -999.25    -999.25     2.6043    24.0000
  1616.6592  7350.5312 7350531.5000    -999.25     0.2159     8.5345     0.5148   110.8604   110.8604    -999.25    -999.25    83.2065     2.4735     2.3568     0.5148     6.0247    -999.25    -999.25     0.6323    -999.25    -999.25 24115.9160     2.6735    -999.25    -999.25    -999.25   249.9861    -999.25    -999.25 -1536.1592   163.0062     0.0000     0.0000    -999.25    -999.25     2.6735    24.0000
  1616.8116  7426.7573 7426757.5000    -999.25     0.2159     8.5377     0.4887   110.1740   110.1740    -999.25    -999.25    84.3264     2.5145     2.3933     0.4887     5.8035    -999.25    -999.25     0.6281    -999.25    -999.25 24366.0020     2.6845    -999.25    -999.25    -999.25   250.0757    -999.25    -999.25 -1536.3116   163.0141     0.0000     0.0000    -999.25    -999.25     2.6845    24.0000
  1616.9640  7095.8687 7095868.5000    -999.25     0.2159     8.5369     0.4853   112.0556   112.0556    -999.25    -999.25    83.1732     2.3844     2.2720     0.4853     5.5480    -999.25    -999.25     0.6280    -999.25    -999.25 23280.4082     2.6087    -999.25    -999.25    -999.25   250.1048    -999.25    -999.25 -1536.4640   163.0219     0.0000     0.0000    -999.25    -999.25     2.6087    24.0000
  1617.1164  6753.4746 6753618.0000    -999.25     0.2159     8.5305     0.4982   114.4375   114.4375    -999.25    -999.25    82.2959     2.3553     2.2432     0.4982     5.7114    -999.25    -999.25     0.6336    -999.25    -999.25 22157.5391     2.5356    -999.25    -999.25    -999.25   250.1027    -999.25    -999.25 -1536.6165   163.0297     0.0000     0.0000    -999.25    -999.25     2.5356    24.0000
  1617.2688  6758.3511 6758351.0000    -999.25     0.2159     8.5243     0.5024   114.6481   114.6481    -999.25    -999.25    82.7320     2.5940     2.4598     0.5024     6.0492    -999.25    -999.25     0.6374    -999.25    -999.25 22173.0684     2.5421    -999.25    -999.25    -999.25   250.0630    -999.25    -999.25 -1536.7688   163.0375     0.0000     0.0000    -999.25    -999.25     2.5421    24.0000
  1617.4212  7025.1353 7025053.5000    -999.25     0.2159     8.5212     0.5030   112.7369   112.7369    -999.25    -999.25    83.2268     2.9908     2.8247     0.5030     6.0716    -999.25    -999.25     0.6323    -999.25    -999.25 23048.0762     2.5984    -999.25    -999.25    -999.25   249.9548    -999.25    -999.25 -1536.9211   163.0454     0.0000     0.0000    -999.25    -999.25     2.5984    24.0000
  1617.5736  7170.1274 7170127.5000    -999.25     0.2159     8.5206     0.5111   110.8313   110.8313    -999.25    -999.25    82.2480     3.1496     2.9820     0.5111     5.7471    -999.25    -999.25     0.6152    -999.25    -999.25 23524.0391     2.6072    -999.25    -999.25    -999.25   249.7661    -999.25    -999.25 -1537.0736   163.0532     0.0000     0.0000    -999.25    -999.25     2.6072    24.0000
  1617.7260  7024.3530 7024359.5000    -999.25     0.2159     8.5230     0.5079   110.6059   110.6059    -999.25    -999.25    81.6189     2.9989     2.8612     0.5079     5.5799    -999.25    -999.25     0.5982    -999.25    -999.25 23045.7988     2.5490    -999.25    -999.25    -999.25   249.5551    -999.25    -999.25 -1537.2260   163.0610    -999.25    -999.25    -999.25    -999.25     2.5490    24.0000
  1617.8784  6686.7759 6686775.5000    -999.25     0.2159     8.5255     0.4909   113.7010   113.7010    -999.25    -999.25    82.5907     2.8617     2.7446     0.4909     5.6278    -999.25    -999.25     0.6157    -999.25    -999.25 21938.2402     2.4944    -999.25    -999.25    -999.25   249.4088    -999.25    -999.25 -1537.3784   163.0688    -999.25    -999.25    -999.25    -999.25     2.4944    24.0000
  1618.0308  6518.2310 6518302.0000    -999.25     0.2159     8.5259     0.4823   116.2950   116.2950    -999.25    -999.25    83.2526     2.8911     2.7766     0.4823     5.7011    -999.25    -999.25     0.6401    -999.25    -999.25 21385.5059     2.4870    -999.25    -999.25    -999.25   249.3695    -999.25    -999.25 -1537.5308   163.0767    -999.25    -999.25    -999.25    -999.25     2.4870    24.0000
  1618.1832  6642.2065 6642206.5000    -999.25     0.2159     8.5253     0.4803   115.6295   115.6295    -999.25    -999.25    82.9096     3.0959     2.9641     0.4803     5.9511    -999.25    -999.25     0.6417    -999.25    -999.25 21792.0156     2.5198    -999.25    -999.25    -999.25   249.3712    -999.25    -999.25 -1537.6832   163.0845    -999.25    -999.25    -999.25    -999.25     2.5198    24.0000
  1618.3356  6884.0127 6884012.5000    -999.25     0.2159     8.5257     0.4690   113.3877   113.3877    -999.25    -999.25    -999.25     3.4352     3.2684     0.4690     6.0735    -999.25    -999.25     0.6294    -999.25    -999.25 22585.3438     2.5609    -999.25    -999.25    -999.25   249.2339    -999.25    -999.25 -1537.8356   163.0923    -999.25    -999.25    -999.25    -999.25     2.5609    24.0000
  1618.4880  7054.4644 7054464.5000    -999.25     0.2159     8.5274     0.4667   111.2356   111.2356    -999.25    -999.25    -999.25     3.6993     3.5024     0.4667     5.7675    -999.25    -999.25     0.6110    -999.25    -999.25 23144.5684     2.5745    -999.25    -999.25    -999.25   248.8655    -999.25    -999.25 -1537.9880   163.1001    -999.25    -999.25    -999.25    -999.25     2.5745    24.0000
  1618.6404  7052.8682 7052868.0000    -999.25     0.2159     8.5293     0.4759   110.1069   110.1069    -999.25    -999.25    -999.25     3.6429     3.4607     0.4759     5.3518    -999.25    -999.25     0.5928    -999.25    -999.25 23139.3301     2.5478    -999.25    -999.25    -999.25   248.4186    -999.25    -999.25 -1538.1404   163.1080    -999.25    -999.25    -999.25    -999.25     2.5478    24.0000
  1618.7928  6891.8047 6891804.5000    -999.25     0.2159     8.5321     0.4730   110.6634   110.6634    -999.25    -999.25    -999.25     3.3653     3.2250     0.4730     5.1552    -999.25    -999.25     0.5869    -999.25    -999.25 22610.9082     2.5022    -999.25    -999.25    -999.25   248.0732    -999.25    -999.25 -1538.2928   163.1158    -999.25    -999.25    -999.25    -999.25     2.5022    24.0000
  1618.9452  6713.7666 6713766.5000    -999.25     0.2159     8.5371     0.4710   112.4948   112.4948    -999.25    -999.25    -999.25     3.1088     2.9991     0.4710     5.2604    -999.25    -999.25     0.5993    -999.25    -999.25 22026.7930     2.4779    -999.25    -999.25    -999.25   247.8802    -999.25    -999.25 -1538.4452   163.1236    -999.25    -999.25    -999.25    -999.25     2.4779    24.0000
  1619.0976  6770.1851 6770261.0000    -999.25     0.2159     8.5397     0.4944   112.8630   112.8630    -999.25    -999.25    -999.25     2.9556     2.8567     0.4944     5.5839    -999.25    -999.25     0.6104    -999.25    -999.25 22212.1426     2.5069    -999.25    -999.25    -999.25   247.9401    -999.25    -999.25 -1538.5977   163.1314    -999.25    -999.25    -999.25    -999.25     2.5069    24.0000
  1619.2500  7021.8169 7021816.5000    -999.25     0.2159     8.5369     0.5184   111.9351   111.9351    -999.25    -999.25    -999.25     2.8836     2.7768     0.5184     5.6956    -999.25    -999.25     0.6192    -999.25    -999.25 23037.4570     2.5787    -999.25    -999.25    -999.25   248.3251    -999.25    -999.25 -1538.7500   163.1393    -999.25    -999.25    -999.25    -999.25     2.5787    24.0000
