~Version ---------------------------------------------------
VERS. 2.0 : CWLS log ASCII Standard -VERSION 2.0
WRAP.  NO : 
~Well ------------------------------------------------------
STRT.m                                                1235.3544 : 
STOP.m                                                1623.2124 : 
STEP.m                                                   0.1524 : 
NULL.                                                   -999.25 : 
COMP.                                                           : COMPANY
WELL.                                                   Well-20 : WELL
FLD .                                                           : FIELD
LOC .                                                           : LOCATION
SRVC.                                                           : SERVICE COMPANY
DATE. 2021-01-20 14:34:13   : Log Export Date {yyyy-MM-dd HH:mm : ss}
PROV.                                                           : PROVINCE
UWI .                                                   Well-20 : UNIQUE WELL ID
API .                                                           : API NUMBER
~Curve Information -----------------------------------------
DEPTH             .m        : DEPTH
ACOUSTICIMPEDANCE1.kPa.s/m  : ACOUSTICIMPEDANCE1
AI                .kPa.s/m  : AI
AVG_PIGN          .m3/m3    : AVG_PIGN
BIT               .m        : BIT
CALI              .in       : CALI
NPHI              .m3/m3    : NPHI
DT                .us/ft    : DT
DTDS              .us/ft    : DTDS
FACIES            ._        : FACIES
FLD1              ._        : FLD1
GR                .gAPI     : GR
M2R1              .ohm.m    : M2R1
LLD               .ohm.m    : LLD
NPHI_1            .m3/m3    : NPHI_1
PEF               .b/e      : PEF
PERF_INT          ._        : PERF_INT
PERMEABILITY      .mD       : PERMEABILITY
PHIT              .m3/m3    : PHIT
PIGN              .m3/m3    : PIGN
PIGN_MODELLING    .m3/m3    : PIGN_MODELLING
PIMP              .kPa.s/m  : PIMP
RHOB              .g/cm3    : RHOB
LLD_1             .ohm.m    : LLD_1
RT_MODELLING      .ohm.m    : RT_MODELLING
RT_POWER          .ohm.m    : RT_POWER
SP                .mV       : SP
SUWI              ._        : SUWI
SUWI_MODELLING    ._        : SUWI_MODELLING
TDVSS             .m        : TDVSS
TEMP              .K        : TEMP
TH                .kg/kg    : TH
U                 .kg/kg    : U
VCL               .%        : VCL
WATER_VOL         ._        : WATER_VOL
RHOB_1            .g/cm3    : RHOB_1
ZLT               ._        : ZLT
~Params ----------------------------------------------------
~Other -----------------------------------------------------
~ASCII -----------------------------------------------------
# ...
  1311.5544  5080.0933 5080093.0000    -999.25     0.2159     8.8902     0.5499   141.5974   141.5974     0.0000    -999.25    80.0157     0.8962     0.8825     0.5499     4.4539    -999.25    -999.25     0.8641     0.0199     0.0199 16666.9727     2.3600     0.7695     0.7695     0.5922   250.8091     1.0000     1.0000 -1231.0544   147.3409     0.0000     0.0000    91.3530     0.0199     2.3600     0.0000
  1311.7068  4789.3345 4789334.5000    -999.25     0.2159     9.0290     0.5584   145.3697   145.3697     0.0000    -999.25    82.3134     0.8322     0.8204     0.5584     4.1303    -999.25    -999.25     0.8831     0.0227     0.0227 15713.0400     2.2842     0.7154     0.7154     0.5118   250.9153     1.0000     1.0000 -1231.2068   147.3487     0.0000     0.0000    90.1630     0.0227     2.2842     0.0000
  1311.8592  4708.4536 4708496.5000    -999.25     0.2159     9.1415     0.5121   144.8696   144.8696     0.0000    -999.25    83.0164     0.8317     0.8153     0.5121     4.1591    -999.25    -999.25     0.8663     0.0368     0.0368 15447.8232     2.2379     0.7110     0.7110     0.5054   251.0847     1.0000     1.0000 -1231.3593   147.3565     0.0000     0.0000    83.9450     0.0368     2.2379     0.0000
  1312.0116  4727.0698 4727070.0000    -999.25     0.2159     9.1985     0.4689   143.3190   143.3190     0.0000    -999.25    83.5543     0.8810     0.8540     0.4689     4.3668    -999.25    -999.25     0.8468     0.0412     0.0412 15508.7598     2.2227     0.7447     0.7447     0.5546   251.1418     1.0000     1.0000 -1231.5116   147.3643     0.0000     0.0000    81.9180     0.0412     2.2227     0.0000
  1312.1640  4754.8633 4754863.5000    -999.25     0.2159     9.2182     0.4661   142.1287   142.1287     0.0000    -999.25    85.3837     0.9550     0.9130     0.4661     4.6109    -999.25    -999.25     0.8334     0.0313     0.0313 15599.9453     2.2172     0.7961     0.7961     0.6338   250.8635     1.0000     1.0000 -1231.6639   147.3721     0.0000     0.0000    86.1730     0.0313     2.2172     0.0000
  1312.3164  4757.2642 4757264.5000    -999.25     0.2159     9.2037     0.5053   141.5316   141.5316     0.0000    -999.25    87.0693     1.0287     0.9701     0.5053     4.7479    -999.25    -999.25     0.8252     0.0195     0.0195 15607.8223     2.2090     0.8459     0.8459     0.7156   250.3057     1.0000     1.0000 -1231.8164   147.3800     0.0000     0.0000    91.3480     0.0195     2.2090     0.0000
  1312.4688  4802.3057 4802305.5000    -999.25     0.2159     9.1285     0.5678   139.9947   139.9947     0.0000    -999.25    86.5216     1.0837     1.0112     0.5678     4.7706    -999.25    -999.25     0.8088     0.0181     0.0181 15755.5957     2.2057     0.8818     0.8818     0.7775   249.8243     1.0000     1.0000 -1231.9688   147.3878     0.0000     0.0000    91.9780     0.0181     2.2057     0.0000
  1312.6212  4885.8423 4885842.0000    -999.25     0.2159     9.0230     0.5964   138.2125   138.2125     0.0000    -999.25    86.3766     1.1105     1.0292     0.5964     4.7876    -999.25    -999.25     0.7933     0.0217     0.0217 16029.6660     2.2155     0.8975     0.8975     0.8054   249.6295     1.0000     1.0000 -1232.1212   147.3956     0.0000     0.0000    90.3290     0.0217     2.2155     0.0000
  1312.7736  4909.1016 4909101.5000    -999.25     0.2159     8.9595     0.5370   139.2899   139.2899     0.0000    -999.25    89.8747     1.1169     1.0297     0.5370     4.8142    -999.25    -999.25     0.8112     0.0383     0.0383 16105.9766     2.2434     0.8979     0.8979     0.8062   249.6302     1.0000     1.0000 -1232.2736   147.4034     0.0000     0.0000    83.0070     0.0383     2.2434     0.0000
  1312.9260  4930.7983 4930798.5000    -999.25     0.2159     8.9509     0.4818   139.3446   139.3446     0.0000    -999.25    93.7538     1.1251     1.0302     0.4818     4.8143    -999.25    -999.25     0.8145     0.0390     0.0390 16177.1602     2.2542     0.8983     0.8983     0.8070   249.6034     1.0000     1.0000 -1232.4260   147.4113     0.0000     0.0000    82.6490     0.0390     2.2542     0.0000
  1313.0784  5089.9761 5089976.0000    -999.25     0.2159     8.9572     0.4981   136.1187   136.1187     0.0000    -999.25    92.2215     1.1500     1.0432     0.4981     4.8650    -999.25    -999.25     0.7867     0.0311     0.0311 16699.3965     2.2731     0.9097     0.9097     0.8275   249.4057     1.0000     1.0000 -1232.5784   147.4191     0.0000     0.0000    86.2730     0.0311     2.2731     0.0000
  1313.2308  5319.5518 5319552.0000    -999.25     0.2159     8.9610     0.5412   132.9888   132.9888     0.0000    -999.25    84.9970     1.1830     1.0627     0.5412     5.0474    -999.25    -999.25     0.7671     0.0383     0.0383 17452.5977     2.3210     0.9267     0.9267     0.8587   249.0969     1.0000     1.0000 -1232.7308   147.4269     0.0000     0.0000    83.3950     0.0383     2.3210     0.0000
  1313.3832  5547.3594 5547359.5000    -999.25     0.2159     8.9619     0.5324   130.2967   130.2967     0.0000    -999.25    76.3648     1.2037     1.0753     0.5324     5.1024    -999.25    -999.25     0.7526     0.0490     0.0490 18199.9980     2.3714     0.9377     0.9377     0.8792   248.8765     1.0000     1.0000 -1232.8832   147.4348     0.0000     0.0000    78.7470     0.0490     2.3714     0.0000
  1313.5356  5512.1313 5512131.0000    -999.25     0.2159     8.9657     0.5005   130.7092   130.7092     0.0000    -999.25    70.0921     1.2071     1.0794     0.5005     4.9525    -999.25    -999.25     0.7548     0.0474     0.0474 18084.4199     2.3638     0.9412     0.9412     0.8859   248.8323     1.0000     1.0000 -1233.0356   147.4426     0.0000     0.0000    79.4030     0.0474     2.3638     0.0000
  1313.6880  5191.0107 5191010.5000    -999.25     0.2159     8.9770     0.4922   134.5615   134.5615     0.0000    -999.25    67.8570     1.1762     1.0606     0.4922     4.8827    -999.25    -999.25     0.7756     0.0393     0.0393 17030.8750     2.2917     0.9248     0.9248     0.8553   248.9657     1.0000     1.0000 -1233.1880   147.4504     0.0000     0.0000    82.7270     0.0393     2.2917     0.0000
  1313.8404  4927.7461 4927810.0000    -999.25     0.2159     8.9956     0.5004   137.3897   137.3897     0.0000    -999.25    70.8288     1.0800     0.9879     0.5004     4.8874    -999.25    -999.25     0.7864     0.0364     0.0364 16167.3564     2.2212     0.8614     0.8614     0.7421   249.3314     1.0000     1.0000 -1233.3405   147.4582     0.0000     0.0000    83.9770     0.0364     2.2212     0.0000
  1313.9928  4933.4814 4933481.5000    -999.25     0.2159     9.0263     0.5076   135.4507   135.4507     0.0000    -999.25    76.5782     0.9594     0.8888     0.5076     4.8818    -999.25    -999.25     0.7595     0.0334     0.0334 16185.9629     2.1924     0.7750     0.7750     0.6007   249.7872     1.0000     1.0000 -1233.4928   147.4660     0.0000     0.0000    85.2200     0.0334     2.1924     0.0000
  1314.1452  5060.7485 5060748.5000    -999.25     0.2159     9.0761     0.5229   132.3094   132.3094     0.0000    -999.25    82.0208     0.8838     0.8236     0.5229     4.9398    -999.25    -999.25     0.7288     0.0233     0.0233 16603.5059     2.1968     0.7182     0.7182     0.5158   250.0410     1.0000     1.0000 -1233.6451   147.4739     0.0000     0.0000    89.6260     0.0233     2.1968     0.0000
  1314.2976  5145.2905 5145290.5000    -999.25     0.2159     9.1387     0.5642   130.8937   130.8937     0.0000    -999.25    87.3704     0.8666     0.8069     0.5642     4.9508    -999.25    -999.25     0.7177     0.0178     0.0178 16880.8750     2.2096     0.7036     0.7036     0.4951   250.0461     1.0000     1.0000 -1233.7976   147.4817     0.0000     0.0000    92.0000     0.0178     2.2096     0.0000
  1314.4500  5155.6455 5155645.5000    -999.25     0.2159     9.1885     0.5952   131.0269   131.0269     0.0000    -999.25    91.3521     0.8866     0.8214     0.5952     4.9416    -999.25    -999.25     0.7207     0.0174     0.0174 16914.8477     2.2163     0.7163     0.7163     0.5130   249.9704     1.0000     1.0000 -1233.9500   147.4895     0.0000     0.0000    92.1980     0.0174     2.2163     0.0000
