~Version ---------------------------------------------------
VERS. 2.0 : CWLS log ASCII Standard -VERSION 2.0
WRAP.  NO : 
~Well ------------------------------------------------------
STRT.m                                                  1335.18 : 
STOP.m                                                1589.7801 : 
STEP.m                                                   0.1524 : 
NULL.                                                   -999.25 : 
COMP.                                                           : COMPANY
WELL.                                                   Well-13 : WELL
FLD .                                                           : FIELD
LOC .                                                           : LOCATION
SRVC.                                                           : SERVICE COMPANY
DATE. 2021-01-20 14:34:06   : Log Export Date {yyyy-MM-dd HH:mm : ss}
PROV.                                                           : PROVINCE
UWI .                                                   Well-13 : UNIQUE WELL ID
API .                                                           : API NUMBER
~Curve Information -----------------------------------------
DEPTH             .m        : DEPTH
ACOUSTICIMPEDANCE1.kPa.s/m  : ACOUSTICIMPEDANCE1
AI                .kPa.s/m  : AI
AVG_PIGN          .m3/m3    : AVG_PIGN
CALI              .in       : CALI
CALI[DERIVED]1    .in       : CALI[DERIVED]1
DT                .us/ft    : DT
FACIES            ._        : FACIES
FLD1              ._        : FLD1
GR                .gAPI     : GR
LLD               .ohm.m    : LLD
LLS               .ohm.m    : LLS
NPHI              .m3/m3    : NPHI
PEF               .b/e      : PEF
PERF_INT          ._        : PERF_INT
PERMEABILITY      .mD       : PERMEABILITY
PHIT              .m3/m3    : PHIT
PIGN              .m3/m3    : PIGN
PIGN_MODELLING    .m3/m3    : PIGN_MODELLING
PIMP              .kPa.s/m  : PIMP
RHOB              .g/cm3    : RHOB
RT_MODELLING      .ohm.m    : RT_MODELLING
RT_POWER          .ohm.m    : RT_POWER
SP                .mV       : SP
SUWI              ._        : SUWI
SUWI_MODELLING    ._        : SUWI_MODELLING
SXWI              ._        : SXWI
TDVSS             .m        : TDVSS
TEMP              .K        : TEMP
VCL               .%        : VCL
WATER_VOL         ._        : WATER_VOL
ZLT               ._        : ZLT
~Params ----------------------------------------------------
~Other -----------------------------------------------------
~ASCII -----------------------------------------------------
# ...
  1485.5080  2564.3445 2564344.5000    -999.25     9.6510     9.6510   150.9532     3.0000    -999.25    32.3287    12.5790     9.7960     0.7091     2.7910    -999.25     0.0004     0.0166     0.0001     0.0100  8413.2031     1.2700    12.5790   158.2312   445.0190     1.0000     1.0000     1.0000 -1422.1481   160.1551     8.2850     0.0001    19.0000
  1485.6600  2704.3525 2704352.5000    -999.25     9.9500     9.9500   151.4785     3.0000    -999.25    37.4010     9.7520     7.5250     0.6871     2.6490    -999.25     0.0004     0.0276     0.0001     0.0100  8872.5479     1.3440     9.7520    95.1015   445.5980     1.0000     1.0000     1.0000 -1422.3000   160.1633    13.7790     0.0001    19.0000
  1485.8120  2822.4966 2822496.5000    -999.25    10.0730    10.0730   152.4812     3.0000    -999.25    42.6880     7.8880     6.3670     0.6402     2.4410    -999.25     0.0004     0.0369     0.0001     0.0100  9260.1592     1.4120     7.8880    62.2205   446.0490     1.0000     1.0000     1.0000 -1422.4520   160.1715    18.4470     0.0001    19.0000
  1485.9641  2946.4612 2946461.2500    -999.25     9.8230     9.8230   152.0658     3.0000    -999.25    46.0299     7.3490     6.3880     0.6005     2.2800    -999.25     0.0005     0.0418     0.0001     0.0100  9666.8672     1.4700     7.3490    54.0078   446.4600     1.0000     1.0000     1.0000 -1422.6041   160.1797    20.8840     0.0001    19.0000
  1486.1161  3098.6396 3098639.5000    -999.25     9.3090     9.3090   150.6963     3.0000    -999.25    47.1037     7.5840     7.1450     0.5930     2.1950    -999.25     0.0005     0.0472     0.0001     0.0100 10166.1406     1.5320     7.5840    57.5171   446.7610     1.0000     1.0000     1.0000 -1422.7561   160.1879    23.6020     0.0001    19.0000
  1486.2680  3232.2053 3232205.2500    -999.25     8.9200     8.9200   149.0898     3.0000    -999.25    48.1652     7.9250     7.9800     0.6070     2.1520    -999.25     0.0005     0.0549     0.0001     0.0100 10604.3486     1.5810     7.9250    62.8056   446.9590     1.0000     1.0000     1.0000 -1422.9081   160.1961    27.4760     0.0001    19.0000
  1486.4200  3316.8574 3316857.5000    -999.25     8.8130     8.8130   147.3064     3.0000    -999.25    50.2523     8.0530     8.5490     0.6129     2.1440    -999.25     0.0005     0.0595     0.0001     0.0100 10882.0781     1.6030     8.0530    64.8508   447.1650     1.0000     1.0000     1.0000 -1423.0601   160.2043    29.7390     0.0001    19.0000
  1486.5720  3348.4937 3348493.7500    -999.25     8.8170     8.8170   147.2801     3.0000    -999.25    51.5152     7.9270     8.6470     0.6037     2.1410    -999.25     0.0005     0.0612     0.0001     0.0100 10985.8721     1.6180     7.9270    62.8373   447.5350     1.0000     1.0000     1.0000 -1423.2120   160.2125    30.6210     0.0001    19.0000
  1486.7241  3347.3840 3347384.0000    -999.25     8.8230     8.8230   148.5126     3.0000    -999.25    51.1339     7.6740     8.3910     0.6016     2.1350    -999.25     0.0005     0.0646     0.0001     0.0100 10982.2305     1.6310     7.6740    58.8903   448.1320     1.0000     1.0000     1.0000 -1423.3640   160.2207    32.2940     0.0001    19.0000
  1486.8761  3347.0007 3347000.7500    -999.25     8.8210     8.8210   149.0760     3.0000    -999.25    50.5369     7.5460     8.1770     0.6183     2.1160    -999.25     0.0005     0.0695     0.0001     0.0100 10980.9736     1.6370     7.5460    56.9421   448.7350     1.0000     1.0000     1.0000 -1423.5160   160.2289    34.7430     0.0001    19.0000
  1487.0280  3346.7080 3346708.0000    -999.25     8.8160     8.8160   149.1801     3.0000    -999.25    50.4007     7.6700     8.2410     0.6353     2.0760    -999.25     0.0005     0.0723     0.0001     0.0100 10980.0137     1.6380     7.6700    58.8289   449.0170     1.0000     1.0000     1.0000 -1423.6681   160.2371    36.1340     0.0001    19.0000
  1487.1800  3343.0276 3343027.7500    -999.25     8.8130     8.8130   149.2532     3.0000    -999.25    50.2533     8.0120     8.5940     0.6433     2.0530    -999.25     0.0005     0.0714     0.0001     0.0100 10967.9385     1.6370     8.0120    64.1921   448.9130     1.0000     1.0000     1.0000 -1423.8201   160.2453    35.7020     0.0001    19.0000
  1487.3320  3330.4229 3330423.0000    -999.25     8.8100     8.8100   149.3605     3.0000    -999.25    49.8280     8.5220     9.1980     0.6262     2.0390    -999.25     0.0005     0.0657     0.0001     0.0100 10926.5840     1.6320     8.5220    72.6245   448.4510     1.0000     1.0000     1.0000 -1423.9720   160.2535    32.8240     0.0001    19.0000
  1487.4841  3269.4214 3269421.5000    -999.25     8.8100     8.8100   149.3505     3.0000    -999.25    49.0252     9.5180    10.4350     0.6006     1.9430    -999.25     0.0005     0.0549     0.0001     0.0100 10726.4482     1.6020     9.5180    90.5923   447.5350     1.0000     1.0000     1.0000 -1424.1240   160.2617    27.4760     0.0001    19.0000
  1487.6361  3113.1482 3113148.0000    -999.25     8.8080     8.8080   148.5254     3.0000    -999.25    46.2670    12.1570    13.8180     0.6287     1.7960    -999.25     0.0005     0.0433     0.0001     0.0100 10213.7402     1.5170    12.1570   147.7926   446.2280     1.0000     1.0000     1.0000 -1424.2760   160.2699    21.6480     0.0001    19.0000
  1487.7881  2893.6855 2893685.5000    -999.25     8.7990     8.7990   146.3073     3.0000    -999.25    40.5853    19.6400    24.4360     0.7194     1.8320    -999.25     0.0006     0.0300     0.0001     0.0100  9493.7188     1.3890    19.6400   385.7296   444.8340     1.0000     1.0000     1.0000 -1424.4281   160.2781    14.9860     0.0001    19.0000
  1487.9400  2715.2207 2715220.5000    -999.25     8.7920     8.7920   143.3510     3.0000    -999.25    32.9254    36.3040    58.9960     0.7526     2.0980    -999.25     0.0006     0.0150     0.0001     0.0100  8908.2041     1.2770    36.3040  1317.9805   443.5660     1.0000     1.0000     1.0000 -1424.5801   160.2863     7.4780     0.0001    19.0000
  1488.0920  2628.3149 2628315.0000    -999.25     8.7850     8.7850   141.1329     3.0000    -999.25    26.1566    53.1520   131.5640     0.6933     2.3930    -999.25     0.0006     0.0042     0.0001     0.0100  8623.0811     1.2170    53.1520  2825.1353   442.4280     1.0000     1.0000     1.0000 -1424.7321   160.2945     2.0460     0.0001    19.0000
  1488.2441  2595.4316 2595431.7500    -999.25     8.7710     8.7710   140.8071     3.0000    -999.25    22.2498    67.1890   157.8220     0.6529     2.5540    -999.25     0.0006     0.0001     0.0001     0.0100  8515.1953     1.1990    67.1890  4514.3623   441.3580     1.0000     1.0000     1.0000 -1424.8840   160.3027     0.0000     0.0001    19.0000
  1488.3961  2568.7878 2568787.7500    -999.25     8.7630     8.7630   142.1489     3.0000    -999.25    20.2096    59.6900   101.3160     0.6791     2.6150    -999.25     0.0006     0.0007     0.0001     0.0100  8427.7812     1.1980    59.6900  3562.8960   440.3820     1.0000     1.0000     1.0000 -1425.0360   160.3109     0.2910     0.0001    19.0000
  1488.5481  2543.2734 2543273.5000    -999.25     8.7670     8.7670   143.9345     3.0000    -999.25    17.9585    63.8630    91.2260     0.7255     2.6870    -999.25     0.0006     0.0026     0.0001     0.0100  8344.0732     1.2010    63.8630  4078.4827   439.5500     1.0000     1.0000     1.0000 -1425.1881   160.3191     1.3100     0.0001    19.0000
  1488.7000  2538.8857 2538885.7500    -999.25     8.7810     8.7810   144.6635     3.0000    -999.25    16.3405    65.8530    78.9350     0.7292     2.7970    -999.25     0.0006     0.0039     0.0001     0.0100  8329.6777     1.2050    65.8530  4336.6172   438.9460     1.0000     1.0000     1.0000 -1425.3401   160.3273     1.9600     0.0001    19.0000
  1488.8520  2591.3857 2591385.7500    -999.25     8.8100     8.8100   144.3203     3.0000    -999.25    17.3134    49.1660    47.2380     0.6703     2.9290    -999.25     0.0006     0.0021     0.0001     0.0100  8501.9219     1.2270    49.1660  2417.2957   438.6700     1.0000     1.0000     1.0000 -1425.4921   160.3354     1.0340     0.0001    19.0000
