~Version ---------------------------------------------------
VERS. 2.0 : CWLS log ASCII Standard -VERSION 2.0
WRAP.  NO : 
~Well ------------------------------------------------------
STRT.m                                                1235.3544 : 
STOP.m                                                1623.2124 : 
STEP.m                                                   0.1524 : 
NULL.                                                   -999.25 : 
COMP.                                                           : COMPANY
WELL.                                                   Well-20 : WELL
FLD .                                                           : FIELD
LOC .                                                           : LOCATION
SRVC.                                                           : SERVICE COMPANY
DATE. 2021-01-20 14:34:13   : Log Export Date {yyyy-MM-dd HH:mm : ss}
PROV.                                                           : PROVINCE
UWI .                                                   Well-20 : UNIQUE WELL ID
API .                                                           : API NUMBER
~Curve Information -----------------------------------------
DEPTH             .m        : DEPTH
ACOUSTICIMPEDANCE1.kPa.s/m  : ACOUSTICIMPEDANCE1
AI                .kPa.s/m  : AI
AVG_PIGN          .m3/m3    : AVG_PIGN
BIT               .m        : BIT
CALI              .in       : CALI
NPHI              .m3/m3    : NPHI
DT                .us/ft    : DT
DTDS              .us/ft    : DTDS
FACIES            ._        : FACIES
FLD1              ._        : FLD1
GR                .gAPI     : GR
M2R1              .ohm.m    : M2R1
LLD               .ohm.m    : LLD
NPHI_1            .m3/m3    : NPHI_1
PEF               .b/e      : PEF
PERF_INT          ._        : PERF_INT
PERMEABILITY      .mD       : PERMEABILITY
PHIT              .m3/m3    : PHIT
PIGN              .m3/m3    : PIGN
PIGN_MODELLING    .m3/m3    : PIGN_MODELLING
PIMP              .kPa.s/m  : PIMP
RHOB              .g/cm3    : RHOB
LLD_1             .ohm.m    : LLD_1
RT_MODELLING      .ohm.m    : RT_MODELLING
RT_POWER          .ohm.m    : RT_POWER
SP                .mV       : SP
SUWI              ._        : SUWI
SUWI_MODELLING    ._        : SUWI_MODELLING
TDVSS             .m        : TDVSS
TEMP              .K        : TEMP
TH                .kg/kg    : TH
U                 .kg/kg    : U
VCL               .%        : VCL
WATER_VOL         ._        : WATER_VOL
RHOB_1            .g/cm3    : RHOB_1
ZLT               ._        : ZLT
~Params ----------------------------------------------------
~Other -----------------------------------------------------
~ASCII -----------------------------------------------------
# ...
  1412.1384  7075.5103 7075510.5000    -999.25     0.2159     8.9928     0.3637   105.3778   105.3778     0.0000    -999.25    82.5904     2.7406     2.6112     0.3637     5.2133    -999.25     0.0208     0.5192     0.0175     0.0175 23213.6172     2.4462     2.2770     2.2770     5.1846   247.2311     1.0000     1.0000 -1331.6384   152.5053     0.0000     0.0000    63.5950     0.0175     2.4462     4.0000
  1412.2908  7492.3550 7492355.0000    -999.25     0.2159     8.9939     0.3684   100.8046   100.8046     0.0000    -999.25    78.1147     2.9347     2.7100     0.3684     5.4509    -999.25     0.0331     0.4809     0.0205     0.0205 24581.2168     2.4779     2.3631     2.3631     5.5844   245.3878     1.0000     1.0000 -1331.7908   152.5131     0.0000     0.0000    56.5230     0.0205     2.4779     4.0000
  1412.4432  8103.7993 8103799.5000    -999.25     0.2159     8.9892     0.3855    94.6769    94.6769     0.0000    -999.25    70.2518     3.1709     2.8597     0.3855     5.2932    -999.25     0.0467     0.4288     0.0235     0.0235 26587.2676     2.5172     2.4937     2.4937     6.2183   243.7083     1.0000     1.0000 -1331.9432   152.5209     0.0000     0.0000    51.9930     0.0235     2.5172     4.0000
  1412.5956  8445.0098 8445010.0000    -999.25     0.2159     8.9847     0.3840    91.0140    91.0140     0.0000    -999.25    64.1464     3.1991     2.8750     0.3840     4.7322    -999.25     0.1134     0.3929     0.0314     0.0314 27706.7246     2.5217     2.5070     2.5070     6.2849   242.3960     1.0000     1.0000 -1332.0956   152.5287     0.0000     0.0000    51.8500     0.0314     2.5217     4.0000
  1412.7480  8293.7412 8293741.0000    -999.25     0.2159     8.9907     0.3656    91.3473    91.3473     0.0000    -999.25    65.9048     2.9055     2.6580     0.3656     4.2722    -999.25     0.0993     0.3871     0.0293     0.0293 27210.4355     2.4856     2.3177     2.3177     5.3719   241.6885     1.0000     1.0000 -1332.2480   152.5366     0.0000     0.0000    58.8130     0.0293     2.4856     4.0000
  1412.9004  7646.3857 7646385.5000    -999.25     0.2159     9.0025     0.3559    97.1237    97.1237     0.0000    -999.25    72.8052     2.5906     2.4180     0.3559     3.9669    -999.25     0.2397     0.4332     0.0391     0.0391 25086.5664     2.4365     2.1085     2.1085     4.4456   241.5310     1.0000     1.0000 -1332.4004   152.5444     0.0000     0.0000    61.9410     0.0391     2.4365     4.0000
  1413.0528  6937.5015 6937568.5000    -999.25     0.2159     9.0074     0.3681   105.4048   105.4048     0.0000    -999.25    79.2947     2.4125     2.2821     0.3681     3.6937    -999.25     0.2217     0.5076     0.0391     0.0391 22761.0508     2.3991     1.9900     1.9900     3.9600   241.6368     1.0000     1.0000 -1332.5529   152.5522     0.0000     0.0000    66.1890     0.0391     2.3991     4.0000
  1413.2052  6631.2104 6631210.5000    -999.25     0.2159     9.0057     0.3910   109.2805   109.2805     0.0000    -999.25    82.2153     2.3234     2.2113     0.3910     3.5201    -999.25     0.2670     0.5414     0.0434     0.0434 21755.9395     2.3775     1.9282     1.9282     3.7181   241.8724     1.0000     1.0000 -1332.7052   152.5600     0.0000     0.0000    67.5110     0.0434     2.3775     4.0000
  1413.3576  6564.6919 6564710.0000    -999.25     0.2159     9.0040     0.4063   109.8678   109.8678     0.0000    -999.25    81.7722     2.2844     2.1738     0.4063     3.5213    -999.25     0.2458     0.5445     0.0435     0.0435 21537.7617     2.3663     1.8956     1.8956     3.5931   242.3199     1.0000     1.0000 -1332.8575   152.5679     0.0000     0.0000    68.1160     0.0435     2.3663     4.0000
  1413.5100  6599.7856 6599786.0000    -999.25     0.2159     9.0055     0.4125   109.2374   109.2374     0.0000    -999.25    81.4151     2.2971     2.1742     0.4125     3.7125    -999.25     0.1751     0.5378     0.0393     0.0393 21652.8398     2.3653     1.8959     1.8959     3.5945   243.1527     1.0000     1.0000 -1333.0100   152.5757     0.0000     0.0000    68.8500     0.0393     2.3653     4.0000
  1413.6624  6626.0396 6626023.5000    -999.25     0.2159     9.0064     0.4128   109.1312   109.1312     0.0000    -999.25    83.8288     2.3649     2.2186     0.4128     4.0829    -999.25     0.1762     0.5386     0.0394     0.0394 21738.9219     2.3724     1.9346     1.9346     3.7428   244.4283     1.0000     1.0000 -1333.1624   152.5835     0.0000     0.0000    68.9010     0.0394     2.3724     4.0000
  1413.8148  6616.1240 6616124.0000    -999.25     0.2159     9.0041     0.4145   109.2072   109.2072     0.0000    -999.25    85.5712     2.4784     2.2989     0.4145     4.6309    -999.25     0.3346     0.5388     0.0491     0.0491 21706.4434     2.3705     2.0047     2.0047     4.0186   245.9636     1.0000     1.0000 -1333.3148   152.5913     0.0000     0.0000    66.6670     0.0491     2.3705     4.0000
  1413.9672  6498.6719 6498685.0000    -999.25     0.2159     9.0044     0.4377   110.5055   110.5055     0.0000    -999.25    83.3006     2.5755     2.3599     0.4377     5.2340    -999.25     0.4808     0.5483     0.0583     0.0583 21321.1445     2.3561     2.0578     2.0578     4.2346   247.4936     1.0000     1.0000 -1333.4672   152.5992     0.0000     0.0000    66.5860     0.0583     2.3561     4.0000
  1414.1196  6295.1035 6295103.5000    -999.25     0.2159     9.0096     0.4890   113.7159   113.7159     0.0000    -999.25    81.4210     2.5060     2.2765     0.4890     5.5961    -999.25     0.2902     0.5789     0.0551     0.0551 20653.2266     2.3486     1.9851     1.9851     3.9405   248.9626     1.0000     1.0000 -1333.6196   152.6070     0.0000     0.0000    71.6890     0.0551     2.3486     4.0000
  1414.2720  6174.0854 6174085.5000    -999.25     0.2159     9.0117     0.5248   116.2361   116.2361     0.0000    -999.25    84.6568     2.2351     2.0209     0.5248     5.7658    -999.25     0.1691     0.6059     0.0500     0.0500 20256.1855     2.3545     1.7622     1.7622     3.1053   250.4572     1.0000     1.0000 -1333.7720   152.6148     0.0000     0.0000    76.2190     0.0500     2.3545     4.0000
  1414.4244  6198.7979 6198797.5000    -999.25     0.2159     9.0217     0.5064   117.0954   117.0954     0.0000    -999.25    91.3187     1.9631     1.7592     0.5064     6.2598    -999.25     0.1623     0.6215     0.0461     0.0461 20337.2637     2.3814     1.5340     1.5340     2.3532   251.9292     1.0000     1.0000 -1333.9244   152.6226     0.0000     0.0000    75.0060     0.0461     2.3814     4.0000
  1414.5768  6645.4004 6645400.5000    -999.25     0.2159     9.0864     0.4705   113.2485   113.2485     0.0000    -999.25    94.7487     1.8805     1.6503     0.4705     7.3219    -999.25     0.0496     0.6047     0.0277     0.0277 21802.4961     2.4691     1.4391     1.4391     2.0710   253.1473     1.0000     1.0000 -1334.0768   152.6305     0.0000     0.0000    67.7010     0.0277     2.4691     4.0000
  1414.7292  8113.9609 8113961.0000    -999.25     0.2159     9.1455     0.4569    99.3178    99.3178     0.0000    -999.25    88.5191     2.1091     1.7758     0.4569     8.5589    -999.25     0.0219     0.5079     0.0194     0.0194 26620.6055     2.6439     1.5486     1.5486     2.3980   253.9446     1.0000     1.0000 -1334.2292   152.6383     0.0000     0.0000    55.4160     0.0194     2.6439     4.0000
  1414.8816 10181.0059 10181006.0000    -999.25     0.2159     9.0803     0.4556    84.9793    84.9793     0.0000    -999.25    72.9915     2.7156     2.1558     0.4556     8.7826    -999.25     0.0272     0.4120     0.0199     0.0199 33402.2500     2.8385     1.8799     1.8799     3.5340   254.4228     1.0000     1.0000 -1334.3816   152.6461     0.0000     0.0000    45.6050     0.0199     2.8385     4.0000
  1415.0340 10746.3105 10745777.0000    -999.25     0.2159     8.9325     0.4505    81.2833    81.2833     0.0000    -999.25    59.9521     2.9750     2.3403     0.4505     6.9802    -999.25     0.0289     0.3815     0.0200     0.0200 35255.1758     2.8658     2.0407     2.0407     4.1644   254.8407     1.0000     1.0000 -1334.5341   152.6539     0.0000     0.0000    49.9670     0.0200     2.8658     4.0000
