~Version ---------------------------------------------------
VERS. 2.0 : CWLS log ASCII Standard -VERSION 2.0
WRAP.  NO : 
~Well ------------------------------------------------------
STRT.m                                                  1335.18 : 
STOP.m                                                1589.7801 : 
STEP.m                                                   0.1524 : 
NULL.                                                   -999.25 : 
COMP.                                                           : COMPANY
WELL.                                                   Well-13 : WELL
FLD .                                                           : FIELD
LOC .                                                           : LOCATION
SRVC.                                                           : SERVICE COMPANY
DATE. 2021-01-20 14:34:06   : Log Export Date {yyyy-MM-dd HH:mm : ss}
PROV.                                                           : PROVINCE
UWI .                                                   Well-13 : UNIQUE WELL ID
API .                                                           : API NUMBER
~Curve Information -----------------------------------------
DEPTH             .m        : DEPTH
ACOUSTICIMPEDANCE1.kPa.s/m  : ACOUSTICIMPEDANCE1
AI                .kPa.s/m  : AI
AVG_PIGN          .m3/m3    : AVG_PIGN
CALI              .in       : CALI
CALI[DERIVED]1    .in       : CALI[DERIVED]1
DT                .us/ft    : DT
FACIES            ._        : FACIES
FLD1              ._        : FLD1
GR                .gAPI     : GR
LLD               .ohm.m    : LLD
LLS               .ohm.m    : LLS
NPHI              .m3/m3    : NPHI
PEF               .b/e      : PEF
PERF_INT          ._        : PERF_INT
PERMEABILITY      .mD       : PERMEABILITY
PHIT              .m3/m3    : PHIT
PIGN              .m3/m3    : PIGN
PIGN_MODELLING    .m3/m3    : PIGN_MODELLING
PIMP              .kPa.s/m  : PIMP
RHOB              .g/cm3    : RHOB
RT_MODELLING      .ohm.m    : RT_MODELLING
RT_POWER          .ohm.m    : RT_POWER
SP                .mV       : SP
SUWI              ._        : SUWI
SUWI_MODELLING    ._        : SUWI_MODELLING
SXWI              ._        : SXWI
TDVSS             .m        : TDVSS
TEMP              .K        : TEMP
VCL               .%        : VCL
WATER_VOL         ._        : WATER_VOL
ZLT               ._        : ZLT
~Params ----------------------------------------------------
~Other -----------------------------------------------------
~ASCII -----------------------------------------------------
# ...
  1352.6600  5280.4282 5280428.0000    -999.25    10.0290    10.0290   131.2612     0.0000    -999.25    92.9417     1.0120     1.0870     0.5345     4.2540    -999.25    -999.25     0.1947     0.0483     0.0483 17324.2402     2.2740     1.0120     1.0241   445.9970     1.0000     1.0000     1.0000 -1289.3000   152.9892    73.2000     0.0483     0.0000
  1352.8120  5221.7305 5221730.5000    -999.25    10.0400    10.0400   133.2037     0.0000    -999.25    92.6168     1.0440     1.1000     0.5174     4.2950    -999.25    -999.25     0.1951     0.0450     0.0450 17131.6621     2.2820     1.0440     1.0899   445.9170     1.0000     1.0000     1.0000 -1289.4520   152.9974    75.0320     0.0450     0.0000
  1352.9641  5118.1582 5118158.5000    -999.25    10.1340    10.1340   135.8992     0.0000    -999.25    89.9302     1.0180     1.0500     0.5102     4.2880    -999.25    -999.25     0.1956     0.0402     0.0402 16791.8574     2.2820     1.0180     1.0363   445.9840     1.0000     1.0000     1.0000 -1289.6040   153.0056    77.6830     0.0402     0.0000
  1353.1161  4951.9790 4951979.0000    -999.25    10.2680    10.2680   140.0289     0.0000    -999.25    86.5764     0.9500     0.9640     0.5189     4.1870    -999.25    -999.25     0.1962     0.0348     0.0348 16246.6504     2.2750     0.9500     0.9025   446.1590     1.0000     1.0000     1.0000 -1289.7560   153.0138    80.7070     0.0348     0.0000
  1353.2680  4807.9956 4807996.0000    -999.25    10.3160    10.3160   143.7785     0.0000    -999.25    82.9651     0.8940     0.8990     0.5423     4.0440    -999.25    -999.25     0.1968     0.0297     0.0297 15774.2646     2.2680     0.8940     0.7992   446.2930     1.0000     1.0000     1.0000 -1289.9081   153.0220    83.5410     0.0297     0.0000
  1353.4200  4753.9756 4753975.5000    -999.25    10.2760    10.2760   145.2199     0.0000    -999.25    79.7431     0.8680     0.8730     0.5498     3.9440    -999.25    -999.25     0.1969     0.0285     0.0285 15597.0322     2.2650     0.8680     0.7534   446.3950     1.0000     1.0000     1.0000 -1290.0601   153.0302    84.1920     0.0285     0.0000
  1353.5720  4779.4478 4779447.5000    -999.25    10.2430    10.2430   144.4460     0.0000    -999.25    78.8556     0.8620     0.8720     0.5213     3.9380    -999.25    -999.25     0.1965     0.0320     0.0320 15680.6025     2.2650     0.8620     0.7430   446.5440     1.0000     1.0000     1.0000 -1290.2120   153.0384    82.2410     0.0320     0.0000
  1353.7241  4830.4639 4830464.0000    -999.25    10.2150    10.2150   142.7942     0.0000    -999.25    80.3717     0.8700     0.8880     0.4933     4.0640    -999.25    -999.25     0.1961     0.0354     0.0354 15847.9785     2.2630     0.8700     0.7569   446.5960     1.0000     1.0000     1.0000 -1290.3640   153.0466    80.3660     0.0354     0.0000
  1353.8761  4895.3662 4895366.0000    -999.25    10.1430    10.1430   140.5898     0.0000    -999.25    81.8953     0.8920     0.9190     0.5082     4.2260    -999.25    -999.25     0.1962     0.0351     0.0351 16060.9121     2.2580     0.8920     0.7957   446.4450     1.0000     1.0000     1.0000 -1290.5161   153.0548    80.5220     0.0351     0.0000
  1354.0280  4961.0005 4961000.5000    -999.25    10.0560    10.0560   138.4840     0.0000    -999.25    83.2606     0.9240     0.9580     0.5432     4.3050    -999.25    -999.25     0.1962     0.0347     0.0347 16276.2490     2.2540     0.9240     0.8538   446.2320     1.0000     1.0000     1.0000 -1290.6681   153.0630    80.7290     0.0347     0.0000
  1354.1800  4997.9868 4997986.5000    -999.25    10.0220    10.0220   137.3982     0.0000    -999.25    86.6346     0.9560     0.9930     0.5565     4.3650    -999.25    -999.25     0.1960     0.0369     0.0369 16397.5938     2.2530     0.9560     0.9139   446.0940     1.0000     1.0000     1.0000 -1290.8201   153.0712    79.5560     0.0369     0.0000
  1354.3320  5030.5957 5030595.5000    -999.25    10.0510    10.0510   136.8105     0.0000    -999.25    91.2315     0.9850     1.0220     0.5583     4.4490    -999.25    -999.25     0.1957     0.0393     0.0393 16504.5781     2.2580     0.9850     0.9702   446.0200     1.0000     1.0000     1.0000 -1290.9720   153.0794    78.1930     0.0393     0.0000
  1354.4841  5059.8013 5059801.0000    -999.25    10.0850    10.0850   136.4425     0.0000    -999.25    93.6870     1.0080     1.0420     0.5608     4.4750    -999.25    -999.25     0.1955     0.0412     0.0412 16600.3984     2.2650     1.0080     1.0161   445.8650     1.0000     1.0000     1.0000 -1291.1240   153.0876    77.1310     0.0412     0.0000
  1354.6361  5104.6626 5104662.5000    -999.25    10.0820    10.0820   135.6614     0.0000    -999.25    93.2331     1.0250     1.0530     0.5475     4.4780    -999.25    -999.25     0.1954     0.0425     0.0425 16747.5801     2.2720     1.0250     1.0506   445.6230     1.0000     1.0000     1.0000 -1291.2760   153.0958    76.4220     0.0425     0.0000
  1354.7881  5180.8721 5180872.0000    -999.25    10.0540    10.0540   134.0777     0.0000    -999.25    93.0561     1.0380     1.0620     0.5316     4.4960    -999.25    -999.25     0.1952     0.0439     0.0439 16997.6113     2.2790     1.0380     1.0774   445.5010     1.0000     1.0000     1.0000 -1291.4280   153.1040    75.6670     0.0439     0.0000
  1354.9400  5257.7451 5257745.0000    -999.25    10.0310    10.0310   132.6391     0.0000    -999.25    95.2340     1.0570     1.0770     0.5217     4.5050    -999.25    -999.25     0.1951     0.0454     0.0454 17249.8203     2.2880     1.0570     1.1172   445.5410     1.0000     1.0000     1.0000 -1291.5801   153.1122    74.8480     0.0454     0.0000
  1355.0920  5280.8257 5280825.5000    -999.25     9.9840     9.9840   132.5788     0.0000    -999.25    97.6251     1.0870     1.1070     0.5155     4.5060    -999.25    -999.25     0.1949     0.0466     0.0466 17325.5430     2.2970     1.0870     1.1816   445.5140     1.0000     1.0000     1.0000 -1291.7321   153.1204    74.1340     0.0466     0.0000
  1355.2441  5271.0391 5271039.0000    -999.25     9.8860     9.8860   133.5189     0.0000    -999.25    98.0813     1.1330     1.1570     0.5273     4.5310    -999.25    -999.25     0.1945     0.0505     0.0505 17293.4355     2.3090     1.1330     1.2837   445.3980     1.0000     1.0000     1.0000 -1291.8840   153.1286    71.9800     0.0505     0.0000
  1355.3961  5491.3989 5491399.0000    -999.25     9.7580     9.7580   130.3257     0.0000    -999.25    97.6027     1.1980     1.2320     0.5494     4.7010    -999.25    -999.25     0.1896     0.0550     0.0550 18016.4004     2.3480     1.1980     1.4352   445.4070     1.0000     1.0000     1.0000 -1292.0360   153.1368    67.2940     0.0550     0.0000
  1355.5481  6195.1499 6195149.5000    -999.25     9.6430     9.6430   120.2935     0.0000    -999.25    97.2717     1.2920     1.3420     0.5342     5.1620    -999.25    -999.25     0.1704     0.0457     0.0457 20325.2949     2.4450     1.2920     1.6693   445.5480     1.0000     1.0000     1.0000 -1292.1881   153.1450    62.3300     0.0457     0.0000
  1355.7000  7057.5361 7057536.5000    -999.25     9.5910     9.5910   112.1157     0.0000    -999.25    94.2463     1.4310     1.5010     0.5115     5.7690    -999.25    -999.25     0.1392     0.0217     0.0217 23154.6465     2.5960     1.4310     2.0478   445.6300     1.0000     1.0000     1.0000 -1292.3401   153.1532    58.7370     0.0217     0.0000
  1355.8520  7650.2231 7650223.0000    -999.25     9.6450     9.6450   109.3662     0.0000    -999.25    87.3639     1.5480     1.6280     0.5183     5.8120    -999.25    -999.25     0.1185     0.0042     0.0100 25099.1562     2.7450     1.5480     2.3963   445.6170     1.0000     1.0000     1.0000 -1292.4921   153.1614    57.1340     0.0042     0.0000
  1356.0041  7238.4375 7238437.5000    -999.25     9.7660     9.7660   113.1035     0.0000    -999.25    83.5000     1.5110     1.5760     0.5245     5.0960    -999.25    -999.25     0.1197     0.0003     0.0100 23748.1543     2.6860     1.5110     2.2831   445.5490     1.0000     1.0000     1.0000 -1292.6440   153.1696    59.6930     0.0003     0.0000
