~Version ---------------------------------------------------
VERS. 2.0 : CWLS log ASCII Standard -VERSION 2.0
WRAP.  NO : 
~Well ------------------------------------------------------
STRT.m                                                  1335.18 : 
STOP.m                                                1589.7801 : 
STEP.m                                                   0.1524 : 
NULL.                                                   -999.25 : 
COMP.                                                           : COMPANY
WELL.                                                   Well-13 : WELL
FLD .                                                           : FIELD
LOC .                                                           : LOCATION
SRVC.                                                           : SERVICE COMPANY
DATE. 2021-01-20 14:34:06   : Log Export Date {yyyy-MM-dd HH:mm : ss}
PROV.                                                           : PROVINCE
UWI .                                                   Well-13 : UNIQUE WELL ID
API .                                                           : API NUMBER
~Curve Information -----------------------------------------
DEPTH             .m        : DEPTH
ACOUSTICIMPEDANCE1.kPa.s/m  : ACOUSTICIMPEDANCE1
AI                .kPa.s/m  : AI
AVG_PIGN          .m3/m3    : AVG_PIGN
CALI              .in       : CALI
CALI[DERIVED]1    .in       : CALI[DERIVED]1
DT                .us/ft    : DT
FACIES            ._        : FACIES
FLD1              ._        : FLD1
GR                .gAPI     : GR
LLD               .ohm.m    : LLD
LLS               .ohm.m    : LLS
NPHI              .m3/m3    : NPHI
PEF               .b/e      : PEF
PERF_INT          ._        : PERF_INT
PERMEABILITY      .mD       : PERMEABILITY
PHIT              .m3/m3    : PHIT
PIGN              .m3/m3    : PIGN
PIGN_MODELLING    .m3/m3    : PIGN_MODELLING
PIMP              .kPa.s/m  : PIMP
RHOB              .g/cm3    : RHOB
RT_MODELLING      .ohm.m    : RT_MODELLING
RT_POWER          .ohm.m    : RT_POWER
SP                .mV       : SP
SUWI              ._        : SUWI
SUWI_MODELLING    ._        : SUWI_MODELLING
SXWI              ._        : SXWI
TDVSS             .m        : TDVSS
TEMP              .K        : TEMP
VCL               .%        : VCL
WATER_VOL         ._        : WATER_VOL
ZLT               ._        : ZLT
~Params ----------------------------------------------------
~Other -----------------------------------------------------
~ASCII -----------------------------------------------------
# ...
  1454.0440  5992.7534 5992753.0000    -999.25     9.0040     9.0040   122.8304     0.0000    -999.25   103.1282     2.2270     2.2070     0.4647     4.8710    -999.25     1.5000     0.1920     0.0502     0.0502 19661.2637     2.4150     2.2270     4.9595   449.8550     1.0000     1.0000     1.0000 -1390.6840   158.4579    70.8870     0.0502    14.0000
  1454.1961  5981.0068 5981006.5000    -999.25     9.1320     9.1320   121.6447     0.0000    -999.25   104.6003     2.0860     2.0420     0.4809     4.8970    -999.25     2.5156     0.1939     0.0549     0.0549 19622.7246     2.3870     2.0860     4.3514   449.4090     1.0000     1.0000     1.0000 -1390.8361   158.4661    69.5380     0.0549    14.0000
  1454.3481  6238.1626 6238162.5000    -999.25     9.1600     9.1600   117.3142     0.0000    -999.25   102.2263     2.2010     2.1490     0.5106     5.1950    -999.25     3.7381     0.1928     0.0661     0.0661 20466.4121     2.4010     2.2010     4.8444   448.7170     1.0000     1.0000     1.0000 -1390.9880   158.4743    63.3370     0.0661    14.0000
  1454.5001  6757.8516 6757851.5000    -999.25     9.0450     9.0450   111.1791     0.0000    -999.25    95.1502     2.6470     2.5960     0.5221     5.5100    -999.25     3.5772     0.1843     0.0713     0.0713 22171.4297     2.4650     2.6470     7.0066   447.7550     0.9837     0.9837     0.9907 -1391.1401   158.4825    56.4930     0.0702    14.0000
  1454.6520  7231.9448 7231945.0000    -999.25     8.9370     8.9370   106.7567     0.0000    -999.25    87.2323     3.1560     3.1160     0.5000     5.7390    -999.25     0.3941     0.1661     0.0606     0.0606 23726.8535     2.5330     3.1560     9.9603   446.8000     0.9795     0.9795     0.9883 -1391.2920   158.4907    52.7090     0.0594    14.0000
  1454.8040  7500.1426 7500142.5000    -999.25     8.9120     8.9120   103.8332     0.0000    -999.25    82.3072     3.2900     3.2610     0.4734     5.9210    -999.25     0.0224     0.1525     0.0528     0.0528 24606.7676     2.5550     3.2900    10.8241   446.0700     0.9991     0.9991     0.9995 -1391.4441   158.4989    49.8880     0.0527    14.0000
  1454.9561  7593.3887 7593389.0000    -999.25     8.9140     8.9140   102.2370     0.0000    -999.25    79.9579     3.1590     3.1230     0.4714     5.9170    -999.25     0.0056     0.1491     0.0524     0.0524 24912.6934     2.5470     3.1590     9.9793   445.5450     1.0000     1.0000     1.0000 -1391.5961   158.5071    48.3430     0.0524    14.0000
  1455.1081  7621.7759 7621776.0000    -999.25     8.9230     8.9230   101.5763     0.0000    -999.25    78.8224     3.0960     3.0330     0.4791     5.6390    -999.25     0.0039     0.1476     0.0517     0.0517 25005.8262     2.5400     3.0960     9.5852   445.1960     1.0000     1.0000     1.0000 -1391.7480   158.5153    47.9360     0.0517    14.0000
  1455.2601  7593.4414 7593441.5000    -999.25     8.9400     8.9400   101.3533     0.0000    -999.25    78.4448     3.1060     2.9940     0.4776     5.2630    -999.25     0.0037     0.1475     0.0514     0.0514 24912.8652     2.5250     3.1060     9.6472   445.0340     1.0000     1.0000     1.0000 -1391.9000   158.5235    48.0430     0.0514    14.0000
  1455.4120  7321.2363 7321236.5000    -999.25     8.9600     8.9600   103.7477     0.0000    -999.25    79.1595     3.0720     2.9060     0.4768     4.9200    -999.25     0.0382     0.1536     0.0551     0.0551 24019.8047     2.4920     3.0720     9.4372   444.8570     1.0000     1.0000     1.0000 -1392.0521   158.5317    49.2720     0.0551    14.0000
  1455.5640  6913.5112 6913511.0000    -999.25     8.9720     8.9720   108.7200     0.0000    -999.25    80.9222     2.9070     2.7050     0.4795     4.6800    -999.25     0.3821     0.1648     0.0605     0.0605 22682.1230     2.4660     2.9070     8.4506   444.4950     1.0000     1.0000     0.9925 -1392.2041   158.5399    52.1410     0.0605    14.0000
  1455.7160  6711.2593 6711259.0000    -999.25     8.9870     8.9870   112.5414     0.0000    -999.25    83.0202     2.5490     2.3500     0.4706     4.6900    -999.25     0.9712     0.1754     0.0639     0.0639 22018.5664     2.4780     2.5490     6.4974   444.3570     1.0000     1.0000     0.9855 -1392.3560   158.5481    55.7710     0.0639    14.0000
  1455.8681  6635.1919 6635192.0000    -999.25     9.0280     9.0280   114.7503     0.0000    -999.25    84.2885     2.1530     1.9860     0.4597     4.8400    -999.25     0.8665     0.1819     0.0636     0.0636 21769.0039     2.4980     2.1530     4.6354   444.9410     1.0000     1.0000     0.9932 -1392.5081   158.5563    59.1320     0.0636    14.0000
  1456.0201  6569.5806 6569580.5000    -999.25     9.0650     9.0650   116.8243     0.0000    -999.25    84.7735     1.9270     1.7910     0.4647     4.8300    -999.25     0.3936     0.1822     0.0585     0.0585 21553.7422     2.5180     1.9270     3.7133   445.9160     1.0000     1.0000     0.9996 -1392.6600   158.5645    61.8770     0.0585    14.0000
  1456.1720  6590.3721 6590372.0000    -999.25     9.0790     9.0790   116.5944     0.0000    -999.25    86.4497     1.8740     1.7640     0.4741     4.6180    -999.25     0.0255     0.1809     0.0548     0.0548 21621.9551     2.5210     1.8740     3.5119   446.5460     1.0000     1.0000     1.0000 -1392.8120   158.5727    63.0490     0.0548    14.0000
  1456.3240  6647.3647 6647364.5000    -999.25     9.0730     9.0730   114.0817     0.0000    -999.25    90.1720     1.9370     1.8480     0.4868     4.5100    -999.25     0.0037     0.1823     0.0601     0.0601 21808.9395     2.4880     1.9370     3.7520   446.5930     1.0000     1.0000     1.0000 -1392.9640   158.5809    61.0870     0.0601    14.0000
  1456.4760  6689.6602 6689660.0000    -999.25     9.0360     9.0360   111.6746     0.0000    -999.25    92.0283     2.1250     2.0480     0.5071     4.6750    -999.25     0.0083     0.1837     0.0712     0.0712 21947.7031     2.4510     2.1250     4.5156   446.0910     1.0000     1.0000     1.0000 -1393.1161   158.5891    56.2610     0.0712    14.0000
  1456.6281  6815.5752 6815575.5000    -999.25     8.9790     8.9790   108.7617     0.0000    -999.25    88.0894     2.4540     2.3610     0.5157     4.7320    -999.25     0.1115     0.1806     0.0799     0.0799 22360.8105     2.4320     2.4540     6.0221   445.0390     1.0000     1.0000     1.0000 -1393.2681   158.5973    50.3710     0.0799    14.0000
  1456.7801  6982.9478 6982948.0000    -999.25     8.9440     8.9440   105.9802     0.0000    -999.25    81.0417     2.7940     2.6460     0.4858     4.4520    -999.25     1.1873     0.1762     0.0845     0.0845 22909.9336     2.4280     2.7940     7.8064   443.6460     1.0000     1.0000     1.0000 -1393.4200   158.6055    45.8320     0.0845    14.0000
  1456.9320  7042.4888 7042489.0000    -999.25     8.9330     8.9330   105.3439     0.0000    -999.25    75.9629     2.9990     2.7570     0.4421     4.2260    -999.25     2.6584     0.1801     0.0926     0.0926 23105.2793     2.4340     2.9990     8.9940   442.3770     0.9890     0.9890     0.9883 -1393.5720   158.6137    43.7350     0.0916    14.0000
  1457.0840  6963.4033 6963403.5000    -999.25     8.9270     8.9270   106.2339     0.0000    -999.25    73.5598     3.0630     2.7140     0.4241     4.3790     1.0000     2.3767     0.1915     0.1063     0.1063 22845.8105     2.4270     3.0630     9.3820   441.4830     0.9584     0.9584     0.9692 -1393.7241   158.6219    42.6120     0.1019    14.0000
  1457.2360  6893.2129 6893213.0000    -999.25     8.9280     8.9280   107.1388     0.0000    -999.25    71.7673     3.0380     2.5950     0.4403     4.7650     1.0000     1.8619     0.1982     0.1145     0.1145 22615.5293     2.4230     3.0380     9.2294   440.8110     0.9432     0.9432     0.9679 -1393.8761   158.6301    41.8530     0.1080    14.0000
  1457.3881  6891.5483 6891548.5000    -999.25     8.9310     8.9310   107.6512     4.0000    -999.25    70.0217     2.9850     2.4760     0.4709     5.0390     1.0000     2.0836     0.1943     0.1105     0.1105 22610.0684     2.4340     2.9850     8.9102   440.1490     0.9616     0.9616     0.9831 -1394.0281   158.6383    41.9050     0.1063    14.0000
