~Version ---------------------------------------------------
VERS. 2.0 : CWLS log ASCII Standard -VERSION 2.0
WRAP.  NO : 
~Well ------------------------------------------------------
STRT.m                                                1235.3544 : 
STOP.m                                                1623.2124 : 
STEP.m                                                   0.1524 : 
NULL.                                                   -999.25 : 
COMP.                                                           : COMPANY
WELL.                                                   Well-20 : WELL
FLD .                                                           : FIELD
LOC .                                                           : LOCATION
SRVC.                                                           : SERVICE COMPANY
DATE. 2021-01-20 14:34:13   : Log Export Date {yyyy-MM-dd HH:mm : ss}
PROV.                                                           : PROVINCE
UWI .                                                   Well-20 : UNIQUE WELL ID
API .                                                           : API NUMBER
~Curve Information -----------------------------------------
DEPTH             .m        : DEPTH
ACOUSTICIMPEDANCE1.kPa.s/m  : ACOUSTICIMPEDANCE1
AI                .kPa.s/m  : AI
AVG_PIGN          .m3/m3    : AVG_PIGN
BIT               .m        : BIT
CALI              .in       : CALI
NPHI              .m3/m3    : NPHI
DT                .us/ft    : DT
DTDS              .us/ft    : DTDS
FACIES            ._        : FACIES
FLD1              ._        : FLD1
GR                .gAPI     : GR
M2R1              .ohm.m    : M2R1
LLD               .ohm.m    : LLD
NPHI_1            .m3/m3    : NPHI_1
PEF               .b/e      : PEF
PERF_INT          ._        : PERF_INT
PERMEABILITY      .mD       : PERMEABILITY
PHIT              .m3/m3    : PHIT
PIGN              .m3/m3    : PIGN
PIGN_MODELLING    .m3/m3    : PIGN_MODELLING
PIMP              .kPa.s/m  : PIMP
RHOB              .g/cm3    : RHOB
LLD_1             .ohm.m    : LLD_1
RT_MODELLING      .ohm.m    : RT_MODELLING
RT_POWER          .ohm.m    : RT_POWER
SP                .mV       : SP
SUWI              ._        : SUWI
SUWI_MODELLING    ._        : SUWI_MODELLING
TDVSS             .m        : TDVSS
TEMP              .K        : TEMP
TH                .kg/kg    : TH
U                 .kg/kg    : U
VCL               .%        : VCL
WATER_VOL         ._        : WATER_VOL
RHOB_1            .g/cm3    : RHOB_1
ZLT               ._        : ZLT
~Params ----------------------------------------------------
~Other -----------------------------------------------------
~ASCII -----------------------------------------------------
# ...
  1387.7544  6539.9565 6539956.5000    -999.25     0.2159     9.1352     0.4416   111.1735   111.1735     0.0000    -999.25    89.5878     2.1498     2.0723     0.4416     4.8143    -999.25     0.0579     0.5625     0.0285     0.0285 21456.5508     2.3854     1.8070     1.8070     3.2654   239.7564     1.0000     1.0000 -1307.2544   151.2533     0.0000     0.0000    64.1280     0.0285     2.3854     2.0000
  1387.9068  6462.9985 6463047.5000    -999.25     0.2159     9.1450     0.4205   112.8463   112.8463     0.0000    -999.25    89.4198     2.1287     2.0514     0.4205     4.9146    -999.25     0.0593     0.5813     0.0275     0.0275 21204.2246     2.3928     1.7888     1.7888     3.1999   241.4651     1.0000     1.0000 -1307.4069   151.2611     0.0000     0.0000    62.8980     0.0275     2.3928     2.0000
  1388.0592  6710.4536 6710453.5000    -999.25     0.2159     9.1722     0.4209   110.2611   110.2611     0.0000    -999.25    85.9347     2.1581     2.0754     0.4209     5.2541    -999.25     0.0142     0.5639     0.0170     0.0170 22015.9238     2.4275     1.8098     1.8098     3.2753   243.5038     1.0000     1.0000 -1307.5592   151.2689     0.0000     0.0000    56.9900     0.0170     2.4275     2.0000
  1388.2116  7549.6265 7549643.5000    -999.25     0.2159     9.1848     0.4578   101.4651   101.4651     0.0000    -999.25    78.6582     2.3474     2.2594     0.4578     5.6124    -999.25     0.0174     0.4965     0.0190     0.0190 24769.1719     2.5132     1.9702     1.9702     3.8817   245.5079     1.0000     1.0000 -1307.7115   151.2768     0.0000     0.0000    54.5200     0.0190     2.5132     2.0000
  1388.3640  7980.7554 7980755.5000    -999.25     0.2159     9.1638     0.4943    98.6687    98.6687     0.0000    -999.25    70.5662     2.4226     2.3630     0.4943     5.5164    -999.25     0.0265     0.4861     0.0231     0.0231 26183.5801     2.5835     2.0605     2.0605     4.2456   247.0849     1.0000     1.0000 -1307.8640   151.2846     0.0000     0.0000    57.3240     0.0231     2.5835     2.0000
  1388.5164  7418.5576 7418543.5000    -999.25     0.2159     9.2434     0.4896   102.8099   102.8099     0.0000    -999.25    67.9611     2.0122     2.0118     0.4896     5.1791    -999.25     0.4202     0.5075     0.0585     0.0585 24339.0527     2.5023     1.7542     1.7542     3.0773   248.2791     1.0000     1.0000 -1308.0164   151.2924     0.0000     0.0000    63.8160     0.0585     2.5023     2.0000
  1388.6688  6467.3594 6467359.5000    -999.25     0.2159     9.4980     0.4720   113.3876   113.3876     0.0000    -999.25    72.8802     1.5405     1.5598     0.4720     5.2301    -999.25     0.3056     0.5901     0.0518     0.0518 21218.3711     2.4059     1.3601     1.3601     1.8499   249.2154     1.0000     1.0000 -1308.1688   151.3002     0.0000     0.0000    72.6500     0.0518     2.4059     2.0000
  1388.8212  5673.7256 5673725.5000    -999.25     0.2159     9.7460     0.4736   127.9803   127.9803     0.0000    -999.25    80.4088     1.3537     1.3728     0.4736     5.3986    -999.25     0.0586     0.7319     0.0301     0.0301 18614.5840     2.3823     1.1971     1.1971     1.4330   249.7942     1.0000     1.0000 -1308.3212   151.3081     0.0000     0.0000    78.9780     0.0301     2.3823     2.0000
  1388.9736  5464.5371 5464537.0000    -999.25     0.2159     9.7682     0.4789   132.7066   132.7066     0.0000    -999.25    86.9085     1.4076     1.4104     0.4789     5.3275    -999.25     0.0085     0.7790     0.0160     0.0160 17928.2715     2.3792     1.2299     1.2299     1.5127   249.8508     1.0000     1.0000 -1308.4736   151.3159     0.0000     0.0000    78.1470     0.0160     2.3792     2.0000
  1389.1260  5757.2847 5757284.5000    -999.25     0.2159     9.5164     0.4657   126.1440   126.1440     0.0000    -999.25    92.6618     1.6477     1.6163     0.4657     5.0006    -999.25     0.0063     0.7134     0.0142     0.0142 18888.7285     2.3827     1.4095     1.4095     1.9866   249.2314     1.0000     1.0000 -1308.6260   151.3237     0.0000     0.0000    70.7780     0.0142     2.3827     2.0000
  1389.2784  6312.0498 6312050.0000    -999.25     0.2159     9.1170     0.4572   117.2447   117.2447     0.0000    -999.25    95.1216     1.9936     1.9006     0.4572     4.6397    -999.25     0.0069     0.6348     0.0142     0.0142 20708.8262     2.4280     1.6574     1.6574     2.7468   247.8135     1.0000     1.0000 -1308.7784   151.3315     0.0000     0.0000    62.7220     0.0142     2.4280     2.0000
  1389.4308  6760.0010 6760001.0000    -999.25     0.2159     8.7897     0.4629   111.3106   111.3106     0.0000    -999.25    92.9807     2.3197     2.1482     0.4629     4.4381    -999.25     0.0079     0.5850     0.0149     0.0149 22178.4824     2.4687     1.8733     1.8733     3.5091   245.5206     1.0000     1.0000 -1308.9308   151.3394     0.0000     0.0000    58.9400     0.0149     2.4687     2.0000
  1389.5832  6953.7061 6953651.5000    -999.25     0.2159     8.6429     0.4596   109.3671   109.3671     0.0000    -999.25    89.4811     2.5504     2.3199     0.4596     4.4257    -999.25     0.0080     0.5720     0.0148     0.0148 22813.8184     2.4951     2.0230     2.0230     4.0924   242.4085     1.0000     1.0000 -1309.0833   151.3472     0.0000     0.0000    58.8980     0.0148     2.4951     2.0000
  1389.7356  6923.5957 6923595.5000    -999.25     0.2159     8.6059     0.4351   109.6402   109.6402     0.0000    -999.25    87.8323     2.6818     2.4215     0.4351     4.6182    -999.25     0.0074     0.5736     0.0139     0.0139 22715.2090     2.4905     2.1116     2.1116     4.4586   238.7115     1.0000     1.0000 -1309.2356   151.3550     0.0000     0.0000    61.1270     0.0139     2.4905     2.0000
  1389.8880  6777.7998 6777772.5000    -999.25     0.2159     8.5971     0.4096   110.6765   110.6765     0.0000    -999.25    87.2924     2.7164     2.4357     0.4096     5.0247    -999.25     0.1417     0.5767     0.0356     0.0356 22236.7871     2.4611     2.1239     2.1239     4.5110   234.8782     1.0000     1.0000 -1309.3879   151.3628     0.0000     0.0000    59.8060     0.0356     2.4611     2.0000
  1390.0404  6580.2690 6580269.0000    -999.25     0.2159     8.5972     0.3947   111.9052   111.9052     0.0000    -999.25    84.0378     2.6746     2.3592     0.3947     5.4243    -999.25     2.8529     0.5777     0.0953     0.0953 21588.8105     2.4159     2.0572     2.0572     4.2321   231.6954     1.0000     1.0000 -1309.5404   151.3707     0.0000     0.0000    50.3760     0.0953     2.4159     2.0000
  1390.1928  6370.6665 6370663.0000    -999.25     0.2159     8.5985     0.3890   112.9795   112.9795     0.0000    -999.25    75.4054     2.6293     2.2531     0.3890     5.6066    -999.25     5.6244     0.5747     0.1197     0.1197 20901.1250     2.3614     1.9647     1.9647     3.8600   229.9300     1.0000     1.0000 -1309.6927   151.3785     0.0000     0.0000    46.8000     0.1197     2.3614     2.0000
  1390.3452  6160.0415 6160041.5000    -999.25     0.2159     8.5977     0.3985   113.9974   113.9974     0.0000    -999.25    64.9371     2.6382     2.1800     0.3985     5.6748    -999.25     5.8133     0.5705     0.1250     0.1250 20210.1113     2.3039     1.9010     1.9010     3.6136   229.5144     1.0000     1.0000 -1309.8452   151.3863     0.0000     0.0000    45.1140     0.1250     2.3039     2.0000
  1390.4976  5990.2422 5990272.5000    -999.25     0.2159     8.5969     0.4183   114.9798   114.9798     0.0000    -999.25    59.3036     2.7167     2.1644     0.4183     5.7372    -999.25     5.4736     0.5692     0.1290     0.1290 19653.1250     2.2597     1.8874     1.8874     3.5622   229.6596     1.0000     1.0000 -1309.9976   151.3941     0.0000     0.0000    43.3310     0.1290     2.2597     2.0000
  1390.6500  5861.2300 5861230.0000    -999.25     0.2159     8.6073     0.4433   116.0909   116.0909     0.0000    -999.25    58.1906     2.8851     2.2267     0.4433     5.6377    -999.25     5.1317     0.5736     0.1344     0.1344 19229.7578     2.2324     1.9417     1.9417     3.7702   229.8871     1.0000     1.0000 -1310.1500   151.4020     0.0000     0.0000    40.9140     0.1344     2.2324     2.0000
