~Version ---------------------------------------------------
VERS. 2.0 : CWLS log ASCII Standard -VERSION 2.0
WRAP.  NO : 
~Well ------------------------------------------------------
STRT.m                                                  1335.18 : 
STOP.m                                                1589.7801 : 
STEP.m                                                   0.1524 : 
NULL.                                                   -999.25 : 
COMP.                                                           : COMPANY
WELL.                                                   Well-13 : WELL
FLD .                                                           : FIELD
LOC .                                                           : LOCATION
SRVC.                                                           : SERVICE COMPANY
DATE. 2021-01-20 14:34:06   : Log Export Date {yyyy-MM-dd HH:mm : ss}
PROV.                                                           : PROVINCE
UWI .                                                   Well-13 : UNIQUE WELL ID
API .                                                           : API NUMBER
~Curve Information -----------------------------------------
DEPTH             .m        : DEPTH
ACOUSTICIMPEDANCE1.kPa.s/m  : ACOUSTICIMPEDANCE1
AI                .kPa.s/m  : AI
AVG_PIGN          .m3/m3    : AVG_PIGN
CALI              .in       : CALI
CALI[DERIVED]1    .in       : CALI[DERIVED]1
DT                .us/ft    : DT
FACIES            ._        : FACIES
FLD1              ._        : FLD1
GR                .gAPI     : GR
LLD               .ohm.m    : LLD
LLS               .ohm.m    : LLS
NPHI              .m3/m3    : NPHI
PEF               .b/e      : PEF
PERF_INT          ._        : PERF_INT
PERMEABILITY      .mD       : PERMEABILITY
PHIT              .m3/m3    : PHIT
PIGN              .m3/m3    : PIGN
PIGN_MODELLING    .m3/m3    : PIGN_MODELLING
PIMP              .kPa.s/m  : PIMP
RHOB              .g/cm3    : RHOB
RT_MODELLING      .ohm.m    : RT_MODELLING
RT_POWER          .ohm.m    : RT_POWER
SP                .mV       : SP
SUWI              ._        : SUWI
SUWI_MODELLING    ._        : SUWI_MODELLING
SXWI              ._        : SXWI
TDVSS             .m        : TDVSS
TEMP              .K        : TEMP
VCL               .%        : VCL
WATER_VOL         ._        : WATER_VOL
ZLT               ._        : ZLT
~Params ----------------------------------------------------
~Other -----------------------------------------------------
~ASCII -----------------------------------------------------
# ...
  1436.5640  6610.9878 6610988.0000    -999.25     8.9250     8.9250   113.6951     0.0000    -999.25    80.0209     2.9460     2.4430     0.5727     5.1900    -999.25     0.0077     0.1555     0.0170     0.0170 21689.5938     2.4660     2.9460     8.6789   445.2450     0.9746     0.9746     0.9457 -1373.2040   157.5150    69.2430     0.0166    10.0000
  1436.7160  6798.5796 6798579.5000    -999.25     8.9230     8.9230   111.9029     0.0000    -999.25    78.3586     3.0410     2.4450     0.5416     4.7570    -999.25     0.0053     0.1459     0.0173     0.0173 22305.0508     2.4960     3.0410     9.2477   443.7880     0.9902     0.9902     0.9788 -1373.3561   157.5232    64.2770     0.0172    10.0000
  1436.8681  7071.8237 7071824.0000    -999.25     8.9290     8.9290   108.9584     0.0000    -999.25    73.8985     2.9670     2.3200     0.5053     4.4530    -999.25     0.0046     0.1394     0.0206     0.0206 23201.5215     2.5280     2.9670     8.8031   442.3450     1.0000     1.0000     1.0000 -1373.5081   157.5314    59.3990     0.0206    10.0000
  1437.0201  7306.0698 7306069.5000    -999.25     8.9300     8.9300   106.5914     0.0000    -999.25    71.2583     2.8290     2.1660     0.4998     4.4670    -999.25     0.0040     0.1375     0.0227     0.0227 23970.0449     2.5550     2.8290     8.0032   441.0480     1.0000     1.0000     1.0000 -1373.6600   157.5396    57.4190     0.0227    10.0000
  1437.1720  7434.8315 7434831.5000    -999.25     8.9280     8.9280   105.4423     0.0000    -999.25    72.4015     2.7090     2.0470     0.5071     4.6990    -999.25     0.0033     0.1373     0.0240     0.0240 24392.4922     2.5720     2.7090     7.3387   439.8830     1.0000     1.0000     1.0000 -1373.8120   157.5478    56.6490     0.0240    10.0000
  1437.3240  7463.6807 7463680.5000    -999.25     8.9320     8.9320   105.2797     0.0000    -999.25    73.3427     2.6380     1.9870     0.5024     4.8360    -999.25     0.0033     0.1373     0.0245     0.0245 24487.1406     2.5780     2.6380     6.9590   438.7520     1.0000     1.0000     1.0000 -1373.9641   157.5560    56.4360     0.0245    10.0000
  1437.4760  7364.7241 7364724.5000    -999.25     8.9410     8.9410   106.3219     0.0000    -999.25    72.9373     2.6440     2.0030     0.5072     4.7390    -999.25     0.0034     0.1392     0.0257     0.0257 24162.4824     2.5690     2.6440     6.9907   437.8010     1.0000     1.0000     1.0000 -1374.1161   157.5642    56.7650     0.0257    10.0000
  1437.6281  7193.2266 7193226.5000    -999.25     8.9470     8.9470   107.7974     0.0000    -999.25    73.3855     2.7280     2.0940     0.5385     4.6220    -999.25     0.0034     0.1453     0.0299     0.0299 23599.8242     2.5440     2.7280     7.4420   437.3410     1.0000     1.0000     1.0000 -1374.2681   157.5724    57.7130     0.0299    10.0000
  1437.7801  7059.7720 7059772.0000    -999.25     8.9450     8.9450   108.5831     0.0000    -999.25    73.8476     2.8450     2.2250     0.5542     4.6230    -999.25     0.0036     0.1522     0.0372     0.0372 23161.9824     2.5150     2.8450     8.0940   437.3790     1.0000     1.0000     1.0000 -1374.4200   157.5806    57.4790     0.0372    10.0000
  1437.9320  7047.8091 7047809.0000    -999.25     8.9440     8.9440   108.2485     0.0000    -999.25    72.0663     2.9690     2.3700     0.5341     4.7010    -999.25     0.0040     0.1525     0.0419     0.0419 23122.7324     2.5030     2.9690     8.8150   437.6730     1.0000     1.0000     1.0000 -1374.5721   157.5888    55.2670     0.0419    10.0000
  1438.0840  7119.5059 7119506.0000    -999.25     8.9470     8.9470   107.3724     0.0000    -999.25    68.9733     3.0940     2.5150     0.5247     4.6030    -999.25     0.0039     0.1454     0.0337     0.0337 23357.9590     2.5080     3.0940     9.5728   438.0830     1.0000     1.0000     1.0000 -1374.7240   157.5970    55.8580     0.0337    10.0000
  1438.2360  7100.4849 7100485.0000    -999.25     8.9470     8.9470   107.2308     0.0000    -999.25    69.3303     3.1250     2.5700     0.5396     4.1750    -999.25     0.0034     0.1371     0.0134     0.0134 23295.5547     2.4980     3.1250     9.7656   438.5830     1.0000     1.0000     1.0000 -1374.8760   157.6052    61.8210     0.0134    10.0000
  1438.3881  6801.0532 6801053.5000    -999.25     8.9490     8.9490   109.8903     0.0000    -999.25    77.2452     2.9370     2.4360     0.5527     3.7170    -999.25     0.0033     0.1355     0.0004     0.0100 22313.1680     2.4520     2.9370     8.6260   439.1490     1.0000     1.0000     1.0000 -1375.0281   157.6134    67.5890     0.0004    10.0000
  1438.5401  6402.7773 6402777.5000    -999.25     8.9580     8.9580   114.4884     0.0000    -999.25    91.8660     2.6860     2.2460     0.5405     3.4210    -999.25     0.0035     0.1368     0.0001     0.0100 21006.4863     2.4050     2.6860     7.2146   439.8440     1.0000     1.0000     1.0000 -1375.1801   157.6216    68.3840     0.0001    10.0000
  1438.6921  6178.6836 6178683.5000    -999.25     8.9590     8.9590   117.2102     0.0000    -999.25   105.2737     2.6590     2.2560     0.5070     2.9310    -999.25     0.0038     0.1245     0.0001     0.0100 20271.2715     2.3760     2.6590     7.0703   440.5870     1.0000     1.0000     1.0000 -1375.3320   157.6298    62.2280     0.0001    10.0000
  1438.8440  5726.3574 5726357.5000    -999.25     8.9500     8.9500   119.0168     0.0000    -999.25   108.4479     3.0850     2.6880     0.4797     2.1430    -999.25     0.0040     0.0922     0.0001     0.0100 18787.2617     2.2360     3.0850     9.5172   441.0360     1.0000     1.0000     1.0000 -1375.4840   157.6380    46.1130     0.0001    11.0000
  1438.9960  4918.3765 4918376.5000    -999.25     8.9470     8.9470   121.9603     3.0000    -999.25    99.2103     4.4520     4.0300     0.4866     1.7910    -999.25     0.0035     0.0568     0.0001     0.0100 16136.4053     1.9680     4.4520    19.8203   441.0960     1.0000     1.0000     1.0000 -1375.6361   157.6462    28.4130     0.0001    11.0000
  1439.1481  4267.5186 4267518.5000    -999.25     8.9450     8.9450   125.8477     3.0000    -999.25    84.9351     7.5760     7.2440     0.5219     2.0300    -999.25     0.0022     0.0394     0.0001     0.0100 14001.0449     1.7620     7.5760    57.3958   441.1510     1.0000     1.0000     1.0000 -1375.7881   157.6544    19.6810     0.0001    11.0000
  1439.3001  3818.8984 3818898.5000    -999.25     8.9360     8.9360   130.8943     3.0000    -999.25    74.8908    11.4100    11.7940     0.5600     2.3660    -999.25     0.0011     0.0387     0.0001     0.0100 12529.1943     1.6400    11.4100   130.1881   441.4990     1.0000     1.0000     1.0000 -1375.9401   157.6626    19.3620     0.0001    11.0000
  1439.4521  3658.7607 3658760.7500    -999.25     8.9360     8.9360   135.0405     3.0000    -999.25    71.7108    12.1820    12.8390     0.5788     2.4320    -999.25     0.0011     0.0442     0.0001     0.0100 12003.8086     1.6210    12.1820   148.4011   442.1080     1.0000     1.0000     1.0000 -1376.0920   157.6708    22.0910     0.0001    11.0000
  1439.6040  3668.4255 3668425.5000    -999.25     8.9570     8.9570   137.0942     3.0000    -999.25    70.7406    11.0790    11.0130     0.5723     2.2550    -999.25     0.0017     0.0478     0.0001     0.0100 12035.5166     1.6500    11.0790   122.7443   442.9220     1.0000     1.0000     1.0000 -1376.2441   157.6790    23.8910     0.0001    11.0000
  1439.7560  3575.6294 3575629.5000    -999.25     8.9880     8.9880   139.2883     3.0000    -999.25    68.0699    10.4450     9.6830     0.5630     2.2060    -999.25     0.0019     0.0497     0.0001     0.0100 11731.0674     1.6340    10.4450   109.0980   443.9540     1.0000     1.0000     1.0000 -1376.3961   157.6872    24.8500     0.0001    11.0000
  1439.9081  3397.1011 3397101.0000    -999.25     9.0320     9.0320   142.1221     3.0000    -999.25    64.9820     9.3130     8.0610     0.5739     2.4320    -999.25     0.0015     0.0552     0.0001     0.0100 11145.3447     1.5840     9.3130    86.7320   445.0480     1.0000     1.0000     1.0000 -1376.5481   157.6954    27.5830     0.0001    11.0000
