~Version ---------------------------------------------------
VERS. 2.0 : CWLS log ASCII Standard -VERSION 2.0
WRAP.  NO : 
~Well ------------------------------------------------------
STRT.m                                                  1335.18 : 
STOP.m                                                1589.7801 : 
STEP.m                                                   0.1524 : 
NULL.                                                   -999.25 : 
COMP.                                                           : COMPANY
WELL.                                                   Well-13 : WELL
FLD .                                                           : FIELD
LOC .                                                           : LOCATION
SRVC.                                                           : SERVICE COMPANY
DATE. 2021-01-20 14:34:06   : Log Export Date {yyyy-MM-dd HH:mm : ss}
PROV.                                                           : PROVINCE
UWI .                                                   Well-13 : UNIQUE WELL ID
API .                                                           : API NUMBER
~Curve Information -----------------------------------------
DEPTH             .m        : DEPTH
ACOUSTICIMPEDANCE1.kPa.s/m  : ACOUSTICIMPEDANCE1
AI                .kPa.s/m  : AI
AVG_PIGN          .m3/m3    : AVG_PIGN
CALI              .in       : CALI
CALI[DERIVED]1    .in       : CALI[DERIVED]1
DT                .us/ft    : DT
FACIES            ._        : FACIES
FLD1              ._        : FLD1
GR                .gAPI     : GR
LLD               .ohm.m    : LLD
LLS               .ohm.m    : LLS
NPHI              .m3/m3    : NPHI
PEF               .b/e      : PEF
PERF_INT          ._        : PERF_INT
PERMEABILITY      .mD       : PERMEABILITY
PHIT              .m3/m3    : PHIT
PIGN              .m3/m3    : PIGN
PIGN_MODELLING    .m3/m3    : PIGN_MODELLING
PIMP              .kPa.s/m  : PIMP
RHOB              .g/cm3    : RHOB
RT_MODELLING      .ohm.m    : RT_MODELLING
RT_POWER          .ohm.m    : RT_POWER
SP                .mV       : SP
SUWI              ._        : SUWI
SUWI_MODELLING    ._        : SUWI_MODELLING
SXWI              ._        : SXWI
TDVSS             .m        : TDVSS
TEMP              .K        : TEMP
VCL               .%        : VCL
WATER_VOL         ._        : WATER_VOL
ZLT               ._        : ZLT
~Params ----------------------------------------------------
~Other -----------------------------------------------------
~ASCII -----------------------------------------------------
# ...
  1569.4120  5882.7563 5882756.5000    -999.25     8.9700     8.9700   122.3810     0.0000    -999.25    88.8070     2.5380     2.6310     0.4489     5.3630    -999.25    -999.25     0.1918     0.0538     0.0538 19300.3828     2.3620     2.5380     6.4414   457.4710     1.0000     1.0000     1.0000 -1506.0520   164.6809    68.9870     0.0538    -999.25
  1569.5640  5818.2339 5818234.0000    -999.25     8.9640     8.9640   123.5810     0.0000    -999.25    86.2711     2.5350     2.6350     0.4459     5.5220    -999.25    -999.25     0.1918     0.0542     0.0542 19088.6953     2.3590     2.5350     6.4262   457.5620     1.0000     1.0000     1.0000 -1506.2041   164.6891    68.8050     0.0542    -999.25
  1569.7160  5866.7773 5866777.5000    -999.25     8.9640     8.9640   123.0780     0.0000    -999.25    83.9998     2.6770     2.7980     0.4302     5.3710    -999.25    -999.25     0.1916     0.0568     0.0568 19247.9570     2.3690     2.6770     7.1663   457.4580     1.0000     1.0000     1.0000 -1506.3561   164.6973    67.4220     0.0568    -999.25
  1569.8681  5917.7705 5917770.5000    -999.25     8.9620     8.9620   122.4810     0.0000    -999.25    84.5310     2.8220     2.9590     0.4346     5.1580    -999.25    -999.25     0.1907     0.0524     0.0524 19415.2578     2.3780     2.8220     7.9637   457.1580     1.0000     1.0000     1.0000 -1506.5081   164.7055    69.1710     0.0524    -999.25
  1570.0201  5885.4336 5885433.5000    -999.25     8.9590     8.9590   122.8950     0.0000    -999.25    86.4481     2.8110     2.9390     0.4705     5.0840    -999.25    -999.25     0.1911     0.0423     0.0423 19309.1641     2.3730     2.8110     7.9017   456.9250     1.0000     1.0000     1.0000 -1506.6600   164.7137    74.3960     0.0423    -999.25
  1570.1720  5791.8306 5791830.5000    -999.25     8.9630     8.9630   124.1970     0.0000    -999.25    87.6113     2.6990     2.8030     0.5014     5.0240    -999.25    -999.25     0.1935     0.0365     0.0365 19002.0684     2.3600     2.6990     7.2846   456.9720     1.0000     1.0000     1.0000 -1506.8121   164.7219    78.5230     0.0365    -999.25
  1570.3240  5726.4795 5726479.5000    -999.25     8.9690     8.9690   125.2950     0.0000    -999.25    89.0809     2.5980     2.6810     0.4997     4.9360    -999.25    -999.25     0.1943     0.0358     0.0358 18787.6621     2.3540     2.5980     6.7496   457.2690     1.0000     1.0000     1.0000 -1506.9641   164.7301    79.2490     0.0358    -999.25
  1570.4760  5704.3784 5704378.5000    -999.25     8.9680     8.9680   125.7270     0.0000    -999.25    92.8925     2.4910     2.5590     0.4842     4.9130    -999.25    -999.25     0.1939     0.0382     0.0382 18715.1523     2.3530     2.4910     6.2051   457.6410     1.0000     1.0000     1.0000 -1507.1160   164.7383    77.8720     0.0382    -999.25
  1570.6281  5675.0015 5675001.0000    -999.25     8.9640     8.9640   126.1630     0.0000    -999.25    97.4081     2.3420     2.4050     0.4729     4.9440    -999.25    -999.25     0.1936     0.0404     0.0404 18618.7695     2.3490     2.3420     5.4850   458.0190     1.0000     1.0000     1.0000 -1507.2681   164.7465    76.5880     0.0404    -999.25
  1570.7801  5644.5332 5644533.0000    -999.25     8.9620     8.9620   127.0600     0.0000    -999.25    99.0661     2.2110     2.2770     0.4669     4.9850    -999.25    -999.25     0.1937     0.0402     0.0402 18518.8105     2.3530     2.2110     4.8885   458.4390     1.0000     1.0000     1.0000 -1507.4200   164.7547    76.7040     0.0402    -999.25
  1570.9320  5623.3438 5623343.5000    -999.25     8.9640     8.9640   127.8640     0.0000    -999.25    96.9420     2.1560     2.2300     0.4780     5.0070    -999.25    -999.25     0.1943     0.0354     0.0354 18449.2891     2.3590     2.1560     4.6483   458.8460     1.0000     1.0000     1.0000 -1507.5720   164.7629    79.4210     0.0354    -999.25
  1571.0840  5554.8931 5554893.0000    -999.25     8.9820     8.9820   129.2750     0.0000    -999.25    93.7465     2.1440     2.2240     0.5092     5.0050    -999.25    -999.25     0.1953     0.0266     0.0266 18224.7148     2.3560     2.1440     4.5967   459.1120     1.0000     1.0000     1.0000 -1507.7240   164.7711    84.3720     0.0266    -999.25
  1571.2360  5425.9170 5425917.0000    -999.25     9.0440     9.0440   131.7300     0.0000    -999.25    92.2536     2.0860     2.1640     0.5339     5.0070    -999.25    -999.25     0.1964     0.0183     0.0183 17801.5645     2.3450     2.0860     4.3514   459.2900     1.0000     1.0000     1.0000 -1507.8761   164.7793    89.0300     0.0183    -999.25
  1571.3881  5314.5830 5314583.0000    -999.25     9.0960     9.0960   133.7440     0.0000    -999.25    92.4378     1.9830     2.0550     0.5441     5.0050    -999.25    -999.25     0.1971     0.0122     0.0122 17436.2969     2.3320     1.9830     3.9323   459.5710     1.0000     1.0000     1.0000 -1508.0281   164.7875    92.4770     0.0122    -999.25
  1571.5401  5172.6562 5172656.0000    -999.25     9.0650     9.0650   136.3530     0.0000    -999.25    91.1290     1.8970     1.9650     0.5588     5.0170    -999.25    -999.25     0.1979     0.0062     0.0100 16970.6562     2.3140     1.8970     3.5986   459.9530     1.0000     1.0000     1.0000 -1508.1801   164.7957    95.8330     0.0062    -999.25
  1571.6921  5044.6934 5044693.0000    -999.25     8.9970     8.9970   138.8450     0.0000    -999.25    86.2985     1.8180     1.8830     0.5752     5.0420    -999.25    -999.25     0.1985     0.0017     0.0100 16550.8301     2.2980     1.8180     3.3051   460.2640     1.0000     1.0000     1.0000 -1508.3320   164.8039    98.4460     0.0017    -999.25
  1571.8440  5024.7778 5024778.0000    -999.25     8.9730     8.9730   139.0920     0.0000    -999.25    81.0164     1.7350     1.7980     0.5882     5.0340    -999.25    -999.25     0.1986     0.0002     0.0100 16485.4922     2.2930     1.7350     3.0102   460.4730     1.0000     1.0000     1.0000 -1508.4841   164.8121    99.2600     0.0002    -999.25
  1571.9960  5074.6157 5074615.5000    -999.25     8.9870     8.9870   138.6870     0.0000    -999.25    79.9533     1.6920     1.7580     0.5842     5.0460    -999.25    -999.25     0.1981     0.0017     0.0100 16649.0020     2.3090     1.6920     2.8629   460.7110     1.0000     1.0000     1.0000 -1508.6361   164.8203    98.2150     0.0017    -999.25
  1572.1481  5198.8594 5198859.5000    -999.25     9.0140     9.0140   137.8350     0.0000    -999.25    82.7707     1.7290     1.8090     0.5568     5.3730    -999.25    -999.25     0.1969     0.0096     0.0100 17056.6250     2.3510     1.7290     2.9894   461.0150     1.0000     1.0000     1.0000 -1508.7880   164.8285    93.6550     0.0096    -999.25
  1572.3001  5621.8311 5621831.0000    -999.25     9.0440     9.0440   132.2900     0.0000    -999.25    84.9081     1.8870     1.9980     0.5269     6.1460    -999.25    -999.25     0.1955     0.0246     0.0246 18444.3281     2.4400     1.8870     3.5608   461.1910     1.0000     1.0000     1.0000 -1508.9401   164.8367    85.4050     0.0246    -999.25
  1572.4521  6321.3794 6321379.5000    -999.25     9.0340     9.0340   121.3630     0.0000    -999.25    83.4831     2.2430     2.4170     0.5044     6.8600    -999.25    -999.25     0.1814     0.0223     0.0223 20739.4336     2.5170     2.2430     5.0310   461.0320     1.0000     1.0000     1.0000 -1509.0920   164.8449    79.5460     0.0223    -999.25
  1572.6040  6835.1978 6835197.5000    -999.25     8.9840     8.9840   112.5520     0.0000    -999.25    79.8546     2.7680     3.0390     0.4771     6.5570    -999.25    -999.25     0.1572     0.0084     0.0100 22425.1895     2.5240     2.7680     7.6618   460.6340     1.0000     1.0000     1.0000 -1509.2440   164.8531    74.3550     0.0084    -999.25
  1572.7560  6965.7324 6965732.5000    -999.25     8.9420     8.9420   108.4300     0.0000    -999.25    77.5766     3.0790     3.3890     0.4511     5.3830    -999.25    -999.25     0.1509     0.0188     0.0188 22853.4531     2.4780     3.0790     9.4802   460.2680     1.0000     1.0000     1.0000 -1509.3960   164.8613    66.0900     0.0188    -999.25
