~Version ---------------------------------------------------
VERS. 2.0 : CWLS log ASCII Standard -VERSION 2.0
WRAP.  NO : 
~Well ------------------------------------------------------
STRT.m                                                  1335.18 : 
STOP.m                                                1589.7801 : 
STEP.m                                                   0.1524 : 
NULL.                                                   -999.25 : 
COMP.                                                           : COMPANY
WELL.                                                   Well-13 : WELL
FLD .                                                           : FIELD
LOC .                                                           : LOCATION
SRVC.                                                           : SERVICE COMPANY
DATE. 2021-01-20 14:34:06   : Log Export Date {yyyy-MM-dd HH:mm : ss}
PROV.                                                           : PROVINCE
UWI .                                                   Well-13 : UNIQUE WELL ID
API .                                                           : API NUMBER
~Curve Information -----------------------------------------
DEPTH             .m        : DEPTH
ACOUSTICIMPEDANCE1.kPa.s/m  : ACOUSTICIMPEDANCE1
AI                .kPa.s/m  : AI
AVG_PIGN          .m3/m3    : AVG_PIGN
CALI              .in       : CALI
CALI[DERIVED]1    .in       : CALI[DERIVED]1
DT                .us/ft    : DT
FACIES            ._        : FACIES
FLD1              ._        : FLD1
GR                .gAPI     : GR
LLD               .ohm.m    : LLD
LLS               .ohm.m    : LLS
NPHI              .m3/m3    : NPHI
PEF               .b/e      : PEF
PERF_INT          ._        : PERF_INT
PERMEABILITY      .mD       : PERMEABILITY
PHIT              .m3/m3    : PHIT
PIGN              .m3/m3    : PIGN
PIGN_MODELLING    .m3/m3    : PIGN_MODELLING
PIMP              .kPa.s/m  : PIMP
RHOB              .g/cm3    : RHOB
RT_MODELLING      .ohm.m    : RT_MODELLING
RT_POWER          .ohm.m    : RT_POWER
SP                .mV       : SP
SUWI              ._        : SUWI
SUWI_MODELLING    ._        : SUWI_MODELLING
SXWI              ._        : SXWI
TDVSS             .m        : TDVSS
TEMP              .K        : TEMP
VCL               .%        : VCL
WATER_VOL         ._        : WATER_VOL
ZLT               ._        : ZLT
~Params ----------------------------------------------------
~Other -----------------------------------------------------
~ASCII -----------------------------------------------------
# ...
  1419.0840  6369.9629 6369963.0000    -999.25     9.0990     9.0990   118.3320     0.0000     0.0000    69.3473     3.6820     3.9590     0.4413     3.9180    -999.25     0.0046     0.1328     0.0001     0.0100 20898.8281     2.4730     3.6820    13.5571   452.8360     1.0000     1.0000     1.0000 -1355.7240   156.5722    66.3840     0.0001     6.0000
  1419.2360  6214.9414 6214941.5000    -999.25     9.3900     9.3900   119.4690     0.0000     0.0000    77.5421     2.8680     3.0230     0.4633     4.0560    -999.25     0.0106     0.1446     0.0002     0.0100 20390.2266     2.4360     2.8680     8.2254   453.6260     1.0000     1.0000     1.0000 -1355.8760   156.5804    72.2410     0.0002     6.0000
  1419.3881  6434.4521 6434452.0000    -999.25     9.5290     9.5290   113.6880     0.0000     0.0000    81.8812     2.6040     2.7400     0.4669     4.1260    -999.25     0.0230     0.1492     0.0088     0.0100 21110.4082     2.4000     2.6040     6.7808   454.1610     1.0000     1.0000     1.0000 -1356.0281   156.5886    70.2470     0.0088     6.0000
  1419.5401  6769.0737 6769074.0000    -999.25     9.3600     9.3600   106.5370     0.0000     0.0000    80.4956     2.6460     2.8250     0.4433     4.1320    -999.25     0.8868     0.1530     0.0233     0.0233 22208.2480     2.3660     2.6460     7.0013   454.1760     1.0000     1.0000     1.0000 -1356.1801   156.5968    64.8460     0.0233     6.0000
  1419.6921  6759.2852 6759285.0000    -999.25     9.1210     9.1210   106.5560     0.0000     0.0000    78.6981     2.6860     2.9310     0.4244     4.1440    -999.25     2.5577     0.1526     0.0221     0.0221 22176.1328     2.3630     2.6860     7.2146   453.8430     1.0000     1.0000     1.0000 -1356.3320   156.6049    65.2590     0.0221     6.0000
  1419.8440  6554.2173 6554217.5000    -999.25     9.0490     9.0490   110.7270     0.0000     0.0000    79.0990     2.5940     2.8840     0.4258     4.1470    -999.25     2.9588     0.1509     0.0111     0.0111 21503.3379     2.3810     2.5940     6.7288   453.6420     1.0000     1.0000     1.0000 -1356.4840   156.6132    69.8980     0.0111     6.0000
  1419.9960  6474.6753 6474675.5000    -999.25     9.0760     9.0760   111.2870     0.0000     0.0000    80.0514     2.4630     2.7680     0.4421     4.1490    -999.25     3.1595     0.1522     0.0070     0.0100 21242.3730     2.3640     2.4630     6.0664   453.8680     1.0000     1.0000     1.0000 -1356.6361   156.6214    72.5900     0.0070     7.0000
  1420.1481  6468.5884 6468588.5000    -999.25     9.0600     9.0600   111.1090     0.0000     0.0000    81.8718     2.4240     2.7350     0.4540     4.1420    -999.25     3.2980     0.1508     0.0050     0.0100 21222.4043     2.3580     2.4240     5.8758   454.3620     1.0000     1.0000     1.0000 -1356.7881   156.6295    72.8960     0.0050     7.0000
  1420.3001  6591.4185 6591418.5000    -999.25     8.9910     8.9910   110.4720     0.0000     0.0000    85.3188     2.4910     2.7960     0.4521     4.0320    -999.25     1.1897     0.1466     0.0016     0.0100 21625.3887     2.3890     2.4910     6.2051   454.8480     1.0000     1.0000     1.0000 -1356.9401   156.6378    72.5150     0.0016     7.0000
  1420.4521  6489.3511 6489351.0000    -999.25     8.9420     8.9420   113.0550     0.0000     0.0000    88.3352     2.4990     2.7450     0.4595     3.9130    -999.25     0.1236     0.1503     0.0001     0.0100 21290.5215     2.4070     2.4990     6.2450   455.3310     1.0000     1.0000     1.0000 -1357.0920   156.6460    75.1230     0.0001     7.0000
  1420.6040  5925.2964 5925296.0000    -999.25     8.9630     8.9630   122.2740     0.0000     0.0000    89.1536     2.3410     2.4880     0.4938     3.8890    -999.25     0.0385     0.1639     0.0001     0.0100 19439.9473     2.3770     2.3410     5.4803   455.9580     1.0000     1.0000     1.0000 -1357.2440   156.6541    81.9570     0.0001     7.0000
  1420.7560  5526.8979 5526898.0000    -999.25     9.0520     9.0520   130.3710     0.0000     0.0000    87.7685     2.1290     2.2040     0.5316     4.0770    -999.25     0.0402     0.1744     0.0006     0.0100 18132.8672     2.3640     2.1290     4.5326   456.7700     1.0000     1.0000     1.0000 -1357.3960   156.6623    86.9340     0.0006     7.0000
  1420.9081  5793.0103 5793010.0000    -999.25     9.1720     9.1720   127.9600     0.0000     0.0000    84.8797     2.0260     2.0780     0.5341     4.7120    -999.25     0.0193     0.1712     0.0035     0.0100 19005.9395     2.4320     2.0260     4.1047   457.6550     1.0000     1.0000     1.0000 -1357.5480   156.6705    83.8300     0.0035     7.0000
  1421.0601  6777.2998 6777300.0000    -999.25     9.2270     9.2270   114.4130     0.0000     0.0000    80.6332     2.1730     2.2500     0.5056     5.8500    -999.25     0.0047     0.1524     0.0087     0.0100 22235.2363     2.5440     2.1730     4.7219   458.2800     1.0000     1.0000     1.0000 -1357.7001   156.6787    71.8330     0.0087     8.0000
  1421.2121  7878.8818 7878882.0000    -999.25     9.1440     9.1440   101.6660     0.0000     0.0000    74.4698     2.7840     2.9580     0.4676     6.7790    -999.25     0.0021     0.1266     0.0119     0.0119 25849.3496     2.6280     2.7840     7.7507   458.2920     1.0000     1.0000     1.0000 -1357.8521   156.6869    57.3560     0.0119     8.0000
  1421.3640  8173.7534 8173753.5000    -999.25     9.0040     9.0040    97.4390     0.0000     0.0000    67.3705     3.7040     4.0490     0.4383     6.2620    -999.25     0.0023     0.1121     0.0111     0.0111 26816.7754     2.6130     3.7040    13.7196   457.7510     1.0000     1.0000     1.0000 -1358.0040   156.6951    50.4660     0.0111     8.0000
  1421.5160  7649.2637 7649263.5000    -999.25     8.9300     8.9300   100.7730     0.0000     0.0000    63.9637     3.7130     3.9710     0.4292     5.1090    -999.25     0.0027     0.1183     0.0072     0.0100 25096.0098     2.5290     3.7130    13.7864   457.1410     1.0000     1.0000     1.0000 -1358.1560   156.7033    55.5900     0.0072     8.0000
  1421.6680  6759.5879 6759588.0000    -999.25     8.9240     8.9240   110.3840     0.0000     0.0000    68.4048     2.9170     2.9770     0.4423     4.5950    -999.25     0.0083     0.1362     0.0022     0.0100 22177.1270     2.4480     2.9170     8.5089   456.8380     1.0000     1.0000     1.0000 -1358.3081   156.7115    67.0330     0.0022     8.0000
  1421.8201  6295.8589 6295859.0000    -999.25     8.9190     8.9190   115.9970     0.0000     0.0000    77.2890     2.5530     2.5140     0.4589     4.5400    -999.25     0.0267     0.1493     0.0001     0.0100 20655.7051     2.3960     2.5530     6.5178   456.6770     1.0000     1.0000     1.0000 -1358.4601   156.7197    74.6210     0.0001     8.0000
  1421.9721  6424.3042 6424304.5000    -999.25     8.9100     8.9100   113.5829     0.0000     0.0000    82.0996     2.6660     2.5380     0.4590     4.6430    -999.25     0.0379     0.1530     0.0029     0.0100 21077.1133     2.3940     2.6660     7.1076   456.1840     0.9887     0.9887     0.9684 -1358.6121   156.7279    75.0750     0.0029     8.0000
  1422.1240  6607.9619 6607962.0000    -999.25     8.9110     8.9110   111.8098     0.0000     0.0000    79.4348     3.0200     2.7920     0.4650     4.7450    -999.25     0.0299     0.1545     0.0141     0.0141 21679.6660     2.4240     3.0200     9.1204   455.1790     0.9603     0.9603     0.8982 -1358.7640   156.7361    70.2340     0.0135     8.0000
  1422.2760  6571.5132 6571513.0000    -999.25     8.9080     8.9080   113.0793     4.0000     0.0000    73.7539     3.3540     3.0350     0.5017     4.6220    -999.25     0.0192     0.1588     0.0313     0.0313 21560.0820     2.4380     3.3540    11.2493   453.9680     0.9218     0.9218     0.8487 -1358.9160   156.7443    63.7500     0.0288     8.0000
  1422.4280  6377.7163 6377716.5000    -999.25     8.9010     8.9010   115.2251     4.0000     0.0000    70.6109     3.5650     3.1890     0.5386     4.2770    -999.25     0.0192     0.1679     0.0453     0.0453 20924.2656     2.4110     3.5650    12.7092   452.8890     0.8671     0.8671     0.8236 -1359.0681   156.7525    61.3180     0.0392     8.0000
