~Version ---------------------------------------------------
VERS. 2.0 : CWLS log ASCII Standard -VERSION 2.0
WRAP.  NO : 
~Well ------------------------------------------------------
STRT.m                                                1235.3544 : 
STOP.m                                                1623.2124 : 
STEP.m                                                   0.1524 : 
NULL.                                                   -999.25 : 
COMP.                                                           : COMPANY
WELL.                                                   Well-20 : WELL
FLD .                                                           : FIELD
LOC .                                                           : LOCATION
SRVC.                                                           : SERVICE COMPANY
DATE. 2021-01-20 14:34:13   : Log Export Date {yyyy-MM-dd HH:mm : ss}
PROV.                                                           : PROVINCE
UWI .                                                   Well-20 : UNIQUE WELL ID
API .                                                           : API NUMBER
~Curve Information -----------------------------------------
DEPTH             .m        : DEPTH
ACOUSTICIMPEDANCE1.kPa.s/m  : ACOUSTICIMPEDANCE1
AI                .kPa.s/m  : AI
AVG_PIGN          .m3/m3    : AVG_PIGN
BIT               .m        : BIT
CALI              .in       : CALI
NPHI              .m3/m3    : NPHI
DT                .us/ft    : DT
DTDS              .us/ft    : DTDS
FACIES            ._        : FACIES
FLD1              ._        : FLD1
GR                .gAPI     : GR
M2R1              .ohm.m    : M2R1
LLD               .ohm.m    : LLD
NPHI_1            .m3/m3    : NPHI_1
PEF               .b/e      : PEF
PERF_INT          ._        : PERF_INT
PERMEABILITY      .mD       : PERMEABILITY
PHIT              .m3/m3    : PHIT
PIGN              .m3/m3    : PIGN
PIGN_MODELLING    .m3/m3    : PIGN_MODELLING
PIMP              .kPa.s/m  : PIMP
RHOB              .g/cm3    : RHOB
LLD_1             .ohm.m    : LLD_1
RT_MODELLING      .ohm.m    : RT_MODELLING
RT_POWER          .ohm.m    : RT_POWER
SP                .mV       : SP
SUWI              ._        : SUWI
SUWI_MODELLING    ._        : SUWI_MODELLING
TDVSS             .m        : TDVSS
TEMP              .K        : TEMP
TH                .kg/kg    : TH
U                 .kg/kg    : U
VCL               .%        : VCL
WATER_VOL         ._        : WATER_VOL
RHOB_1            .g/cm3    : RHOB_1
ZLT               ._        : ZLT
~Params ----------------------------------------------------
~Other -----------------------------------------------------
~ASCII -----------------------------------------------------
# ...
  1463.9544  6827.4297 6827425.0000    -999.25     0.2159     8.5141     0.4635   116.0997   116.0997     4.0000    -999.25    52.4058     2.0789     2.9626     0.4635     7.7826    -999.25    13.1577     0.6668     0.2066     0.2066 22399.6895     2.6006     4.2214     4.2214    17.8200   237.1332     0.6244     0.6244 -1383.4543   155.1657     0.0000     0.0000    37.6950     0.1290     2.6006    10.0000
  1464.1068  7097.3994 7097399.5000    -999.25     0.2159     8.5386     0.4822   111.4946   111.4946     4.0000    -999.25    52.5061     2.1362     2.9897     0.4822     7.5452    -999.25    17.8429     0.6191     0.2149     0.2149 23285.4316     2.5962     4.2988     4.2988    18.4795   236.6797     0.6139     0.6139 -1383.6068   155.1735     0.0000     0.0000    37.5400     0.1320     2.5962    10.0000
  1464.2592  7318.0835 7318090.0000    -999.25     0.2159     8.5508     0.5101   107.7534   107.7534     4.0000    -999.25    53.8241     2.1707     2.9945     0.5101     7.6497    -999.25    23.8569     0.5789     0.2174     0.2174 24009.4824     2.5871     4.2839     4.2839    18.3515   235.8426     0.6474     0.6474 -1383.7592   155.1814     0.0000     0.0000    33.6350     0.1408     2.5871    10.0000
  1464.4116  7412.0088 7412008.5000    -999.25     0.2159     8.5523     0.5119   106.0507   106.0507     4.0000    -999.25    54.1852     2.1660     2.9578     0.5119     7.7175    -999.25    25.7460     0.5596     0.2232     0.2232 24317.6133     2.5789     4.2114     4.2114    17.7356   234.6107     0.6618     0.6618 -1383.9116   155.1892     0.0000     0.0000    31.8110     0.1477     2.5789    10.0000
  1464.5640  7431.4268 7431414.5000    -999.25     0.2159     8.5476     0.4792   105.4619   105.4619     4.0000    -999.25    53.5232     2.1421     2.9040     0.4792     7.6886    -999.25    20.4724     0.5517     0.2314     0.2314 24381.2812     2.5713     4.0988     4.0988    16.8006   233.3385     0.6937     0.6937 -1384.0640   155.1970     0.0000     0.0000    27.1940     0.1605     2.5713    10.0000
  1464.7164  7378.9712 7378971.0000    -999.25     0.2159     8.5452     0.4509   105.6333   105.6333     4.0000    -999.25    53.4609     2.1396     2.8815     0.4509     7.8388    -999.25    17.8082     0.5499     0.2485     0.2485 24209.2227     2.5573     4.0668     4.0668    16.5390   232.2854     0.6929     0.6929 -1384.2164   155.2048     0.0000     0.0000    24.0510     0.1722     2.5573    10.0000
  1464.8688  7293.3809 7293380.5000    -999.25     0.2159     8.5493     0.4556   105.8616   105.8616     4.0000    -999.25    54.2129     2.1698     2.8996     0.4556     8.0954    -999.25    17.5592     0.5461     0.2495     0.2495 23928.4141     2.5331     4.0582     4.0582    16.4687   231.3597     0.6643     0.6643 -1384.3688   155.2127     0.0000     0.0000    27.4590     0.1657     2.5331    10.0000
  1465.0212  7186.9585 7186958.5000    -999.25     0.2159     8.5831     0.4798   106.3477   106.3477     4.0000    -999.25    54.8390     2.2331     2.9555     0.4798     7.6799    -999.25    13.1604     0.5446     0.2140     0.2140 23579.2598     2.5076     3.9919     3.9919    15.9353   230.3848     0.6672     0.6672 -1384.5212   155.2205     0.0000     0.0000    34.3140     0.1428     2.5076    10.0000
  1465.1736  7078.9028 7078903.0000    -999.25     0.2159     8.6810     0.4915   107.3424   107.3424     4.0000    -999.25    55.9482     2.3365     3.0573     0.4915     6.4907    -999.25     7.6582     0.5510     0.1722     0.1722 23224.7461     2.4930     3.9587     3.9587    15.6714   229.2984     0.6655     0.6655 -1384.6736   155.2283     0.0000     0.0000    42.8070     0.1146     2.4930    10.0000
  1465.3260  7016.7397 7016740.0000    -999.25     0.2159     8.8148     0.4873   108.0501   108.0501     0.0000    -999.25    58.4850     2.4640     3.1825     0.4873     5.3508    -999.25     4.9709     0.5567     0.1463     0.1463 23020.8008     2.4874     3.9706     3.9706    15.7655   228.4210     0.6458     0.6458 -1384.8260   155.2361     0.0000     0.0000    50.1450     0.0945     2.4874    10.0000
  1465.4784  6918.6489 6918649.0000    -999.25     0.2159     8.9125     0.4766   109.2472   109.2472     0.0000    -999.25    62.4596     2.5736     3.2724     0.4766     4.7194    -999.25     4.6491     0.5669     0.1414     0.1414 22698.9805     2.4798     4.0292     4.0292    16.2345   228.6618     0.6118     0.6118 -1384.9784   155.2440     0.0000     0.0000    56.0130     0.0865     2.4798    10.0000
  1465.6308  6764.4893 6764528.5000    -999.25     0.2159     8.9513     0.4669   111.4125   111.4125     0.0000    -999.25    67.6176     2.6346     3.2829     0.4669     4.7124    -999.25     3.8686     0.5870     0.1299     0.1299 22193.3359     2.4726     4.0287     4.0287    16.2303   230.5080     0.6086     0.6086 -1385.1309   155.2518     0.0000     0.0000    59.7920     0.0791     2.4726    10.0000
  1465.7832  6758.5347 6758534.5000    -999.25     0.2159     8.9650     0.4766   112.1375   112.1375     0.0000    -999.25    73.4124     2.6745     3.2472     0.4766     4.8899    -999.25     0.4771     0.5979     0.0584     0.0584 22173.6699     2.4865     3.9708     3.9708    15.7673   233.2967     0.6484     0.6484 -1385.2832   155.2596     0.0000     0.0000    83.3720     0.0378     2.4865    10.0000
  1465.9356  6873.1606 6873115.5000    -999.25     0.2159     8.9748     0.5020   111.9303   111.9303     0.0000    -999.25    79.5093     2.7424     3.2324     0.5020     4.8451    -999.25     0.0007     0.6053     0.0057     0.0100 22549.5918     2.5240     3.7032     3.7032    13.7141   236.0797     0.9607     0.9607 -1385.4355   155.2674     0.0000     0.0000    92.5570     0.0055     2.5240    10.0000
  1466.0880  6766.9585 6766958.5000    -999.25     0.2159     8.9808     0.5128   114.2230   114.2230     0.0000    -999.25    87.0613     2.7634     3.1659     0.5128     4.8283    -999.25     0.0095     0.6315     0.0125     0.0125 22201.3066     2.5359     2.8789     2.8789     8.2882   238.5349     1.0000     1.0000 -1385.5880   155.2753     0.0000     0.0000    68.6820     0.0125     2.5359    10.0000
  1466.2404  6457.7896 6457757.5000    -999.25     0.2159     8.9813     0.5062   117.1522   117.1522     0.0000    -999.25    96.3443     2.6347     2.9491     0.5062     4.8467    -999.25     0.2309     0.6475     0.0362     0.0362 21186.8691     2.4821     2.5716     2.5716     6.6130   240.8412     1.0000     1.0000 -1385.7404   155.2831     0.0000     0.0000    65.8550     0.0362     2.4821    10.0000
  1466.3928  6082.1201 6082120.5000    -999.25     0.2159     8.9826     0.5221   120.6046   120.6046     0.0000    -999.25   103.7557     2.4487     2.6934     0.5221     4.8156    -999.25     1.4495     0.6634     0.0664     0.0664 19954.4629     2.4066     2.3486     2.3486     5.5160   243.0233     1.0000     1.0000 -1385.8928   155.2909     0.0000     0.0000    64.5700     0.0664     2.4066    10.0000
  1466.5452  5805.3726 5805430.5000    -999.25     0.2159     8.9848     0.5507   124.0963   124.0963     0.0000    -999.25   106.6533     2.3475     2.5498     0.5507     4.7734    -999.25     3.1898     0.6879     0.0838     0.0838 19046.6875     2.3636     2.2234     2.2234     4.9436   244.7647     1.0000     1.0000 -1386.0452   155.2987     0.0000     0.0000    59.5050     0.0838     2.3636    10.0000
  1466.6976  5794.7158 5794716.0000    -999.25     0.2159     8.9627     0.5383   123.7880   123.7880     0.0000    -999.25   106.4982     2.3808     2.5592     0.5383     4.7206    -999.25     4.1524     0.6821     0.0941     0.0941 19011.5352     2.3534     2.2316     2.2316     4.9802   245.8270     1.0000     1.0000 -1386.1976   155.3066     0.0000     0.0000    52.5390     0.0941     2.3534    10.0000
  1466.8500  5872.4272 5872427.5000    -999.25     0.2159     8.8949     0.5054   121.9267   121.9267     0.0000    -999.25   106.6668     2.5298     2.6918     0.5054     4.6483    -999.25     4.9204     0.6622     0.1051     0.1051 19266.4941     2.3491     2.3473     2.3473     5.5097   246.3262     1.0000     1.0000 -1386.3500   155.3144     0.0000     0.0000    47.7010     0.1051     2.3491    10.0000
