~Version ---------------------------------------------------
VERS. 2.0 : CWLS log ASCII Standard -VERSION 2.0
WRAP.  NO : 
~Well ------------------------------------------------------
STRT.m                                                1235.3544 : 
STOP.m                                                1623.2124 : 
STEP.m                                                   0.1524 : 
NULL.                                                   -999.25 : 
COMP.                                                           : COMPANY
WELL.                                                   Well-20 : WELL
FLD .                                                           : FIELD
LOC .                                                           : LOCATION
SRVC.                                                           : SERVICE COMPANY
DATE. 2021-01-20 14:34:13   : Log Export Date {yyyy-MM-dd HH:mm : ss}
PROV.                                                           : PROVINCE
UWI .                                                   Well-20 : UNIQUE WELL ID
API .                                                           : API NUMBER
~Curve Information -----------------------------------------
DEPTH             .m        : DEPTH
ACOUSTICIMPEDANCE1.kPa.s/m  : ACOUSTICIMPEDANCE1
AI                .kPa.s/m  : AI
AVG_PIGN          .m3/m3    : AVG_PIGN
BIT               .m        : BIT
CALI              .in       : CALI
NPHI              .m3/m3    : NPHI
DT                .us/ft    : DT
DTDS              .us/ft    : DTDS
FACIES            ._        : FACIES
FLD1              ._        : FLD1
GR                .gAPI     : GR
M2R1              .ohm.m    : M2R1
LLD               .ohm.m    : LLD
NPHI_1            .m3/m3    : NPHI_1
PEF               .b/e      : PEF
PERF_INT          ._        : PERF_INT
PERMEABILITY      .mD       : PERMEABILITY
PHIT              .m3/m3    : PHIT
PIGN              .m3/m3    : PIGN
PIGN_MODELLING    .m3/m3    : PIGN_MODELLING
PIMP              .kPa.s/m  : PIMP
RHOB              .g/cm3    : RHOB
LLD_1             .ohm.m    : LLD_1
RT_MODELLING      .ohm.m    : RT_MODELLING
RT_POWER          .ohm.m    : RT_POWER
SP                .mV       : SP
SUWI              ._        : SUWI
SUWI_MODELLING    ._        : SUWI_MODELLING
TDVSS             .m        : TDVSS
TEMP              .K        : TEMP
TH                .kg/kg    : TH
U                 .kg/kg    : U
VCL               .%        : VCL
WATER_VOL         ._        : WATER_VOL
RHOB_1            .g/cm3    : RHOB_1
ZLT               ._        : ZLT
~Params ----------------------------------------------------
~Other -----------------------------------------------------
~ASCII -----------------------------------------------------
# ...
  1259.7384  6754.6670 6754667.0000    -999.25     0.2159     9.0468     0.4596   110.9292   110.9292    -999.25    -999.25    60.2817     1.1585     1.0828     0.4596     5.5668    -999.25    -999.25     0.5785    -999.25    -999.25 22160.9824     2.4583    -999.25    -999.25    -999.25   246.2772    -999.25    -999.25 -1179.2384   144.6804     0.0000     0.0000    -999.25    -999.25     2.4583    -999.25
  1259.8908  5792.9751 5792975.5000    -999.25     0.2159     9.0508     0.4345   124.5092   124.5092    -999.25    -999.25    62.8970     0.9941     0.9551     0.4345     4.9438    -999.25    -999.25     0.6927    -999.25    -999.25 19005.8242     2.3664    -999.25    -999.25    -999.25   246.4203    -999.25    -999.25 -1179.3907   144.6882     0.0000     0.0000    -999.25    -999.25     2.3664    -999.25
  1260.0432  5015.8389 5015839.0000    -999.25     0.2159     9.0436     0.4476   137.6141   137.6141    -999.25    -999.25    67.3846     0.8836     0.8637     0.4476     4.7956    -999.25    -999.25     0.7997    -999.25    -999.25 16456.1641     2.2646    -999.25    -999.25    -999.25   246.7457    -999.25    -999.25 -1179.5432   144.6960     0.0000     0.0000    -999.25    -999.25     2.2646    -999.25
  1260.1956  4733.4399 4733440.0000    -999.25     0.2159     9.0310     0.4846   142.5788   142.5788    -999.25    -999.25    69.1976     0.8479     0.8354     0.4846     4.8820    -999.25    -999.25     0.8372    -999.25    -999.25 15529.6582     2.2142    -999.25    -999.25    -999.25   247.0713    -999.25    -999.25 -1179.6956   144.7039     0.0000     0.0000    -999.25    -999.25     2.2142    -999.25
  1260.3480  4749.5693 4749569.0000    -999.25     0.2159     9.0219     0.5119   142.4989   142.4989    -999.25    -999.25    68.8965     0.8620     0.8490     0.5119     5.0275    -999.25    -999.25     0.8379    -999.25    -999.25 15582.5762     2.2205    -999.25    -999.25    -999.25   247.3127    -999.25    -999.25 -1179.8480   144.7117     0.0000     0.0000    -999.25    -999.25     2.2205    -999.25
  1260.5004  4901.5859 4901586.0000    -999.25     0.2159     9.0216     0.5181   140.8280   140.8280    -999.25    -999.25    68.8908     0.9080     0.8883     0.5181     5.2291    -999.25    -999.25     0.8322    -999.25    -999.25 16081.3184     2.2647    -999.25    -999.25    -999.25   247.4674    -999.25    -999.25 -1180.0004   144.7195     0.0000     0.0000    -999.25    -999.25     2.2647    -999.25
  1260.6528  5089.0815 5089081.5000    -999.25     0.2159     9.0284     0.5059   139.1792   139.1792    -999.25    -999.25    68.0507     0.9629     0.9339     0.5059     5.3513    -999.25    -999.25     0.8305    -999.25    -999.25 16696.4609     2.3238    -999.25    -999.25    -999.25   247.5770    -999.25    -999.25 -1180.1528   144.7273     0.0000     0.0000    -999.25    -999.25     2.3238    -999.25
  1260.8052  5229.8262 5229826.0000    -999.25     0.2159     9.0348     0.4961   137.8581   137.8581    -999.25    -999.25    65.0628     0.9921     0.9570     0.4961     5.3017    -999.25    -999.25     0.8276    -999.25    -999.25 17158.2227     2.3654    -999.25    -999.25    -999.25   247.7165    -999.25    -999.25 -1180.3052   144.7352     0.0000     0.0000    -999.25    -999.25     2.3654    -999.25
  1260.9576  5299.8677 5299867.5000    -999.25     0.2159     9.0377     0.5035   136.2260   136.2260    -999.25    -999.25    62.8991     0.9850     0.9505     0.5035     5.3474    -999.25    -999.25     0.8119    -999.25    -999.25 17388.0176     2.3687    -999.25    -999.25    -999.25   247.8967    -999.25    -999.25 -1180.4576   144.7430     0.0000     0.0000    -999.25    -999.25     2.3687    -999.25
  1261.1100  5333.5732 5333573.0000    -999.25     0.2159     9.0398     0.5162   134.8908   134.8908    -999.25    -999.25    62.8656     0.9792     0.9488     0.5162     5.3299    -999.25    -999.25     0.7963    -999.25    -999.25 17498.5996     2.3604    -999.25    -999.25    -999.25   248.0390    -999.25    -999.25 -1180.6100   144.7508     0.0000     0.0000    -999.25    -999.25     2.3604    -999.25
  1261.2624  5370.5513 5370562.5000    -999.25     0.2159     9.0365     0.5078   134.6431   134.6431    -999.25    -999.25    62.8743     1.0020     0.9764     0.5078     5.2697    -999.25    -999.25     0.7969    -999.25    -999.25 17619.9551     2.3724    -999.25    -999.25    -999.25   248.0935    -999.25    -999.25 -1180.7625   144.7586     0.0000     0.0000    -999.25    -999.25     2.3724    -999.25
  1261.4148  5383.5498 5383549.5000    -999.25     0.2159     9.0309     0.4847   135.4390   135.4390    -999.25    -999.25    62.4630     1.0177     0.9974     0.4847     5.1285    -999.25    -999.25     0.8099    -999.25    -999.25 17662.5645     2.3922    -999.25    -999.25    -999.25   248.0769    -999.25    -999.25 -1180.9148   144.7665     0.0000     0.0000    -999.25    -999.25     2.3922    -999.25
  1261.5672  5297.9565 5297956.5000    -999.25     0.2159     9.0313     0.4744   136.9195   136.9195    -999.25    -999.25    63.4544     0.9807     0.9660     0.4744     4.9254    -999.25    -999.25     0.8218    -999.25    -999.25 17381.7461     2.3799    -999.25    -999.25    -999.25   248.1203    -999.25    -999.25 -1181.0673   144.7743     0.0000     0.0000    -999.25    -999.25     2.3799    -999.25
  1261.7196  5106.5806 5106580.5000    -999.25     0.2159     9.0325     0.4685   139.0604   139.0604    -999.25    -999.25    65.6662     0.9158     0.9038     0.4685     4.7777    -999.25    -999.25     0.8308    -999.25    -999.25 16753.8730     2.3298    -999.25    -999.25    -999.25   248.2900    -999.25    -999.25 -1181.2196   144.7821     0.0000     0.0000    -999.25    -999.25     2.3298    -999.25
  1261.8720  4901.5796 4901579.5000    -999.25     0.2159     9.0270     0.4553   141.5371   141.5371    -999.25    -999.25    67.6716     0.8663     0.8541     0.4553     4.7119    -999.25    -999.25     0.8423    -999.25    -999.25 16081.2979     2.2761    -999.25    -999.25    -999.25   248.4867    -999.25    -999.25 -1181.3719   144.7899     0.0000     0.0000    -999.25    -999.25     2.2761    -999.25
  1262.0244  4764.1548 4764154.5000    -999.25     0.2159     9.0229     0.4640   143.6109   143.6109    -999.25    -999.25    68.8690     0.8382     0.8237     0.4640     4.7047    -999.25    -999.25     0.8553    -999.25    -999.25 15630.4287     2.2447    -999.25    -999.25    -999.25   248.6043    -999.25    -999.25 -1181.5244   144.7978     0.0000     0.0000    -999.25    -999.25     2.2447    -999.25
  1262.1768  4691.8535 4691853.5000    -999.25     0.2159     9.0243     0.5116   145.1613   145.1613    -999.25    -999.25    69.8594     0.8212     0.8031     0.5116     4.7132    -999.25    -999.25     0.8684    -999.25    -999.25 15393.2207     2.2345    -999.25    -999.25    -999.25   248.6274    -999.25    -999.25 -1181.6768   144.8056     0.0000     0.0000    -999.25    -999.25     2.2345    -999.25
  1262.3292  4680.0938 4680093.5000    -999.25     0.2159     9.0248     0.5437   145.5977   145.5977    -999.25    -999.25    70.6085     0.8122     0.7894     0.5437     4.7243    -999.25    -999.25     0.8731    -999.25    -999.25 15354.6377     2.2356    -999.25    -999.25    -999.25   248.4933    -999.25    -999.25 -1181.8292   144.8134     0.0000     0.0000    -999.25    -999.25     2.2356    -999.25
  1262.4816  4716.9648 4716965.0000    -999.25     0.2159     9.0211     0.5272   144.7504   144.7504    -999.25    -999.25    70.5199     0.8144     0.7863     0.5272     4.7667    -999.25    -999.25     0.8657    -999.25    -999.25 15475.6064     2.2401    -999.25    -999.25    -999.25   248.2628    -999.25    -999.25 -1181.9816   144.8212     0.0000     0.0000    -999.25    -999.25     2.2401    -999.25
  1262.6340  4769.3491 4769349.0000    -999.25     0.2159     9.0149     0.5073   143.4609   143.4609    -999.25    -999.25    70.5183     0.8276     0.7941     0.5073     4.8118    -999.25    -999.25     0.8538    -999.25    -999.25 15647.4707     2.2448    -999.25    -999.25    -999.25   248.0611    -999.25    -999.25 -1182.1340   144.8291     0.0000     0.0000    -999.25    -999.25     2.2448    -999.25
