~Version ---------------------------------------------------
VERS. 2.0 : CWLS log ASCII Standard -VERSION 2.0
WRAP.  NO : 
~Well ------------------------------------------------------
STRT.m                                                  1335.18 : 
STOP.m                                                1589.7801 : 
STEP.m                                                   0.1524 : 
NULL.                                                   -999.25 : 
COMP.                                                           : COMPANY
WELL.                                                   Well-13 : WELL
FLD .                                                           : FIELD
LOC .                                                           : LOCATION
SRVC.                                                           : SERVICE COMPANY
DATE. 2021-01-20 14:34:06   : Log Export Date {yyyy-MM-dd HH:mm : ss}
PROV.                                                           : PROVINCE
UWI .                                                   Well-13 : UNIQUE WELL ID
API .                                                           : API NUMBER
~Curve Information -----------------------------------------
DEPTH             .m        : DEPTH
ACOUSTICIMPEDANCE1.kPa.s/m  : ACOUSTICIMPEDANCE1
AI                .kPa.s/m  : AI
AVG_PIGN          .m3/m3    : AVG_PIGN
CALI              .in       : CALI
CALI[DERIVED]1    .in       : CALI[DERIVED]1
DT                .us/ft    : DT
FACIES            ._        : FACIES
FLD1              ._        : FLD1
GR                .gAPI     : GR
LLD               .ohm.m    : LLD
LLS               .ohm.m    : LLS
NPHI              .m3/m3    : NPHI
PEF               .b/e      : PEF
PERF_INT          ._        : PERF_INT
PERMEABILITY      .mD       : PERMEABILITY
PHIT              .m3/m3    : PHIT
PIGN              .m3/m3    : PIGN
PIGN_MODELLING    .m3/m3    : PIGN_MODELLING
PIMP              .kPa.s/m  : PIMP
RHOB              .g/cm3    : RHOB
RT_MODELLING      .ohm.m    : RT_MODELLING
RT_POWER          .ohm.m    : RT_POWER
SP                .mV       : SP
SUWI              ._        : SUWI
SUWI_MODELLING    ._        : SUWI_MODELLING
SXWI              ._        : SXWI
TDVSS             .m        : TDVSS
TEMP              .K        : TEMP
VCL               .%        : VCL
WATER_VOL         ._        : WATER_VOL
ZLT               ._        : ZLT
~Params ----------------------------------------------------
~Other -----------------------------------------------------
~ASCII -----------------------------------------------------
# ...
  1537.9480  5951.6313 5951631.5000    -999.25     8.9320     8.9320   126.1373     0.0000    -999.25    98.4614     1.6880     1.8420     0.5665     5.4560    -999.25    -999.25     0.1954     0.0127     0.0127 19526.3496     2.4630     1.6880     2.8493   451.2210     1.0000     1.0000     1.0000 -1474.5880   162.9837    91.3720     0.0127    -999.25
  1538.1001  6108.2295 6108229.5000    -999.25     8.9470     8.9470   124.9493     0.0000    -999.25    96.1373     1.7450     1.8950     0.5617     5.4940    -999.25    -999.25     0.1892     0.0081     0.0100 20040.1230     2.5040     1.7450     3.0450   451.0670     1.0000     1.0000     1.0000 -1474.7400   162.9919    90.5690     0.0081    -999.25
  1538.2521  6339.8013 6339801.5000    -999.25     8.9620     8.9620   122.8373     0.0000    -999.25    92.7158     1.8130     1.9520     0.5349     5.5670    -999.25    -999.25     0.1797     0.0025     0.0100 20799.8730     2.5550     1.8130     3.2870   451.1240     1.0000     1.0000     1.0000 -1474.8921   163.0001    88.6230     0.0025    -999.25
  1538.4041  6468.0718 6468071.5000    -999.25     8.9670     8.9670   121.1553     0.0000    -999.25    89.9602     1.8600     1.9760     0.5157     5.3630    -999.25    -999.25     0.1746     0.0001     0.0100 21220.7070     2.5710     1.8600     3.4596   451.0250     1.0000     1.0000     1.0000 -1475.0441   163.0083    87.2850     0.0001    -999.25
  1538.5560  6319.8755 6319875.5000    -999.25     8.9780     8.9780   121.9224     0.0000    -999.25    90.0257     1.8160     1.8860     0.5199     4.7150    -999.25    -999.25     0.1779     0.0009     0.0100 20734.5000     2.5280     1.8160     3.2979   450.7960     1.0000     1.0000     1.0000 -1475.1960   163.0165    88.5730     0.0009    -999.25
  1538.7080  6037.7681 6037768.0000    -999.25     9.0560     9.0560   124.9940     0.0000    -999.25    95.1125     1.6390     1.6600     0.5459     4.2180    -999.25    -999.25     0.1871     0.0036     0.0100 19808.9512     2.4760     1.6390     2.6863   450.6810     1.0000     1.0000     1.0000 -1475.3480   163.0247    91.7450     0.0036    -999.25
  1538.8601  5788.1968 5788197.0000    -999.25     9.2140     9.2140   128.2771     0.0000    -999.25   103.2920     1.4350     1.4300     0.5685     4.1550    -999.25    -999.25     0.1952     0.0074     0.0100 18990.1465     2.4360     1.4350     2.0592   450.7960     1.0000     1.0000     1.0000 -1475.5001   163.0329    93.8990     0.0074    -999.25
  1539.0121  5565.0776 5565077.5000    -999.25     9.3670     9.3670   131.2840     0.0000    -999.25   109.8860     1.3280     1.3110     0.5558     4.2330    -999.25    -999.25     0.1975     0.0113     0.0113 18258.1289     2.3970     1.3280     1.7636   451.0810     1.0000     1.0000     1.0000 -1475.6520   163.0411    93.1310     0.0113    -999.25
  1539.1641  5437.7988 5437799.0000    -999.25     9.4370     9.4370   132.7874     0.0000    -999.25   113.6676     1.3060     1.2890     0.5242     4.2540    -999.25    -999.25     0.1969     0.0165     0.0165 17840.5488     2.3690     1.3060     1.7056   451.3380     1.0000     1.0000     1.0000 -1475.8041   163.0493    90.2250     0.0165    -999.25
  1539.3160  5443.5405 5443540.5000    -999.25     9.4350     9.4350   132.5354     0.0000    -999.25   115.8953     1.3000     1.2910     0.5045     4.1950    -999.25    -999.25     0.1964     0.0206     0.0206 17859.3848     2.3670     1.3000     1.6900   451.4090     1.0000     1.0000     1.0000 -1475.9561   163.0575    87.9290     0.0206    -999.25
  1539.4680  5403.2178 5403217.5000    -999.25     9.4440     9.4440   132.4526     0.0000    -999.25   116.7475     1.2750     1.2810     0.5064     4.1460    -999.25    -999.25     0.1964     0.0197     0.0197 17727.0918     2.3480     1.2750     1.6256   451.3080     1.0000     1.0000     1.0000 -1476.1080   163.0657    88.3360     0.0197    -999.25
  1539.6200  5368.6538 5368654.0000    -999.25     9.4820     9.4820   132.1131     0.0000    -999.25   115.4396     1.2630     1.2870     0.5346     4.3410    -999.25    -999.25     0.1968     0.0143     0.0143 17613.6934     2.3270     1.2630     1.5952   451.2130     1.0000     1.0000     1.0000 -1476.2600   163.0739    91.2120     0.0143    -999.25
  1539.7721  5415.0391 5415039.0000    -999.25     9.4220     9.4220   131.6006     0.0000    -999.25   111.0475     1.3030     1.3470     0.5654     4.8060    -999.25    -999.25     0.1972     0.0085     0.0100 17765.8770     2.3380     1.3030     1.6978   451.1760     1.0000     1.0000     1.0000 -1476.4120   163.0821    94.3490     0.0085    -999.25
  1539.9241  5487.7607 5487760.5000    -999.25     9.2070     9.2070   131.0786     0.0000    -999.25   104.7686     1.3860     1.4550     0.5763     5.2900    -999.25    -999.25     0.1974     0.0056     0.0100 18004.4648     2.3600     1.3860     1.9210   451.0460     1.0000     1.0000     1.0000 -1476.5641   163.0903    95.8800     0.0056    -999.25
  1540.0760  5583.6265 5583626.5000    -999.25     9.0040     9.0040   130.3566     0.0000    -999.25    98.9631     1.4620     1.5530     0.5797     5.5770    -999.25    -999.25     0.1975     0.0056     0.0100 18318.9844     2.3880     1.4620     2.1374   450.8620     1.0000     1.0000     1.0000 -1476.7161   163.0985    95.9650     0.0056    -999.25
  1540.2280  5686.1758 5686176.0000    -999.25     8.9490     8.9490   129.8817     0.0000    -999.25    94.0834     1.4980     1.6030     0.5886     5.7170    -999.25    -999.25     0.1977     0.0067     0.0100 18655.4316     2.4230     1.4980     2.2440   450.8340     1.0000     1.0000     1.0000 -1476.8680   163.1067    95.4810     0.0067    -999.25
  1540.3800  5773.6426 5773642.5000    -999.25     8.9840     8.9840   129.3395     0.0000    -999.25    89.5571     1.5050     1.6160     0.6008     5.7160    -999.25    -999.25     0.1979     0.0075     0.0100 18942.3965     2.4500     1.5050     2.2650   450.8780     1.0000     1.0000     1.0000 -1477.0200   163.1149    95.1800     0.0075    -999.25
  1540.5321  5776.9688 5776969.0000    -999.25     9.0220     9.0220   129.4233     0.0000    -999.25    85.7357     1.4910     1.5980     0.6165     5.5130    -999.25    -999.25     0.1981     0.0068     0.0100 18953.3105     2.4530     1.4910     2.2231   450.8240     1.0000     1.0000     1.0000 -1477.1721   163.1231    95.6250     0.0068    -999.25
  1540.6841  5724.7212 5724721.5000    -999.25     9.0520     9.0520   129.9124     0.0000    -999.25    84.4079     1.4570     1.5530     0.6192     5.2870    -999.25    -999.25     0.1983     0.0051     0.0100 18781.8945     2.4400     1.4570     2.1228   450.7850     1.0000     1.0000     1.0000 -1477.3241   163.1313    96.6020     0.0051    -999.25
  1540.8360  5677.0972 5677097.0000    -999.25     9.0650     9.0650   130.1968     0.0000    -999.25    85.8499     1.4190     1.5020     0.6129     5.1160    -999.25    -999.25     0.1985     0.0034     0.0100 18625.6465     2.4250     1.4190     2.0136   450.9170     1.0000     1.0000     1.0000 -1477.4761   163.1395    97.5820     0.0034    -999.25
  1540.9880  5615.4526 5615452.5000    -999.25     9.0850     9.0850   130.5405     0.0000    -999.25    86.7551     1.3900     1.4620     0.6121     4.8890    -999.25    -999.25     0.1987     0.0021     0.0100 18423.4023     2.4050     1.3900     1.9321   451.1610     1.0000     1.0000     1.0000 -1477.6281   163.1477    98.3300     0.0021    -999.25
  1541.1400  5536.9922 5536992.0000    -999.25     9.1530     9.1530   131.1792     0.0000    -999.25    84.5954     1.3620     1.4240     0.6095     4.6810    -999.25    -999.25     0.1988     0.0021     0.0100 18165.9844     2.3830     1.3620     1.8550   451.3850     1.0000     1.0000     1.0000 -1477.7800   163.1559    98.3480     0.0021    -999.25
  1541.2921  5466.7690 5466769.0000    -999.25     9.2200     9.2200   131.9165     0.0000    -999.25    81.5834     1.3370     1.3940     0.5927     4.6270    -999.25    -999.25     0.1986     0.0040     0.0100 17935.5938     2.3660     1.3370     1.7876   451.5490     1.0000     1.0000     1.0000 -1477.9320   163.1641    97.2780     0.0040    -999.25
