~Version ---------------------------------------------------
VERS. 2.0 : CWLS log ASCII Standard -VERSION 2.0
WRAP.  NO : 
~Well ------------------------------------------------------
STRT.m                                                1235.3544 : 
STOP.m                                                1623.2124 : 
STEP.m                                                   0.1524 : 
NULL.                                                   -999.25 : 
COMP.                                                           : COMPANY
WELL.                                                   Well-20 : WELL
FLD .                                                           : FIELD
LOC .                                                           : LOCATION
SRVC.                                                           : SERVICE COMPANY
DATE. 2021-01-20 14:34:13   : Log Export Date {yyyy-MM-dd HH:mm : ss}
PROV.                                                           : PROVINCE
UWI .                                                   Well-20 : UNIQUE WELL ID
API .                                                           : API NUMBER
~Curve Information -----------------------------------------
DEPTH             .m        : DEPTH
ACOUSTICIMPEDANCE1.kPa.s/m  : ACOUSTICIMPEDANCE1
AI                .kPa.s/m  : AI
AVG_PIGN          .m3/m3    : AVG_PIGN
BIT               .m        : BIT
CALI              .in       : CALI
NPHI              .m3/m3    : NPHI
DT                .us/ft    : DT
DTDS              .us/ft    : DTDS
FACIES            ._        : FACIES
FLD1              ._        : FLD1
GR                .gAPI     : GR
M2R1              .ohm.m    : M2R1
LLD               .ohm.m    : LLD
NPHI_1            .m3/m3    : NPHI_1
PEF               .b/e      : PEF
PERF_INT          ._        : PERF_INT
PERMEABILITY      .mD       : PERMEABILITY
PHIT              .m3/m3    : PHIT
PIGN              .m3/m3    : PIGN
PIGN_MODELLING    .m3/m3    : PIGN_MODELLING
PIMP              .kPa.s/m  : PIMP
RHOB              .g/cm3    : RHOB
LLD_1             .ohm.m    : LLD_1
RT_MODELLING      .ohm.m    : RT_MODELLING
RT_POWER          .ohm.m    : RT_POWER
SP                .mV       : SP
SUWI              ._        : SUWI
SUWI_MODELLING    ._        : SUWI_MODELLING
TDVSS             .m        : TDVSS
TEMP              .K        : TEMP
TH                .kg/kg    : TH
U                 .kg/kg    : U
VCL               .%        : VCL
WATER_VOL         ._        : WATER_VOL
RHOB_1            .g/cm3    : RHOB_1
ZLT               ._        : ZLT
~Params ----------------------------------------------------
~Other -----------------------------------------------------
~ASCII -----------------------------------------------------
# ...
  1564.5384  2207.6990 2207697.2500    -999.25     0.2159     8.7590     0.6397   153.6219   153.6219     3.0000    -999.25    16.5048    51.0102    93.5820     0.6397     2.0703    -999.25     0.0000     0.6701     0.0001     0.0100  7243.1016     1.1127    81.6020    81.6020  6658.8911   205.8311     1.0000     1.0000 -1484.0385   160.3301     0.0000     0.0000     0.0000     0.0001     1.1127    19.0000
  1564.6908  2205.6963 2205696.2500    -999.25     0.2159     8.7602     0.5712   153.4436   153.4436     3.0000    -999.25    16.4962    45.3926    84.6428     0.5712     2.0731    -999.25     0.0000     0.6678     0.0001     0.0100  7236.5361     1.1104    73.8081    73.8081  5447.6328   204.3152     1.0000     1.0000 -1484.1908   160.3380     0.0000     0.0000     0.0000     0.0001     1.1104    19.0000
  1564.8432  2200.2644 2200265.7500    -999.25     0.2159     8.7626     0.5709   153.4345   153.4345     3.0000    -999.25    16.6550    44.0591    81.9733     0.5709     2.0761    -999.25     0.0000     0.6670     0.0001     0.0100  7218.7197     1.1076    71.4817    71.4817  5109.6396   202.1139     1.0000     1.0000 -1484.3431   160.3458     0.0000     0.0000     0.0000     0.0001     1.1076    19.0000
  1564.9956  2196.6755 2196675.5000    -999.25     0.2159     8.7661     0.6264   153.4493   153.4493     3.0000    -999.25    16.5509    49.2220    88.2096     0.6264     2.0799    -999.25     0.0000     0.6667     0.0001     0.0100  7206.9404     1.1059    76.9206    76.9206  5916.7856   200.8286     1.0000     1.0000 -1484.4956   160.3536     0.0000     0.0000     0.0000     0.0001     1.1059    19.0000
  1565.1480  2201.7993 2201801.7500    -999.25     0.2159     8.7674     0.6857   153.2583   153.2583     3.0000    -999.25    16.3603    59.5318    99.6054     0.6857     2.0851    -999.25     0.0000     0.6651     0.0001     0.0100  7223.7588     1.1071    86.8560    86.8560  7543.9653   201.2957     1.0000     1.0000 -1484.6479   160.3614     0.0000     0.0000     0.0000     0.0001     1.1071    19.0000
  1565.3004  2210.6394 2210639.5000    -999.25     0.2159     8.7651     0.7049   153.0591   153.0591     3.0000    -999.25    16.3385    64.4940   100.1218     0.7049     2.0903    -999.25     0.0000     0.6638     0.0001     0.0100  7252.7544     1.1101    87.3046    87.3046  7622.0884   203.5225     1.0000     1.0000 -1484.8004   160.3693     0.0000     0.0000     0.0000     0.0001     1.1101    19.0000
  1565.4528  2216.2041 2216201.5000    -999.25     0.2159     8.7633     0.6695   152.8673   152.8673     3.0000    -999.25    16.2861    61.9176    90.2076     0.6695     2.0926    -999.25     0.0000     0.6622     0.0001     0.0100  7271.0024     1.1115    78.6604    78.6604  6187.4600   207.2094     1.0000     1.0000 -1484.9528   160.3771     0.0000     0.0000     0.0000     0.0001     1.1115    19.0000
  1565.6052  2215.8259 2215825.7500    -999.25     0.2159     8.7606     0.6262   152.8109   152.8109     3.0000    -999.25    15.9790    62.5480    86.4339     0.6262     2.0958    -999.25     0.0000     0.6615     0.0001     0.0100  7269.7695     1.1109    75.3713    75.3713  5680.8340   211.4116     1.0000     1.0000 -1485.1052   160.3849     0.0000     0.0000     0.0000     0.0001     1.1109    19.0000
  1565.7576  2211.6201 2211620.0000    -999.25     0.2159     8.7569     0.6296   153.0050   153.0050     3.0000    -999.25    15.7105    69.0587    92.1728     0.6296     2.1028    -999.25     0.0000     0.6633     0.0001     0.0100  7255.9712     1.1102    80.3761    80.3761  6460.3184   215.0692     1.0000     1.0000 -1485.2576   160.3927     0.0000     0.0000     0.0000     0.0001     1.1102    19.0000
  1565.9100  2205.4971 2205497.0000    -999.25     0.2159     8.7559     0.6684   153.2225   153.2225     3.0000    -999.25    15.8448    75.9992   100.8767     0.6684     2.1113    -999.25     0.0000     0.6651     0.0001     0.0100  7235.8823     1.1087    87.9652    87.9652  7737.8779   217.6875     1.0000     1.0000 -1485.4100   160.4006     0.0000     0.0000     0.0000     0.0001     1.1087    19.0000
  1566.0624  2197.9229 2197923.0000    -999.25     0.2159     8.7567     0.6764   153.1542   153.1542     3.0000    -999.25    16.5818    77.0070   105.2832     0.6764     2.1158    -999.25     0.0000     0.6633     0.0001     0.0100  7211.0332     1.1044    91.8064    91.8064  8428.4238   219.3602     1.0000     1.0000 -1485.5624   160.4084     0.0000     0.0000     0.0000     0.0001     1.1044    19.0000
  1566.2148  2190.0901 2190090.2500    -999.25     0.2159     8.7557     0.6503   152.9504   152.9504     3.0000    -999.25    17.1812    70.8811   102.2449     0.6503     2.1189    -999.25     0.0000     0.6599     0.0001     0.0100  7185.3354     1.0990    89.1565    89.1565  7948.8750   220.4260     1.0000     1.0000 -1485.7148   160.4162     0.0000     0.0000     0.0000     0.0001     1.0990    19.0000
  1566.3672  2183.7068 2183706.7500    -999.25     0.2159     8.7540     0.6360   153.1044   153.1044     3.0000    -999.25    17.2744    63.1488    95.6498     0.6360     2.1424    -999.25     0.0000     0.6609     0.0001     0.0100  7164.3921     1.0969    83.4061    83.4061  6956.5796   221.2046     1.0000     1.0000 -1485.8672   160.4240     0.0000     0.0000     0.0000     0.0001     1.0969    19.0000
  1566.5196  2184.2820 2184282.0000    -999.25     0.2159     8.7535     0.6375   153.2734   153.2734     3.0000    -999.25    17.2446    59.8443    92.5113     0.6375     2.2005    -999.25     0.0000     0.6630     0.0001     0.0100  7166.2793     1.0984    80.6695    80.6695  6507.5635   221.9409     1.0000     1.0000 -1486.0197   160.4319     0.0000     0.0000     0.0000     0.0001     1.0984    19.0000
  1566.6720  2189.0986 2189098.7500    -999.25     0.2159     8.7565     0.6259   153.1450   153.1450     3.0000    -999.25    17.4695    59.1583    90.2197     0.6259     2.2474    -999.25     0.0000     0.6621     0.0001     0.0100  7182.0820     1.0999    78.6703    78.6703  6189.0200   222.8154     1.0000     1.0000 -1486.1720   160.4397     0.0000     0.0000     0.0000     0.0001     1.0999    19.0000
  1566.8244  2191.5474 2191545.2500    -999.25     0.2159     8.7605     0.6125   152.9044   152.9044     3.0000    -999.25    17.4371    55.8542    82.6053     0.6125     2.2630    -999.25     0.0000     0.6595     0.0001     0.0100  7190.1084     1.0994    72.0305    72.0305  5188.3999   223.9272     1.0000     1.0000 -1486.3243   160.4475     0.0000     0.0000     0.0000     0.0001     1.0994    19.0000
  1566.9768  2192.5618 2192561.7500    -999.25     0.2159     8.7594     0.6187   152.5417   152.5417     3.0000    -999.25    17.0859    52.1248    74.9117     0.6187     2.2948    -999.25     0.0000     0.6553     0.0001     0.0100  7193.4438     1.0973    65.3227    65.3227  4267.0522   225.3101     1.0000     1.0000 -1486.4768   160.4553     0.0000     0.0000     0.0000     0.0001     1.0973    19.0000
  1567.1292  2204.2937 2204318.5000    -999.25     0.2159     8.7570     0.6345   151.7160   151.7160     3.0000    -999.25    16.8612    51.0835    72.9655     0.6345     2.3707    -999.25     0.0000     0.6469     0.0001     0.0100  7232.0156     1.0972    63.6252    63.6252  4048.1648   226.9247     1.0000     1.0000 -1486.6291   160.4632     0.0000     0.0000     0.0000     0.0001     1.0972    19.0000
  1567.2816  2259.6499 2259650.0000    -999.25     0.2159     8.7587     0.6564   150.4947   150.4947     3.0000    -999.25    16.2915    49.0993    68.6095     0.6564     2.4233    -999.25     0.0000     0.6392     0.0001     0.0100  7413.5498     1.1157    59.8248    59.8248  3579.0042   228.6992     1.0000     1.0000 -1486.7816   160.4710     0.0000     0.0000     0.0000     0.0001     1.1157    19.0000
  1567.4340  2363.1338 2363128.2500    -999.25     0.2159     8.7596     0.6798   149.0508   149.0508     3.0000    -999.25    15.6013    40.2799    52.2819     0.6798     2.3401    -999.25     0.0000     0.6347     0.0001     0.0100  7753.0459     1.1556    45.5861    45.5861  2078.0962   230.6260     1.0000     1.0000 -1486.9340   160.4788     0.0000     0.0000     0.0000     0.0001     1.1556    19.0000
