~Version ---------------------------------------------------
VERS. 2.0 : CWLS log ASCII Standard -VERSION 2.0
WRAP.  NO : 
~Well ------------------------------------------------------
STRT.m                                                  1335.18 : 
STOP.m                                                1589.7801 : 
STEP.m                                                   0.1524 : 
NULL.                                                   -999.25 : 
COMP.                                                           : COMPANY
WELL.                                                   Well-13 : WELL
FLD .                                                           : FIELD
LOC .                                                           : LOCATION
SRVC.                                                           : SERVICE COMPANY
DATE. 2021-01-20 14:34:06   : Log Export Date {yyyy-MM-dd HH:mm : ss}
PROV.                                                           : PROVINCE
UWI .                                                   Well-13 : UNIQUE WELL ID
API .                                                           : API NUMBER
~Curve Information -----------------------------------------
DEPTH             .m        : DEPTH
ACOUSTICIMPEDANCE1.kPa.s/m  : ACOUSTICIMPEDANCE1
AI                .kPa.s/m  : AI
AVG_PIGN          .m3/m3    : AVG_PIGN
CALI              .in       : CALI
CALI[DERIVED]1    .in       : CALI[DERIVED]1
DT                .us/ft    : DT
FACIES            ._        : FACIES
FLD1              ._        : FLD1
GR                .gAPI     : GR
LLD               .ohm.m    : LLD
LLS               .ohm.m    : LLS
NPHI              .m3/m3    : NPHI
PEF               .b/e      : PEF
PERF_INT          ._        : PERF_INT
PERMEABILITY      .mD       : PERMEABILITY
PHIT              .m3/m3    : PHIT
PIGN              .m3/m3    : PIGN
PIGN_MODELLING    .m3/m3    : PIGN_MODELLING
PIMP              .kPa.s/m  : PIMP
RHOB              .g/cm3    : RHOB
RT_MODELLING      .ohm.m    : RT_MODELLING
RT_POWER          .ohm.m    : RT_POWER
SP                .mV       : SP
SUWI              ._        : SUWI
SUWI_MODELLING    ._        : SUWI_MODELLING
SXWI              ._        : SXWI
TDVSS             .m        : TDVSS
TEMP              .K        : TEMP
VCL               .%        : VCL
WATER_VOL         ._        : WATER_VOL
ZLT               ._        : ZLT
~Params ----------------------------------------------------
~Other -----------------------------------------------------
~ASCII -----------------------------------------------------
# ...
  1520.4680  6759.3960 6759396.0000    -999.25     8.8950     8.8950   111.6948     0.0000    -999.25    72.4029     2.7130     2.8720     0.5297     4.4960    -999.25     0.1713     0.1557     0.0147     0.0147 22176.4961     2.4770     2.7130     7.3604   459.3810     1.0000     1.0000     1.0000 -1457.1080   162.0408    70.5100     0.0147    23.0000
  1520.6200  6936.7705 6936770.5000    -999.25     8.9090     8.9090   112.8373     0.0000    -999.25    77.6982     2.6780     2.8540     0.5179     4.8750    -999.25     0.1686     0.1502     0.0024     0.0100 22758.4336     2.5680     2.6780     7.1717   460.0020     1.0000     1.0000     1.0000 -1457.2600   162.0490    73.9300     0.0024    23.0000
  1520.7721  7167.7671 7167767.0000    -999.25     8.9120     8.9120   113.3682     0.0000    -999.25    81.6136     2.6760     2.8820     0.5028     4.9260    -999.25     0.1659     0.1501     0.0001     0.0100 23516.2969     2.6660     2.6760     7.1610   460.5580     1.0000     1.0000     1.0000 -1457.4120   162.0572    75.0500     0.0001    23.0000
  1520.9241  7066.4634 7066463.5000    -999.25     8.9030     8.9030   114.8209     0.0000    -999.25    87.8554     2.4590     2.6730     0.5004     4.4880    -999.25     0.1633     0.1549     0.0001     0.0100 23183.9355     2.6620     2.4590     6.0467   461.0490     1.0000     1.0000     1.0000 -1457.5641   162.0654    77.4450     0.0001    23.0000
  1521.0760  6737.1689 6737168.5000    -999.25     8.8970     8.8970   115.8184     0.0000    -999.25    95.1587     2.1600     2.3710     0.5151     4.2190    -999.25     0.1606     0.1609     0.0001     0.0100 22103.5723     2.5600     2.1600     4.6656   461.4970     1.0000     1.0000     1.0000 -1457.7161   162.0736    80.4030     0.0001    23.0000
  1521.2280  6473.7979 6473798.0000    -999.25     8.8960     8.8960   115.5395     0.0000    -999.25    97.1123     2.0440     2.2820     0.5342     4.0850    -999.25     0.1579     0.1709     0.0144     0.0144 21239.4941     2.4540     2.0440     4.1779   461.9050     1.0000     1.0000     1.0000 -1457.8680   162.0818    78.2550     0.0144    23.0000
  1521.3800  6291.0186 6291018.5000    -999.25     8.8970     8.8970   115.7471     0.0000    -999.25    91.9423     2.1010     2.4080     0.5481     3.9190    -999.25     0.1552     0.1836     0.0386     0.0386 20639.8262     2.3890     2.1010     4.4142   462.1610     1.0000     1.0000     1.0000 -1458.0200   162.0900    72.4770     0.0386    23.0000
  1521.5321  6214.6206 6214621.0000    -999.25     8.8980     8.8980   117.0229     0.0000    -999.25    85.1600     2.1860     2.5740     0.5527     3.9540    -999.25     0.1525     0.1877     0.0481     0.0481 20389.1758     2.3860     2.1860     4.7786   462.3710     1.0000     1.0000     1.0000 -1458.1721   162.0982    69.7870     0.0481    23.0000
  1521.6841  6430.8276 6430828.0000    -999.25     8.9020     8.9020   116.1219     0.0000    -999.25    80.4229     2.2490     2.7130     0.5274     4.3660    -999.25     0.1498     0.1804     0.0412     0.0412 21098.5156     2.4500     2.2490     5.0580   462.7890     1.0000     1.0000     1.0000 -1458.3241   162.1064    69.5890     0.0412    23.0000
  1521.8360  7055.3770 7055377.0000    -999.25     8.9120     8.9120   111.1132     0.0000    -999.25    75.2778     2.4010     2.9770     0.4869     5.1310    -999.25     0.1471     0.1591     0.0198     0.0198 23147.5625     2.5720     2.4010     5.7648   463.3330     1.0000     1.0000     1.0000 -1458.4760   162.1146    69.6530     0.0198    23.0000
  1521.9880  8047.4321 8047432.0000    -999.25     8.9220     8.9220   102.7182     0.0000    -999.25    67.5941     2.7280     3.4920     0.4749     5.9350    -999.25     0.1445     0.1329     0.0031     0.0100 26402.3359     2.7120     2.7280     7.4420   463.7360     1.0000     1.0000     1.0000 -1458.6281   162.1228    64.9650     0.0031    23.0000
  1522.1400  8631.8818 8631882.0000    -999.25     8.9260     8.9260    98.0585     0.0000    -999.25    61.6066     3.0160     3.9000     0.4806     5.8390    -999.25     0.1418     0.1223     0.0001     0.0100 28319.8223     2.7770     3.0160     9.0963   463.9400     1.0000     1.0000     1.0000 -1458.7800   162.1310    61.1510     0.0001    23.0000
  1522.2921  7942.7832 7942783.5000    -999.25     8.9580     8.9580   103.4192     0.0000    -999.25    64.9753     2.7800     3.4070     0.4805     4.9690    -999.25     0.1391     0.1355     0.0001     0.0100 26059.0000     2.6950     2.7800     7.7284   464.1810     1.0000     1.0000     1.0000 -1458.9320   162.1392    67.7530     0.0001    23.0000
  1522.4441  6952.3184 6952318.5000    -999.25     9.0690     9.0690   113.7248     0.0000    -999.25    79.3082     2.1870     2.5180     0.4829     4.6260    -999.25     0.1364     0.1560     0.0001     0.0100 22809.4434     2.5940     2.1870     4.7830   464.7460     1.0000     1.0000     1.0000 -1459.0840   162.1474    77.9950     0.0001    23.0000
  1522.5961  6573.5083 6573508.5000    -999.25     9.1870     9.1870   119.2583     0.0000    -999.25    94.5099     1.8990     2.1400     0.4952     4.9000    -999.25     0.1337     0.1640     0.0007     0.0100 21566.6289     2.5720     1.8990     3.6062   465.4810     1.0000     1.0000     1.0000 -1459.2361   162.1556    81.6770     0.0007    23.0000
  1522.7480  6903.8452 6903845.5000    -999.25     9.1660     9.1660   114.9648     0.0000    -999.25    96.8983     2.0390     2.3440     0.5038     5.5410    -999.25     0.1310     0.1570     0.0010     0.0100 22650.4102     2.6040     2.0390     4.1575   465.9200     1.0000     1.0000     1.0000 -1459.3881   162.1638    78.0340     0.0010    23.0000
  1522.9000  7908.1367 7908136.5000    -999.25     9.0300     9.0300   103.7952     0.0000    -999.25    83.9662     2.6610     3.2510     0.5087     6.2860    -999.25     0.1284     0.1368     0.0003     0.0100 25945.3301     2.6930     2.6610     7.0809   465.9200     1.0000     1.0000     1.0000 -1459.5400   162.1720    68.2910     0.0003    23.0000
  1523.0521  8860.9854 8860985.0000    -999.25     8.9290     8.9290    96.3487     0.0000    -999.25    66.4759     3.4080     4.4730     0.5041     6.1040    -999.25     0.1257     0.1190     0.0001     0.0100 29071.4746     2.8010     3.4080    11.6145   465.7170     1.0000     1.0000     1.0000 -1459.6920   162.1802    59.5060     0.0001    23.0000
  1523.2041  8668.4268 8668427.0000    -999.25     8.9040     8.9040    98.3835     0.0000    -999.25    58.0927     3.3750     4.3280     0.4894     4.8260    -999.25     0.1230     0.1187     0.0001     0.0100 28439.7207     2.7980     3.3750    11.3906   465.6410     1.0000     1.0000     1.0000 -1459.8441   162.1884    59.3660     0.0001    23.0000
  1523.3561  7544.5635 7544563.5000    -999.25     8.9020     8.9020   106.6963     0.0000    -999.25    64.0100     2.6970     3.1780     0.4828     4.1870    -999.25     0.1203     0.1390     0.0001     0.0100 24752.5039     2.6410     2.6970     7.2738   465.9170     1.0000     1.0000     1.0000 -1459.9961   162.1966    69.5050     0.0001    23.0000
  1523.5080  6510.7466 6510746.5000    -999.25     8.9060     8.9060   116.4287     0.0000    -999.25    77.4121     2.2610     2.5340     0.4929     4.2930    -999.25     0.1176     0.1666     0.0080     0.0100 21360.7168     2.4870     2.2610     5.1121   466.4310     1.0000     1.0000     1.0000 -1460.1479   162.2048    79.3260     0.0080    23.0000
  1523.6600  6131.4258 6131426.0000    -999.25     8.9210     8.9210   121.3448     0.0000    -999.25    86.4176     2.1710     2.3860     0.5118     4.7280    -999.25     0.1149     0.1815     0.0207     0.0207 20116.2266     2.4410     2.1710     4.7132   466.7980     1.0000     1.0000     1.0000 -1460.3000   162.2130    80.3780     0.0207    23.0000
  1523.8120  6425.9316 6425931.5000    -999.25     8.9380     8.9380   118.2026     0.0000    -999.25    84.3933     2.3050     2.5420     0.5309     5.3300    -999.25     0.1122     0.1720     0.0161     0.0161 21082.4531     2.4920     2.3050     5.3130   466.8240     1.0000     1.0000     1.0000 -1460.4520   162.2212    77.9440     0.0161    23.0000
