~Version ---------------------------------------------------
VERS. 2.0 : CWLS log ASCII Standard -VERSION 2.0
WRAP.  NO : 
~Well ------------------------------------------------------
STRT.m                                                1235.3544 : 
STOP.m                                                1623.2124 : 
STEP.m                                                   0.1524 : 
NULL.                                                   -999.25 : 
COMP.                                                           : COMPANY
WELL.                                                   Well-20 : WELL
FLD .                                                           : FIELD
LOC .                                                           : LOCATION
SRVC.                                                           : SERVICE COMPANY
DATE. 2021-01-20 14:34:13   : Log Export Date {yyyy-MM-dd HH:mm : ss}
PROV.                                                           : PROVINCE
UWI .                                                   Well-20 : UNIQUE WELL ID
API .                                                           : API NUMBER
~Curve Information -----------------------------------------
DEPTH             .m        : DEPTH
ACOUSTICIMPEDANCE1.kPa.s/m  : ACOUSTICIMPEDANCE1
AI                .kPa.s/m  : AI
AVG_PIGN          .m3/m3    : AVG_PIGN
BIT               .m        : BIT
CALI              .in       : CALI
NPHI              .m3/m3    : NPHI
DT                .us/ft    : DT
DTDS              .us/ft    : DTDS
FACIES            ._        : FACIES
FLD1              ._        : FLD1
GR                .gAPI     : GR
M2R1              .ohm.m    : M2R1
LLD               .ohm.m    : LLD
NPHI_1            .m3/m3    : NPHI_1
PEF               .b/e      : PEF
PERF_INT          ._        : PERF_INT
PERMEABILITY      .mD       : PERMEABILITY
PHIT              .m3/m3    : PHIT
PIGN              .m3/m3    : PIGN
PIGN_MODELLING    .m3/m3    : PIGN_MODELLING
PIMP              .kPa.s/m  : PIMP
RHOB              .g/cm3    : RHOB
LLD_1             .ohm.m    : LLD_1
RT_MODELLING      .ohm.m    : RT_MODELLING
RT_POWER          .ohm.m    : RT_POWER
SP                .mV       : SP
SUWI              ._        : SUWI
SUWI_MODELLING    ._        : SUWI_MODELLING
TDVSS             .m        : TDVSS
TEMP              .K        : TEMP
TH                .kg/kg    : TH
U                 .kg/kg    : U
VCL               .%        : VCL
WATER_VOL         ._        : WATER_VOL
RHOB_1            .g/cm3    : RHOB_1
ZLT               ._        : ZLT
~Params ----------------------------------------------------
~Other -----------------------------------------------------
~ASCII -----------------------------------------------------
# ...
  1540.1544  4234.8862 4234886.0000    -999.25     0.2159     8.9486     0.5893   131.6901   131.6901     3.0000    -999.25    89.1078     5.4682     5.5917     0.5893     0.1239    -999.25     0.0000     0.6296     0.0001     0.0100 13893.9834     1.8297     4.8767     4.8767    23.7819   239.9594     1.0000     1.0000 -1459.6544   159.0782     0.0000     0.0000     0.0000     0.0001     1.8297    19.0000
  1540.3068  3324.4402 3324604.7500    -999.25     0.2159     8.9463     0.5868   140.0207   140.0207     3.0000    -999.25    69.4555     9.7763     9.9017     0.5868     0.4476    -999.25     0.0000     0.6374     0.0001     0.0100 10907.4971     1.5272     8.6362     8.6362    74.5831   239.1934     1.0000     1.0000 -1459.8068   159.0860     0.0000     0.0000     0.0000     0.0001     1.5272    19.0000
  1540.4592  2726.4443 2726444.5000    -999.25     0.2159     8.9468     0.6005   147.0314   147.0314     3.0000    -999.25    45.8573    21.9811    21.3269     0.6005     0.8014    -999.25     0.0000     0.6547     0.0001     0.0100  8945.0273     1.3152    18.6008    18.6008   345.9890   238.1494     1.0000     1.0000 -1459.9592   159.0938     0.0000     0.0000     0.0000     0.0001     1.3152    19.0000
  1540.6116  2448.2017 2448201.7500    -999.25     0.2159     8.9496     0.5911   151.1051   151.1051     3.0000    -999.25    28.7604    50.8550    44.1730     0.5911     1.0210    -999.25     0.0000     0.6702     0.0001     0.0100  8032.1582     1.2137    38.5251    38.5251  1484.1833   236.9612     1.0000     1.0000 -1460.1116   159.1016     0.0000     0.0000     0.0000     0.0001     1.2137    19.0000
  1540.7640  2363.1165 2363116.2500    -999.25     0.2159     8.9514     0.5697   152.4441   152.4441     3.0000    -999.25    20.2645    89.2813    82.4208     0.5697     1.1015    -999.25     0.0000     0.6757     0.0001     0.0100  7753.0063     1.1819    71.8755    71.8755  5166.0903   235.7213     1.0000     1.0000 -1460.2640   159.1095     0.0000     0.0000     0.0000     0.0001     1.1819    19.0000
  1540.9164  2335.5466 2335546.5000    -999.25     0.2159     8.9527     0.5949   152.6645   152.6645     3.0000    -999.25    16.8349   111.4356   110.4884     0.5949     1.1442    -999.25     0.0000     0.6749     0.0001     0.0100  7662.5542     1.1698    96.3488    96.3488  9283.0840   234.3875     1.0000     1.0000 -1460.4164   159.1173     0.0000     0.0000     0.0000     0.0001     1.1698    19.0000
  1541.0688  2307.9941 2307994.2500    -999.25     0.2159     8.9536     0.6524   152.6513   152.6513     3.0000    -999.25    16.0204   118.2762   128.1355     0.6524     1.2396    -999.25     0.0000     0.6713     0.0001     0.0100  7572.1592     1.1559   111.7352   111.7352 12484.7568   232.7677     1.0000     1.0000 -1460.5688   159.1251     0.0000     0.0000     0.0000     0.0001     1.1559    19.0000
  1541.2212  2271.3472 2271347.0000    -999.25     0.2159     8.9518     0.6645   152.5646   152.5646     3.0000    -999.25    16.6620   118.0377   134.6558     0.6645     1.4962    -999.25     0.0000     0.6656     0.0001     0.0100  7451.9263     1.1369   117.4178   117.4178 13786.9414   230.6423     1.0000     1.0000 -1460.7212   159.1329     0.0000     0.0000     0.0000     0.0001     1.1369    19.0000
  1541.3736  2223.2056 2223213.2500    -999.25     0.2159     8.9493     0.6396   152.4133   152.4133     3.0000    -999.25    17.2525   110.0439   122.0946     0.6396     1.8475    -999.25     0.0000     0.6577     0.0001     0.0100  7294.0068     1.1117   106.4641   106.4641 11334.6025   227.9952     1.0000     1.0000 -1460.8737   159.1407     0.0000     0.0000     0.0000     0.0001     1.1117    19.0000
  1541.5260  2184.1560 2184156.0000    -999.25     0.2159     8.9473     0.6291   152.4170   152.4170     3.0000    -999.25    17.1728   101.9622   107.4065     0.6291     2.1187    -999.25     0.0000     0.6528     0.0001     0.0100  7165.8667     1.0922    93.6576    93.6576  8771.7500   225.0854     1.0000     1.0000 -1461.0260   159.1486     0.0000     0.0000     0.0000     0.0001     1.0922    19.0000
  1541.6784  2176.7031 2176713.7500    -999.25     0.2159     8.9406     0.6148   152.5328   152.5328     3.0000    -999.25    17.0253    95.4892   102.1842     0.6148     2.2434    -999.25     0.0000     0.6532     0.0001     0.0100  7141.4492     1.0893    89.1047    89.1047  7939.6499   222.1821     1.0000     1.0000 -1461.1783   159.1564     0.0000     0.0000     0.0000     0.0001     1.0893    19.0000
  1541.8308  2184.9434 2184943.2500    -999.25     0.2159     8.9315     0.5882   152.6969   152.6969     3.0000    -999.25    17.1319    94.9122   102.7134     0.5882     2.2873    -999.25     0.0000     0.6562     0.0001     0.0100  7168.4492     1.0946    89.5667    89.5667  8022.1943   219.3982     1.0000     1.0000 -1461.3308   159.1642     0.0000     0.0000     0.0000     0.0001     1.0946    19.0000
  1541.9832  2189.2771 2189272.7500    -999.25     0.2159     8.9259     0.6007   152.9515   152.9515     3.0000    -999.25    16.5009    97.3451   106.4638     0.6007     2.3069    -999.25     0.0000     0.6598     0.0001     0.0100  7182.6533     1.0986    92.8375    92.8375  8618.7959   216.8349     1.0000     1.0000 -1461.4832   159.1721     0.0000     0.0000     0.0000     0.0001     1.0986    19.0000
  1542.1356  2190.1672 2190167.2500    -999.25     0.2159     8.9257     0.6643   153.0007   153.0007     3.0000    -999.25    15.3731    97.5358   112.8326     0.6643     2.3170    -999.25     0.0000     0.6605     0.0001     0.0100  7185.5884     1.0994    98.3910    98.3910  9680.7949   214.6931     1.0000     1.0000 -1461.6356   159.1799     0.0000     0.0000     0.0000     0.0001     1.0994    19.0000
  1542.2880  2189.6135 2189613.7500    -999.25     0.2159     8.9325     0.7093   152.9280   152.9280     3.0000    -999.25    15.1321    93.2915   118.9609     0.7093     2.3222    -999.25     0.0000     0.6596     0.0001     0.0100  7183.7725     1.0986   103.7350   103.7350 10760.9600   213.1143     1.0000     1.0000 -1461.7880   159.1877     0.0000     0.0000     0.0000     0.0001     1.0986    19.0000
  1542.4404  2189.5229 2189523.0000    -999.25     0.2159     8.9421     0.7037   152.8926   152.8926     3.0000    -999.25    15.7971    90.7353   126.0305     0.7037     2.3313    -999.25     0.0000     0.6591     0.0001     0.0100  7183.4741     1.0983   109.9009   109.9009 12078.2051   211.9730     1.0000     1.0000 -1461.9404   159.1955     0.0000     0.0000     0.0000     0.0001     1.0983    19.0000
  1542.5928  2189.9189 2189919.0000    -999.25     0.2159     8.9485     0.6720   152.9206   152.9206     3.0000    -999.25    15.9907    94.7860   140.1169     0.6720     2.3376    -999.25     0.0000     0.6595     0.0001     0.0100  7184.7734     1.0987   122.1855   122.1855 14929.3076   211.0363     1.0000     1.0000 -1462.0928   159.2034     0.0000     0.0000     0.0000     0.0001     1.0987    19.0000
  1542.7452  2188.0688 2188068.7500    -999.25     0.2159     8.9528     0.6436   153.0778   153.0778     3.0000    -999.25    15.8033   105.0477   162.2577     0.6436     2.3457    -999.25     0.0000     0.6611     0.0001     0.0100  7178.7036     1.0989   141.4913   141.4913 20019.8008   210.1732     1.0000     1.0000 -1462.2452   159.2112     0.0000     0.0000     0.0000     0.0001     1.0989    19.0000
  1542.8976  2186.6218 2186622.0000    -999.25     0.2159     8.9552     0.6424   153.1930   153.1930     3.0000    -999.25    16.4804   108.6996   178.4040     0.6424     2.3625    -999.25     0.0000     0.6623     0.0001     0.0100  7173.9565     1.0990   155.5682   155.5682 24201.4570   209.4136     1.0000     1.0000 -1462.3976   159.2190     0.0000     0.0000     0.0000     0.0001     1.0990    19.0000
  1543.0500  2187.6189 2187618.7500    -999.25     0.2159     8.9518     0.6651   153.0814   153.0814     3.0000    -999.25    17.4216    98.0991   177.7301     0.6651     2.3723    -999.25     0.0000     0.6611     0.0001     0.0100  7177.2271     1.0987   154.9790   154.9790 24018.4863   208.8348     1.0000     1.0000 -1462.5500   159.2268     0.0000     0.0000     0.0000     0.0001     1.0987    19.0000
