~Version ---------------------------------------------------
VERS. 2.0 : CWLS log ASCII Standard -VERSION 2.0
WRAP.  NO : 
~Well ------------------------------------------------------
STRT.m                                                  1335.18 : 
STOP.m                                                1589.7801 : 
STEP.m                                                   0.1524 : 
NULL.                                                   -999.25 : 
COMP.                                                           : COMPANY
WELL.                                                   Well-13 : WELL
FLD .                                                           : FIELD
LOC .                                                           : LOCATION
SRVC.                                                           : SERVICE COMPANY
DATE. 2021-01-20 14:34:06   : Log Export Date {yyyy-MM-dd HH:mm : ss}
PROV.                                                           : PROVINCE
UWI .                                                   Well-13 : UNIQUE WELL ID
API .                                                           : API NUMBER
~Curve Information -----------------------------------------
DEPTH             .m        : DEPTH
ACOUSTICIMPEDANCE1.kPa.s/m  : ACOUSTICIMPEDANCE1
AI                .kPa.s/m  : AI
AVG_PIGN          .m3/m3    : AVG_PIGN
CALI              .in       : CALI
CALI[DERIVED]1    .in       : CALI[DERIVED]1
DT                .us/ft    : DT
FACIES            ._        : FACIES
FLD1              ._        : FLD1
GR                .gAPI     : GR
LLD               .ohm.m    : LLD
LLS               .ohm.m    : LLS
NPHI              .m3/m3    : NPHI
PEF               .b/e      : PEF
PERF_INT          ._        : PERF_INT
PERMEABILITY      .mD       : PERMEABILITY
PHIT              .m3/m3    : PHIT
PIGN              .m3/m3    : PIGN
PIGN_MODELLING    .m3/m3    : PIGN_MODELLING
PIMP              .kPa.s/m  : PIMP
RHOB              .g/cm3    : RHOB
RT_MODELLING      .ohm.m    : RT_MODELLING
RT_POWER          .ohm.m    : RT_POWER
SP                .mV       : SP
SUWI              ._        : SUWI
SUWI_MODELLING    ._        : SUWI_MODELLING
SXWI              ._        : SXWI
TDVSS             .m        : TDVSS
TEMP              .K        : TEMP
VCL               .%        : VCL
WATER_VOL         ._        : WATER_VOL
ZLT               ._        : ZLT
~Params ----------------------------------------------------
~Other -----------------------------------------------------
~ASCII -----------------------------------------------------
# ...
  1370.1400  5894.5063 5894506.5000    -999.25     9.0110     9.0110   126.5840     0.0000    -999.25    93.1269     1.7780     1.9200     0.4607     5.0650    -999.25    -999.25     0.1372     0.0001     0.0100 19338.9316     2.4480     1.7780     3.1613   441.8390     1.0000     1.0000     1.0000 -1306.7800   153.9321    68.5760     0.0001     0.0000
  1370.2921  5741.3877 5741388.0000    -999.25     8.9890     8.9890   129.1636     0.0000    -999.25    90.4478     1.8370     1.9760     0.4361     5.1580    -999.25    -999.25     0.1404     0.0001     0.0100 18836.5742     2.4330     1.8370     3.3746   441.2660     1.0000     1.0000     1.0000 -1306.9320   153.9403    70.1760     0.0001     0.0000
  1370.4441  5653.6934 5653693.5000    -999.25     8.9820     8.9820   131.3827     0.0000    -999.25    86.9615     1.8800     2.0070     0.4068     5.3470    -999.25    -999.25     0.1401     0.0001     0.0100 18548.8633     2.4370     1.8800     3.5344   440.6020     1.0000     1.0000     1.0000 -1307.0840   153.9485    70.0590     0.0001     0.0000
  1370.5961  5734.4487 5734449.0000    -999.25     8.9780     8.9780   131.7649     0.0000    -999.25    82.8321     1.8570     1.9480     0.4062     5.5520    -999.25    -999.25     0.1399     0.0001     0.0100 18813.8086     2.4790     1.8570     3.4484   440.3670     1.0000     1.0000     1.0000 -1307.2361   153.9567    69.9330     0.0001     0.0000
  1370.7480  5743.6626 5743662.5000    -999.25     8.9820     8.9820   133.3578     0.0000    -999.25    76.6189     1.7210     1.7530     0.4447     5.3120    -999.25    -999.25     0.1474     0.0043     0.0100 18844.0371     2.5130     1.7210     2.9618   441.0930     1.0000     1.0000     1.0000 -1307.3881   153.9649    71.5920     0.0043     0.0000
  1370.9000  5414.4990 5414499.0000    -999.25     9.0410     9.0410   138.2000     0.0000    -999.25    68.7911     1.4520     1.4300     0.4814     4.5380    -999.25    -999.25     0.1667     0.0194     0.0194 17764.1035     2.4550     1.4520     2.1083   442.6810     1.0000     1.0000     1.0000 -1307.5400   153.9731    73.6620     0.0194     0.0000
  1371.0521  4967.5342 4967534.5000    -999.25     9.1910     9.1910   142.8424     0.0000    -999.25    63.3572     1.1510     1.1070     0.4918     3.9500    -999.25     8.6194     0.1874     0.0351     0.0351 16297.6855     2.3280     1.1510     1.3248   444.6220     1.0000     1.0000     1.0000 -1307.6920   153.9813    76.1290     0.0351     0.0000
  1371.2041  4642.3516 4642351.5000    -999.25     9.3680     9.3680   147.0703     0.0000    -999.25    63.5323     0.9440     0.8960     0.5090     3.8070    -999.25    13.6141     0.1962     0.0349     0.0349 15230.8115     2.2400     0.9440     0.8911   446.4980     1.0000     1.0000     1.0000 -1307.8441   153.9895    80.6350     0.0349     0.0000
  1371.3561  4501.7773 4501777.5000    -999.25     9.4760     9.4760   148.8868     0.0000    -999.25    68.0633     0.8480     0.8040     0.5455     3.8920    -999.25    13.2935     0.1971     0.0266     0.0266 14769.6113     2.1990     0.8480     0.7191   448.0670     1.0000     1.0000     1.0000 -1307.9961   153.9977    85.2740     0.0266     0.0000
  1371.5080  4498.5229 4498523.0000    -999.25     9.4940     9.4940   147.5716     0.0000    -999.25    72.2507     0.8200     0.7840     0.5757     4.0040    -999.25     6.0914     0.1974     0.0234     0.0234 14758.9336     2.1780     0.8200     0.6724   449.4550     1.0000     1.0000     1.0000 -1308.1481   154.0059    87.0300     0.0234     0.0000
  1371.6600  4550.3608 4550361.0000    -999.25     9.4650     9.4650   146.5603     0.0000    -999.25    73.6557     0.8170     0.7910     0.6000     4.0740    -999.25     0.6388     0.1974     0.0234     0.0234 14929.0049     2.1880     0.8170     0.6675   450.6450     1.0000     1.0000     1.0000 -1308.3000   154.0141    87.0180     0.0234     0.0000
  1371.8120  4605.7183 4605718.5000    -999.25     9.4120     9.4120   146.2547     0.0000    -999.25    74.0182     0.8140     0.8010     0.6183     4.1100    -999.25     0.1503     0.1974     0.0238     0.0238 15110.6240     2.2100     0.8140     0.6626   451.3370     1.0000     1.0000     1.0000 -1308.4520   154.0223    86.8200     0.0238     0.0000
  1371.9641  4691.1128 4691113.0000    -999.25     9.3450     9.3450   144.8918     0.0000    -999.25    74.6873     0.8080     0.8060     0.6128     4.1270    -999.25     0.1009     0.1972     0.0259     0.0259 15390.7900     2.2300     0.8080     0.6529   451.6890     1.0000     1.0000     1.0000 -1308.6040   154.0305    85.6470     0.0259     0.0000
  1372.1161  4778.9570 4778957.5000    -999.25     9.2890     9.2890   143.2490     0.0000    -999.25    74.3596     0.7970     0.8020     0.5813     4.1200    -999.25     1.0342     0.1969     0.0286     0.0286 15678.9941     2.2460     0.7970     0.6352   452.0290     1.0000     1.0000     1.0000 -1308.7560   154.0387    84.1230     0.0286     0.0000
  1372.2680  4761.3647 4761365.0000    -999.25     9.2710     9.2710   144.0343     0.0000    -999.25    72.9816     0.7800     0.7890     0.5405     3.9690    -999.25     3.5701     0.1968     0.0297     0.0297 15621.2754     2.2500     0.7800     0.6084   452.3300     1.0000     1.0000     1.0000 -1308.9081   154.0469    83.5580     0.0297     0.0000
  1372.4200  4658.4702 4658470.5000    -999.25     9.3100     9.3100   146.4960     0.0000    -999.25    72.6112     0.7650     0.7740     0.5107     3.8730    -999.25     5.6882     0.1968     0.0295     0.0295 15283.6953     2.2390     0.7650     0.5852   452.5630     1.0000     1.0000     1.0000 -1309.0601   154.0551    83.6620     0.0295     0.0000
  1372.5720  4597.5620 4597562.0000    -999.25     9.4020     9.4020   148.9671     0.0000    -999.25    74.3620     0.7650     0.7760     0.5135     4.0690    -999.25     3.2217     0.1968     0.0293     0.0293 15083.8652     2.2470     0.7650     0.5852   452.8070     1.0000     1.0000     1.0000 -1309.2120   154.0633    83.7280     0.0293     1.0000
  1372.7241  4844.1206 4844120.5000    -999.25     9.5330     9.5330   146.5445     0.0000    -999.25    76.7858     0.7980     0.8130     0.5286     4.5380    -999.25     0.3036     0.1964     0.0333     0.0333 15892.7842     2.3290     0.7980     0.6368   452.8350     1.0000     1.0000     1.0000 -1309.3640   154.0715    81.5640     0.0333     1.0000
  1372.8761  5440.7427 5440742.5000    -999.25     9.6610     9.6610   136.4130     0.0000    -999.25    77.8228     0.8750     0.8970     0.5228     4.9690    -999.25     0.0203     0.1951     0.0434     0.0434 17850.2051     2.4350     0.8750     0.7656   452.6110     1.0000     1.0000     1.0000 -1309.5161   154.0797    75.8250     0.0434     1.0000
  1373.0280  6001.4375 6001437.5000    -999.25     9.6860     9.6860   125.6999     0.0000    -999.25    77.2343     0.9560     0.9860     0.5027     4.9330    -999.25     0.0085     0.1935     0.0543     0.0543 19689.7559     2.4750     0.9560     0.9139   452.4150     1.0000     1.0000     1.0000 -1309.6681   154.0879    69.6120     0.0543     1.0000
  1373.1800  6259.2295 6259229.5000    -999.25     9.5400     9.5400   119.3541     0.0000    -999.25    76.6180     0.9530     0.9870     0.4925     4.5490    -999.25     0.0230     0.1931     0.0596     0.0596 20535.5312     2.4510     0.9530     0.9082   452.3630     1.0000     1.0000     1.0000 -1309.8201   154.0961    66.7610     0.0596     1.0000
  1373.3320  6019.1924 6019192.0000    -999.25     9.3360     9.3360   119.2525     0.0000    -999.25    77.4369     0.8840     0.9170     0.4877     4.2510    -999.25     0.6739     0.1936     0.0584     0.0584 19748.0059     2.3550     0.8840     0.7815   452.4690     1.0000     1.0000     1.0000 -1309.9720   154.1043    67.6230     0.0584     1.0000
  1373.4841  5552.2661 5552266.5000    -999.25     9.2390     9.2390   126.4815     0.0000    -999.25    79.2033     0.8410     0.8750     0.4713     4.1930    -999.25     1.7129     0.1940     0.0549     0.0549 18216.0957     2.3040     0.8410     0.7073   452.5940     1.0000     1.0000     1.0000 -1310.1240   154.1125    69.5500     0.0549     1.0000
