~Version ---------------------------------------------------
VERS. 2.0 : CWLS log ASCII Standard -VERSION 2.0
WRAP.  NO : 
~Well ------------------------------------------------------
STRT.m                                                  1335.18 : 
STOP.m                                                1589.7801 : 
STEP.m                                                   0.1524 : 
NULL.                                                   -999.25 : 
COMP.                                                           : COMPANY
WELL.                                                   Well-13 : WELL
FLD .                                                           : FIELD
LOC .                                                           : LOCATION
SRVC.                                                           : SERVICE COMPANY
DATE. 2021-01-20 14:34:06   : Log Export Date {yyyy-MM-dd HH:mm : ss}
PROV.                                                           : PROVINCE
UWI .                                                   Well-13 : UNIQUE WELL ID
API .                                                           : API NUMBER
~Curve Information -----------------------------------------
DEPTH             .m        : DEPTH
ACOUSTICIMPEDANCE1.kPa.s/m  : ACOUSTICIMPEDANCE1
AI                .kPa.s/m  : AI
AVG_PIGN          .m3/m3    : AVG_PIGN
CALI              .in       : CALI
CALI[DERIVED]1    .in       : CALI[DERIVED]1
DT                .us/ft    : DT
FACIES            ._        : FACIES
FLD1              ._        : FLD1
GR                .gAPI     : GR
LLD               .ohm.m    : LLD
LLS               .ohm.m    : LLS
NPHI              .m3/m3    : NPHI
PEF               .b/e      : PEF
PERF_INT          ._        : PERF_INT
PERMEABILITY      .mD       : PERMEABILITY
PHIT              .m3/m3    : PHIT
PIGN              .m3/m3    : PIGN
PIGN_MODELLING    .m3/m3    : PIGN_MODELLING
PIMP              .kPa.s/m  : PIMP
RHOB              .g/cm3    : RHOB
RT_MODELLING      .ohm.m    : RT_MODELLING
RT_POWER          .ohm.m    : RT_POWER
SP                .mV       : SP
SUWI              ._        : SUWI
SUWI_MODELLING    ._        : SUWI_MODELLING
SXWI              ._        : SXWI
TDVSS             .m        : TDVSS
TEMP              .K        : TEMP
VCL               .%        : VCL
WATER_VOL         ._        : WATER_VOL
ZLT               ._        : ZLT
~Params ----------------------------------------------------
~Other -----------------------------------------------------
~ASCII -----------------------------------------------------
  1335.1800  4716.8643 4716864.0000    -999.25     9.0540     9.0540   142.0330     0.0000    -999.25    -999.25     0.7750     0.7710     0.5419     3.8440    -999.25    -999.25    -999.25    -999.25    -999.25 15475.2764     2.1980     0.7750     0.6006   444.1860    -999.25    -999.25    -999.25 -1271.8201    -999.25    -999.25    -999.25    -999.25
  1335.3320  4686.3091 4686309.0000    -999.25     9.0440     9.0440   142.8290     0.0000    -999.25    75.2387     0.7440     0.7460     0.5174     3.8510    -999.25    -999.25    -999.25    -999.25    -999.25 15375.0303     2.1960     0.7440     0.5535   444.3740    -999.25    -999.25    -999.25 -1271.9720   152.0546    -999.25    -999.25    -999.25
  1335.4841  4624.0469 4624046.5000    -999.25     9.0270     9.0270   144.8840     0.0000    -999.25    74.0052     0.7260     0.7310     0.4924     3.8770    -999.25    -999.25    -999.25    -999.25    -999.25 15170.7568     2.1980     0.7260     0.5271   444.4610    -999.25    -999.25    -999.25 -1272.1240   152.0627    -999.25    -999.25    -999.25
  1335.6361  4560.1855 4560185.5000    -999.25     8.9920     8.9920   147.3140     0.0000    -999.25    71.5126     0.7210     0.7290     0.4938     3.9300    -999.25    -999.25     0.1966     0.0314     0.0314 14961.2383     2.2040     0.7210     0.5198   444.5170     1.0000     1.0000     1.0000 -1272.2760   152.0710    82.6090     0.0314    -999.25
  1335.7881  4573.3652 4573365.0000    -999.25     8.9580     8.9580   147.3560     0.0000    -999.25    71.2678     0.7220     0.7330     0.5385     3.9710    -999.25    -999.25     0.1973     0.0247     0.0247 15004.4785     2.2110     0.7220     0.5213   444.5970     1.0000     1.0000     1.0000 -1272.4281   152.0791    86.3190     0.0247    -999.25
  1335.9400  4601.9941 4601994.0000    -999.25     8.9520     8.9520   146.6380     0.0000    -999.25    73.4879     0.7250     0.7380     0.5879     3.9790    -999.25    -999.25     0.1977     0.0216     0.0216 15098.4053     2.2140     0.7250     0.5256   444.6830     1.0000     1.0000     1.0000 -1272.5801   152.0873    88.0310     0.0216    -999.25
  1336.0920  4586.4688 4586469.0000    -999.25     8.9830     8.9830   146.9350     0.0000    -999.25    75.3676     0.7320     0.7490     0.6047     3.9870    -999.25    -999.25     0.1975     0.0229     0.0229 15047.4697     2.2110     0.7320     0.5358   444.6400     1.0000     1.0000     1.0000 -1272.7321   152.0956    87.2760     0.0229    -999.25
  1336.2441  4548.3008 4548301.0000    -999.25     9.0260     9.0260   147.9000     0.0000    -999.25    75.6936     0.7480     0.7680     0.5941     3.9900    -999.25    -999.25     0.1976     0.0217     0.0217 14922.2471     2.2070     0.7480     0.5595   444.3760     1.0000     1.0000     1.0000 -1272.8840   152.1038    87.9420     0.0217    -999.25
  1336.3961  4551.3486 4551348.5000    -999.25     9.0680     9.0680   147.7340     0.0000    -999.25    74.9779     0.7690     0.7940     0.5612     3.9900    -999.25    -999.25     0.1974     0.0235     0.0235 14932.2461     2.2060     0.7690     0.5914   444.0300     1.0000     1.0000     1.0000 -1273.0361   152.1120    86.9730     0.0235    -999.25
  1336.5481  4580.8979 4580898.0000    -999.25     9.1050     9.1050   146.7810     0.0000    -999.25    73.7733     0.7930     0.8220     0.5168     3.9990    -999.25    -999.25     0.1967     0.0299     0.0299 15029.1934     2.2060     0.7930     0.6288   443.8180     1.0000     1.0000     1.0000 -1273.1880   152.1201    83.4070     0.0299    -999.25
  1336.7000  4611.7520 4611752.0000    -999.25     9.1330     9.1330   145.7990     0.0000    -999.25    73.1585     0.8110     0.8440     0.4917     4.0080    -999.25    -999.25     0.1963     0.0341     0.0341 15130.4199     2.2060     0.8110     0.6577   443.8180     1.0000     1.0000     1.0000 -1273.3401   152.1283    81.0810     0.0341    -999.25
  1336.8520  4661.2344 4661234.5000    -999.25     9.1500     9.1500   144.3820     0.0000    -999.25    73.5151     0.8230     0.8610     0.5039     4.0090    -999.25    -999.25     0.1964     0.0332     0.0332 15292.7646     2.2080     0.8230     0.6773   443.9640     1.0000     1.0000     1.0000 -1273.4921   152.1365    81.6050     0.0332    -999.25
  1337.0041  4707.2124 4707212.5000    -999.25     9.1620     9.1620   143.4250     0.0000    -999.25    73.5207     0.8380     0.8800     0.5406     4.0140    -999.25    -999.25     0.1966     0.0308     0.0308 15443.6104     2.2150     0.8380     0.7022   444.0450     1.0000     1.0000     1.0000 -1273.6440   152.1447    82.9500     0.0308    -999.25
  1337.1561  4754.8501 4754850.0000    -999.25     9.1730     9.1730   142.5650     0.0000    -999.25    72.6866     0.8610     0.9080     0.5693     4.0180    -999.25    -999.25     0.1965     0.0320     0.0320 15599.9014     2.2240     0.8610     0.7413   443.9800     1.0000     1.0000     1.0000 -1273.7960   152.1529    82.2250     0.0320    -999.25
  1337.3081  4784.7979 4784798.0000    -999.25     9.2070     9.2070   141.6090     0.0000    -999.25    72.9751     0.8860     0.9390     0.5754     4.0230    -999.25    -999.25     0.1962     0.0349     0.0349 15698.1562     2.2230     0.8860     0.7850   444.0210     1.0000     1.0000     1.0000 -1273.9480   152.1611    80.6360     0.0349    -999.25
  1337.4600  4737.9243 4737924.0000    -999.25     9.2740     9.2740   141.6590     0.0000    -999.25    74.8866     0.8990     0.9540     0.5856     4.0440    -999.25    -999.25     0.1963     0.0341     0.0341 15544.3701     2.2020     0.8990     0.8082   444.2330     1.0000     1.0000     1.0000 -1274.1001   152.1693    81.0700     0.0341    -999.25
  1337.6120  4626.6650 4626665.0000    -999.25     9.3330     9.3330   142.6280     0.0000    -999.25    76.8134     0.9050     0.9620     0.5936     4.1290    -999.25    -999.25     0.1967     0.0304     0.0304 15179.3467     2.1650     0.9050     0.8190   444.3510     1.0000     1.0000     1.0000 -1274.2520   152.1775    83.1560     0.0304    -999.25
  1337.7640  4473.6592 4473659.5000    -999.25     9.3460     9.3460   145.3940     0.0000    -999.25    78.1191     0.9150     0.9750     0.5878     4.2630    -999.25    -999.25     0.1971     0.0264     0.0264 14677.3604     2.1340     0.9150     0.8372   444.2710     1.0000     1.0000     1.0000 -1274.4041   152.1857    85.3420     0.0264    -999.25
  1337.9161  4338.5068 4338506.5000    -999.25     9.3330     9.3330   149.2910     0.0000    -999.25    79.7458     0.9300     0.9920     0.5876     4.2630    -999.25    -999.25     0.1975     0.0230     0.0230 14233.9453     2.1250     0.9300     0.8649   444.1210     1.0000     1.0000     1.0000 -1274.5560   152.1939    87.2590     0.0230    -999.25
  1338.0681  4268.0708 4268070.5000    -999.25     9.3210     9.3210   151.9690     0.0000    -999.25    80.6226     0.9500     1.0140     0.5986     4.0500    -999.25    -999.25     0.1976     0.0221     0.0221 14002.8564     2.1280     0.9500     0.9025   443.9710     1.0000     1.0000     1.0000 -1274.7081   152.2021    87.7210     0.0221    -999.25
  1338.2200  4227.6880 4227688.0000    -999.25     9.3130     9.3130   152.9880     0.0000    -999.25    79.7368     0.9790     1.0430     0.5758     3.8130    -999.25    -999.25     0.1976     0.0223     0.0223 13870.3682     2.1220     0.9790     0.9584   443.9500     1.0000     1.0000     1.0000 -1274.8600   152.2103    87.6170     0.0223    -999.25
  1338.3720  4218.1445 4218144.5000    -999.25     9.3000     9.3000   152.1780     0.0000    -999.25    78.0410     1.0130     1.0790     0.5384     3.7430    -999.25    -999.25     0.1975     0.0229     0.0229 13839.0566     2.1060     1.0130     1.0262   444.0340     1.0000     1.0000     1.0000 -1275.0121   152.2185    87.2740     0.0229    -999.25
  1338.5240  4227.8853 4227885.5000    -999.25     9.2760     9.2760   150.7460     0.0000    -999.25    76.9194     1.0530     1.1190     0.5378     3.7960    -999.25    -999.25     0.1973     0.0248     0.0248 13871.0156     2.0910     1.0530     1.1088   443.9930     1.0000     1.0000     1.0000 -1275.1641   152.2267    86.2270     0.0248    -999.25
