~Version ---------------------------------------------------
VERS. 2.0 : CWLS log ASCII Standard -VERSION 2.0
WRAP.  NO : 
~Well ------------------------------------------------------
STRT.m                                                1235.3544 : 
STOP.m                                                1623.2124 : 
STEP.m                                                   0.1524 : 
NULL.                                                   -999.25 : 
COMP.                                                           : COMPANY
WELL.                                                   Well-20 : WELL
FLD .                                                           : FIELD
LOC .                                                           : LOCATION
SRVC.                                                           : SERVICE COMPANY
DATE. 2021-01-20 14:34:13   : Log Export Date {yyyy-MM-dd HH:mm : ss}
PROV.                                                           : PROVINCE
UWI .                                                   Well-20 : UNIQUE WELL ID
API .                                                           : API NUMBER
~Curve Information -----------------------------------------
DEPTH             .m        : DEPTH
ACOUSTICIMPEDANCE1.kPa.s/m  : ACOUSTICIMPEDANCE1
AI                .kPa.s/m  : AI
AVG_PIGN          .m3/m3    : AVG_PIGN
BIT               .m        : BIT
CALI              .in       : CALI
NPHI              .m3/m3    : NPHI
DT                .us/ft    : DT
DTDS              .us/ft    : DTDS
FACIES            ._        : FACIES
FLD1              ._        : FLD1
GR                .gAPI     : GR
M2R1              .ohm.m    : M2R1
LLD               .ohm.m    : LLD
NPHI_1            .m3/m3    : NPHI_1
PEF               .b/e      : PEF
PERF_INT          ._        : PERF_INT
PERMEABILITY      .mD       : PERMEABILITY
PHIT              .m3/m3    : PHIT
PIGN              .m3/m3    : PIGN
PIGN_MODELLING    .m3/m3    : PIGN_MODELLING
PIMP              .kPa.s/m  : PIMP
RHOB              .g/cm3    : RHOB
LLD_1             .ohm.m    : LLD_1
RT_MODELLING      .ohm.m    : RT_MODELLING
RT_POWER          .ohm.m    : RT_POWER
SP                .mV       : SP
SUWI              ._        : SUWI
SUWI_MODELLING    ._        : SUWI_MODELLING
TDVSS             .m        : TDVSS
TEMP              .K        : TEMP
TH                .kg/kg    : TH
U                 .kg/kg    : U
VCL               .%        : VCL
WATER_VOL         ._        : WATER_VOL
RHOB_1            .g/cm3    : RHOB_1
ZLT               ._        : ZLT
~Params ----------------------------------------------------
~Other -----------------------------------------------------
~ASCII -----------------------------------------------------
  1235.3544  4990.1069 4990107.0000    -999.25     0.2159     8.8913     0.5138   139.1544   139.1544    -999.25    -999.25    76.3081     0.8536     0.8382     0.5138     4.0949    -999.25    -999.25     0.8187    -999.25    -999.25 16371.7412     2.2782    -999.25    -999.25    -999.25   247.3236    -999.25    -999.25 -1154.8544   143.4284     0.0000     0.0000    -999.25    -999.25     2.2782    -999.25
  1235.5068  4941.9985 4941998.5000    -999.25     0.2159     8.8916     0.5194   139.6394   139.6394    -999.25    -999.25    76.0956     0.8579     0.8426     0.5194     3.9847    -999.25    -999.25     0.8200    -999.25    -999.25 16213.9053     2.2641    -999.25    -999.25    -999.25   247.2955    -999.25    -999.25 -1155.0068   143.4362     0.0000     0.0000    -999.25    -999.25     2.2641    -999.25
  1235.6592  4890.5571 4890557.0000    -999.25     0.2159     8.8907     0.5543   139.3818   139.3818    -999.25    -999.25    73.7111     0.8642     0.8488     0.5543     3.9045    -999.25    -999.25     0.8104    -999.25    -999.25 16045.1348     2.2364    -999.25    -999.25    -999.25   247.2753    -999.25    -999.25 -1155.1592   143.4441     0.0000     0.0000    -999.25    -999.25     2.2364    -999.25
  1235.8116  4870.3140 4870314.0000    -999.25     0.2159     8.8850     0.5876   139.1726   139.1726    -999.25    -999.25    72.1276     0.8729     0.8569     0.5876     4.0280    -999.25    -999.25     0.8051    -999.25    -999.25 15978.7207     2.2238    -999.25    -999.25    -999.25   247.2303    -999.25    -999.25 -1155.3116   143.4519     0.0000     0.0000    -999.25    -999.25     2.2238    -999.25
  1235.9640  4919.4570 4919470.5000    -999.25     0.2159     8.8793     0.5902   138.3771   138.3771    -999.25    -999.25    72.0179     0.8796     0.8631     0.5902     4.2237    -999.25    -999.25     0.7995    -999.25    -999.25 16139.9971     2.2334    -999.25    -999.25    -999.25   247.1699    -999.25    -999.25 -1155.4640   143.4597     0.0000     0.0000    -999.25    -999.25     2.2334    -999.25
  1236.1164  5002.6431 5002621.0000    -999.25     0.2159     8.8798     0.5708   137.2520   137.2520    -999.25    -999.25    72.0208     0.8760     0.8593     0.5708     4.2709    -999.25    -999.25     0.7930    -999.25    -999.25 16412.7988     2.2527    -999.25    -999.25    -999.25   247.1369    -999.25    -999.25 -1155.6165   143.4675     0.0000     0.0000    -999.25    -999.25     2.2527    -999.25
  1236.2688  5005.0903 5005090.5000    -999.25     0.2159     8.8853     0.5533   137.4346   137.4346    -999.25    -999.25    72.0272     0.8599     0.8435     0.5533     4.1369    -999.25    -999.25     0.7958    -999.25    -999.25 16420.9004     2.2568    -999.25    -999.25    -999.25   247.1884    -999.25    -999.25 -1155.7688   143.4754     0.0000     0.0000    -999.25    -999.25     2.2568    -999.25
  1236.4212  4937.1787 4937178.5000    -999.25     0.2159     8.8875     0.5462   138.2138   138.2138    -999.25    -999.25    72.7748     0.8405     0.8243     0.5462     4.0307    -999.25    -999.25     0.7992    -999.25    -999.25 16198.0928     2.2388    -999.25    -999.25    -999.25   247.3028    -999.25    -999.25 -1155.9211   143.4832     0.0000     0.0000    -999.25    -999.25     2.2388    -999.25
  1236.5736  4845.0903 4845090.0000    -999.25     0.2159     8.8864     0.5434   139.4945   139.4945    -999.25    -999.25    73.4490     0.8290     0.8121     0.5434     4.0549    -999.25    -999.25     0.8067    -999.25    -999.25 15895.9648     2.2174    -999.25    -999.25    -999.25   247.3979    -999.25    -999.25 -1156.0736   143.4910     0.0000     0.0000    -999.25    -999.25     2.2174    -999.25
  1236.7260  4780.2104 4780210.5000    -999.25     0.2159     8.8891     0.5357   140.9606   140.9606    -999.25    -999.25    73.2136     0.8279     0.8097     0.5357     4.0655    -999.25    -999.25     0.8199    -999.25    -999.25 15683.1055     2.2107    -999.25    -999.25    -999.25   247.4429    -999.25    -999.25 -1156.2260   143.4988     0.0000     0.0000    -999.25    -999.25     2.2107    -999.25
  1236.8784  4783.8374 4783837.5000    -999.25     0.2159     8.8923     0.5142   141.4399   141.4399    -999.25    -999.25    72.9442     0.8320     0.8122     0.5142     4.1206    -999.25    -999.25     0.8271    -999.25    -999.25 15695.0049     2.2199    -999.25    -999.25    -999.25   247.4828    -999.25    -999.25 -1156.3784   143.5067     0.0000     0.0000    -999.25    -999.25     2.2199    -999.25
  1237.0308  4825.2485 4825248.5000    -999.25     0.2159     8.8893     0.4926   141.1925   141.1925    -999.25    -999.25    74.4199     0.8366     0.8154     0.4926     4.1208    -999.25    -999.25     0.8284    -999.25    -999.25 15830.8682     2.2352    -999.25    -999.25    -999.25   247.5420    -999.25    -999.25 -1156.5308   143.5145     0.0000     0.0000    -999.25    -999.25     2.2352    -999.25
  1237.1832  4855.9189 4855919.0000    -999.25     0.2159     8.8851     0.4934   140.9598   140.9598    -999.25    -999.25    77.1049     0.8400     0.8181     0.4934     4.0756    -999.25    -999.25     0.8287    -999.25    -999.25 15931.4922     2.2457    -999.25    -999.25    -999.25   247.6064    -999.25    -999.25 -1156.6832   143.5223     0.0000     0.0000    -999.25    -999.25     2.2457    -999.25
  1237.3356  4856.3892 4856389.0000    -999.25     0.2159     8.8843     0.5105   141.0403   141.0403    -999.25    -999.25    78.3512     0.8429     0.8210     0.5105     4.1348    -999.25    -999.25     0.8299    -999.25    -999.25 15933.0352     2.2472    -999.25    -999.25    -999.25   247.6378    -999.25    -999.25 -1156.8356   143.5301     0.0000     0.0000    -999.25    -999.25     2.2472    -999.25
  1237.4880  4832.1255 4832125.5000    -999.25     0.2159     8.8834     0.5071   141.5088   141.5088    -999.25    -999.25    76.8547     0.8454     0.8239     0.5071     4.3256    -999.25    -999.25     0.8337    -999.25    -999.25 15853.4297     2.2434    -999.25    -999.25    -999.25   247.6227    -999.25    -999.25 -1156.9880   143.5380     0.0000     0.0000    -999.25    -999.25     2.2434    -999.25
  1237.6404  4809.4849 4809485.0000    -999.25     0.2159     8.8847     0.4937   141.7947   141.7947    -999.25    -999.25    75.1441     0.8471     0.8259     0.4937     4.4268    -999.25    -999.25     0.8351    -999.25    -999.25 15779.1504     2.2374    -999.25    -999.25    -999.25   247.5953    -999.25    -999.25 -1157.1404   143.5458     0.0000     0.0000    -999.25    -999.25     2.2374    -999.25
  1237.7928  4793.7661 4793766.5000    -999.25     0.2159     8.8872     0.5139   141.6874   141.6874    -999.25    -999.25    75.7222     0.8498     0.8286     0.5139     4.4469    -999.25    -999.25     0.8317    -999.25    -999.25 15727.5791     2.2284    -999.25    -999.25    -999.25   247.5900    -999.25    -999.25 -1157.2928   143.5536     0.0000     0.0000    -999.25    -999.25     2.2284    -999.25
  1237.9452  4784.0562 4784067.5000    -999.25     0.2159     8.8845     0.5582   141.3442   141.3442    -999.25    -999.25    76.1751     0.8559     0.8342     0.5582     4.4455    -999.25    -999.25     0.8257    -999.25    -999.25 15695.7578     2.2185    -999.25    -999.25    -999.25   247.5983    -999.25    -999.25 -1157.4452   143.5614     0.0000     0.0000    -999.25    -999.25     2.2185    -999.25
  1238.0976  4790.7739 4790774.0000    -999.25     0.2159     8.8810     0.5663   141.0188   141.0188    -999.25    -999.25    73.9912     0.8633     0.8407     0.5663     4.4337    -999.25    -999.25     0.8219    -999.25    -999.25 15717.7627     2.2165    -999.25    -999.25    -999.25   247.5762    -999.25    -999.25 -1157.5977   143.5693     0.0000     0.0000    -999.25    -999.25     2.2165    -999.25
  1238.2500  4813.4492 4813449.0000    -999.25     0.2159     8.8840     0.5372   140.9054   140.9054    -999.25    -999.25    72.3455     0.8683     0.8448     0.5372     4.4108    -999.25    -999.25     0.8230    -999.25    -999.25 15792.1553     2.2252    -999.25    -999.25    -999.25   247.5019    -999.25    -999.25 -1157.7500   143.5771     0.0000     0.0000    -999.25    -999.25     2.2252    -999.25
