~Version ---------------------------------------------------
VERS. 2.0 : CWLS log ASCII Standard -VERSION 2.0
WRAP.  NO : 
~Well ------------------------------------------------------
STRT.m                                                  1335.18 : 
STOP.m                                                1589.7801 : 
STEP.m                                                   0.1524 : 
NULL.                                                   -999.25 : 
COMP.                                                           : COMPANY
WELL.                                                   Well-13 : WELL
FLD .                                                           : FIELD
LOC .                                                           : LOCATION
SRVC.                                                           : SERVICE COMPANY
DATE. 2021-01-20 14:34:06   : Log Export Date {yyyy-MM-dd HH:mm : ss}
PROV.                                                           : PROVINCE
UWI .                                                   Well-13 : UNIQUE WELL ID
API .                                                           : API NUMBER
~Curve Information -----------------------------------------
DEPTH             .m        : DEPTH
ACOUSTICIMPEDANCE1.kPa.s/m  : ACOUSTICIMPEDANCE1
AI                .kPa.s/m  : AI
AVG_PIGN          .m3/m3    : AVG_PIGN
CALI              .in       : CALI
CALI[DERIVED]1    .in       : CALI[DERIVED]1
DT                .us/ft    : DT
FACIES            ._        : FACIES
FLD1              ._        : FLD1
GR                .gAPI     : GR
LLD               .ohm.m    : LLD
LLS               .ohm.m    : LLS
NPHI              .m3/m3    : NPHI
PEF               .b/e      : PEF
PERF_INT          ._        : PERF_INT
PERMEABILITY      .mD       : PERMEABILITY
PHIT              .m3/m3    : PHIT
PIGN              .m3/m3    : PIGN
PIGN_MODELLING    .m3/m3    : PIGN_MODELLING
PIMP              .kPa.s/m  : PIMP
RHOB              .g/cm3    : RHOB
RT_MODELLING      .ohm.m    : RT_MODELLING
RT_POWER          .ohm.m    : RT_POWER
SP                .mV       : SP
SUWI              ._        : SUWI
SUWI_MODELLING    ._        : SUWI_MODELLING
SXWI              ._        : SXWI
TDVSS             .m        : TDVSS
TEMP              .K        : TEMP
VCL               .%        : VCL
WATER_VOL         ._        : WATER_VOL
ZLT               ._        : ZLT
~Params ----------------------------------------------------
~Other -----------------------------------------------------
~ASCII -----------------------------------------------------
# ...
  1401.6040  5373.0220 5373022.0000    -999.25     8.7320     8.7320   115.2710     3.0000    -999.25    58.4796     2.8540     3.5220     0.3785     1.9950    -999.25     0.0125     0.0001     0.0001     0.0100 17628.0234     2.0320     2.8540     8.1453   437.7300     1.0000     1.0000     1.0000 -1338.2440   155.6293     0.0000     0.0001     3.0000
  1401.7560  4626.9829 4626983.0000    -999.25     8.7980     8.7980   121.7360     3.0000    -999.25    59.1933     3.9510     5.2210     0.4360     1.5450    -999.25     0.0145     0.0001     0.0001     0.0100 15180.3906     1.8480     3.9510    15.6104   438.0220     1.0000     1.0000     1.0000 -1338.3960   155.6375     0.0000     0.0001     3.0000
  1401.9081  3744.9072 3744907.2500    -999.25     8.8460     8.8460   129.0040     3.0000    -999.25    55.5745     6.0050     9.1420     0.5247     1.6280    -999.25     0.0165     0.0015     0.0001     0.0100 12286.4414     1.5850     6.0050    36.0600   438.7900     1.0000     1.0000     1.0000 -1338.5481   155.6457     0.7100     0.0001     3.0000
  1402.0601  3128.5415 3128541.5000    -999.25     8.8600     8.8600   135.5190     3.0000    -999.25    47.4954     8.0340    14.3360     0.6091     2.2560    -999.25     0.0185     0.0107     0.0001     0.0100 10264.2441     1.3910     8.0340    64.5452   440.3370     1.0000     1.0000     1.0000 -1338.7001   155.6539     5.3250     0.0001     3.0000
  1402.2121  2971.0593 2971059.5000    -999.25     8.8510     8.8510   139.0090     3.0000    -999.25    42.4635     7.6290    11.1580     0.6176     3.0410    -999.25     0.0205     0.0300     0.0001     0.0100  9747.5703     1.3550     7.6290    58.2016   442.7890     1.0000     1.0000     1.0000 -1338.8521   155.6621    15.0180     0.0001     3.0000
  1402.3640  3301.5962 3301596.2500    -999.25     8.8660     8.8660   137.1860     3.0000    -999.25    47.6663     4.9190     5.5310     0.5733     3.7100    -999.25     0.0225     0.0632     0.0001     0.0100 10832.0088     1.4860     4.9190    24.1966   445.7420     1.0000     1.0000     1.0000 -1339.0040   155.6703    31.5760     0.0001     3.0000
  1402.5160  3974.6387 3974638.7500    -999.25     8.9440     8.9440   134.6610     0.0000    -999.25    62.8832     3.0300     3.1400     0.5608     4.0880    -999.25     0.0244     0.1149     0.0001     0.0100 13040.1533     1.7560     3.0300     9.1809   448.5440     1.0000     1.0000     1.0000 -1339.1561   155.6785    57.4490     0.0001     4.0000
  1402.6680  4727.9268 4727926.5000    -999.25     9.0370     9.0370   131.9660     0.0000    -999.25    80.1211     2.3720     2.4020     0.5723     4.2100    -999.25     0.0264     0.1645     0.0001     0.0100 15511.5703     2.0470     2.3720     5.6264   450.6680     1.0000     1.0000     1.0000 -1339.3081   155.6867    82.2650     0.0001     4.0000
  1402.8201  5275.7422 5275742.0000    -999.25     9.0520     9.0520   127.7380     0.0000    -999.25    90.8916     2.2270     2.2530     0.5675     4.3910    -999.25     0.0284     0.1826     0.0001     0.0100 17308.8652     2.2110     2.2270     4.9595   451.9140     1.0000     1.0000     1.0000 -1339.4601   155.6949    91.3070     0.0001     4.0000
  1402.9721  5564.4590 5564459.0000    -999.25     8.9930     8.9930   124.3420     0.0000    -999.25    94.5027     2.2910     2.3450     0.5412     4.6100    -999.25     0.0308     0.1751     0.0001     0.0100 18256.0996     2.2700     2.2910     5.2487   452.3410     1.0000     1.0000     1.0000 -1339.6121   155.7031    87.5540     0.0001     4.0000
  1403.1240  5878.5913 5878591.5000    -999.25     8.9390     8.9390   119.6160     0.0000    -999.25    95.1787     2.4260     2.5280     0.5092     4.6190    -999.25     0.0692     0.1637     0.0001     0.0100 19286.7168     2.3070     2.4260     5.8855   452.1920     1.0000     1.0000     1.0000 -1339.7640   155.7113    81.8300     0.0001     4.0000
  1403.2760  6259.9697 6259969.5000    -999.25     8.9300     8.9300   113.8380     0.0000    -999.25    95.4102     2.6470     2.8090     0.4712     4.3690    -999.25     0.0736     0.1503     0.0001     0.0100 20537.9590     2.3380     2.6470     7.0066   451.7160     1.0000     1.0000     1.0000 -1339.9160   155.7195    75.1340     0.0001     4.0000
  1403.4280  6508.6763 6508676.5000    -999.25     8.9380     8.9380   110.3310     0.0000    -999.25    95.3942     3.0030     3.2250     0.4449     4.0070    -999.25     1.1553     0.1410     0.0001     0.0100 21353.9258     2.3560     3.0030     9.0180   451.0200     1.0000     1.0000     1.0000 -1340.0680   155.7277    70.5090     0.0001     4.0000
  1403.5801  6571.6494 6571649.0000    -999.25     8.9410     8.9410   109.1810     0.0000    -999.25    94.9126     3.3320     3.5790     0.4366     3.6950    -999.25     2.8319     0.1389     0.0001     0.0100 21560.5293     2.3540     3.3320    11.1022   450.1130     1.0000     1.0000     1.0000 -1340.2201   155.7359    69.4360     0.0001     4.0000
  1403.7321  6466.3267 6466326.5000    -999.25     8.9300     8.9300   110.1580     0.0000    -999.25    93.1326     3.3880     3.5940     0.4265     3.4880    -999.25     4.1202     0.1444     0.0038     0.0100 21214.9824     2.3370     3.3880    11.4785   449.1900     0.9754     0.9754     0.9226 -1340.3721   155.7441    70.3090     0.0037     4.0000
  1403.8840  6275.9580 6275958.0000    -999.25     8.9130     8.9130   112.0910     0.0000    -999.25    89.2283     3.2630     3.4200     0.4177     3.3940    -999.25     6.7032     0.1583     0.0192     0.0192 20590.4141     2.3080     3.2630    10.6472   448.4340     0.9209     0.9209     0.8139 -1340.5240   155.7523    69.5790     0.0176     4.0000
  1404.0360  6200.7554 6200755.0000    -999.25     8.8930     8.8930   111.7300     0.0000    -999.25    83.4871     3.1960     3.3450     0.4370     3.4100    -999.25    11.3330     0.1826     0.0674     0.0674 20343.6855     2.2730     3.1960    10.2144   447.6040     0.8939     0.8939     0.8436 -1340.6760   155.7605    57.6470     0.0602     4.0000
  1404.1880  6462.3623 6462362.0000    -999.25     8.8780     8.8780   106.9240     0.0000    -999.25    77.8615     3.2070     3.3890     0.4623     3.5960    -999.25    12.4686     0.1970     0.0988     0.0988 21201.9766     2.2670     3.2070    10.2848   446.4660     0.9043     0.9043     0.9346 -1340.8281   155.7687    49.1020     0.0893     4.0000
  1404.3401  7031.9829 7031983.0000    -999.25     8.8730     8.8730   100.6900     0.0000    -999.25    74.1381     3.2950     3.5450     0.4516     4.0470    -999.25     7.0685     0.1705     0.0529     0.0529 23070.8105     2.3230     3.2950    10.8570   445.2920     0.9454     0.9454     0.9850 -1340.9800   155.7769    58.8030     0.0500     4.0000
  1404.4921  7498.8999 7498900.0000    -999.25     8.8760     8.8760    98.1600     0.0000    -999.25    71.7190     3.5390     3.8950     0.4162     4.6350    -999.25     2.3938     0.1331     0.0074     0.0100 24602.6895     2.4150     3.5390    12.5245   444.4570     0.9919     0.9919     0.9986 -1341.1321   155.7851    62.8740     0.0074     4.0000
  1404.6441  7668.6035 7668603.5000    -999.25     8.8750     8.8750    98.9290     0.0000    -999.25    70.2202     3.8500     4.3140     0.3944     4.7990    -999.25     0.4623     0.1197     0.0001     0.0100 25159.4609     2.4890     3.8500    14.8225   443.9560     1.0000     1.0000     1.0000 -1341.2841   155.7933    59.8420     0.0001     4.0000
  1404.7960  7324.5234 7324523.5000    -999.25     8.8760     8.8760   103.8260     0.0000    -999.25    72.2418     3.9430     4.4260     0.3943     4.2910    -999.25     0.1549     0.1243     0.0001     0.0100 24030.5898     2.4950     3.9430    15.5472   443.6390     1.0000     1.0000     1.0000 -1341.4360   155.8015    62.1270     0.0001     4.0000
  1404.9480  6499.9780 6499978.0000    -999.25     8.8880     8.8880   112.0730     0.0000    -999.25    77.9768     3.8560     4.2890     0.4095     3.7850    -999.25     1.6291     0.1430     0.0045     0.0100 21325.3867     2.3900     3.8560    14.8687   443.5310     0.9360     0.9360     0.8817 -1341.5880   155.8097    69.2770     0.0042     4.0000
