~Version ---------------------------------------------------
VERS. 2.0 : CWLS log ASCII Standard -VERSION 2.0
WRAP.  NO : 
~Well ------------------------------------------------------
STRT.m                                                1235.3544 : 
STOP.m                                                1623.2124 : 
STEP.m                                                   0.1524 : 
NULL.                                                   -999.25 : 
COMP.                                                           : COMPANY
WELL.                                                   Well-20 : WELL
FLD .                                                           : FIELD
LOC .                                                           : LOCATION
SRVC.                                                           : SERVICE COMPANY
DATE. 2021-01-20 14:34:13   : Log Export Date {yyyy-MM-dd HH:mm : ss}
PROV.                                                           : PROVINCE
UWI .                                                   Well-20 : UNIQUE WELL ID
API .                                                           : API NUMBER
~Curve Information -----------------------------------------
DEPTH             .m        : DEPTH
ACOUSTICIMPEDANCE1.kPa.s/m  : ACOUSTICIMPEDANCE1
AI                .kPa.s/m  : AI
AVG_PIGN          .m3/m3    : AVG_PIGN
BIT               .m        : BIT
CALI              .in       : CALI
NPHI              .m3/m3    : NPHI
DT                .us/ft    : DT
DTDS              .us/ft    : DTDS
FACIES            ._        : FACIES
FLD1              ._        : FLD1
GR                .gAPI     : GR
M2R1              .ohm.m    : M2R1
LLD               .ohm.m    : LLD
NPHI_1            .m3/m3    : NPHI_1
PEF               .b/e      : PEF
PERF_INT          ._        : PERF_INT
PERMEABILITY      .mD       : PERMEABILITY
PHIT              .m3/m3    : PHIT
PIGN              .m3/m3    : PIGN
PIGN_MODELLING    .m3/m3    : PIGN_MODELLING
PIMP              .kPa.s/m  : PIMP
RHOB              .g/cm3    : RHOB
LLD_1             .ohm.m    : LLD_1
RT_MODELLING      .ohm.m    : RT_MODELLING
RT_POWER          .ohm.m    : RT_POWER
SP                .mV       : SP
SUWI              ._        : SUWI
SUWI_MODELLING    ._        : SUWI_MODELLING
TDVSS             .m        : TDVSS
TEMP              .K        : TEMP
TH                .kg/kg    : TH
U                 .kg/kg    : U
VCL               .%        : VCL
WATER_VOL         ._        : WATER_VOL
RHOB_1            .g/cm3    : RHOB_1
ZLT               ._        : ZLT
~Params ----------------------------------------------------
~Other -----------------------------------------------------
~ASCII -----------------------------------------------------
# ...
  1515.7704  6528.5127 6528513.0000    -999.25     0.2159     8.8177     0.5248   114.2630   114.2630     0.0000    -999.25    94.5667     2.1593     2.0988     0.5248     4.1658    -999.25     0.0829     0.6095     0.0316     0.0316 21419.0059     2.4474     1.8302     1.8302     3.3495   247.8833     1.0000     1.0000 -1435.2704   157.8262     0.0000     0.0000    84.8200     0.0316     2.4474    16.0000
  1515.9228  6053.4385 6053537.0000    -999.25     0.2159     8.8194     0.5847   119.0713   119.0713     0.0000    -999.25    99.7686     2.1443     2.1130     0.5847     4.2658    -999.25     0.1064     0.6373     0.0312     0.0312 19860.6855     2.3648     1.8426     1.8426     3.3950   247.9913     1.0000     1.0000 -1435.4229   157.8340     0.0000     0.0000    86.4590     0.0312     2.3648    16.0000
  1516.0752  5949.2729 5949273.0000    -999.25     0.2159     8.8223     0.6046   119.5628   119.5628     0.0000    -999.25   103.0948     2.3098     2.2896     0.6046     4.2909    -999.25     0.7762     0.6344     0.0584     0.0584 19518.6133     2.3337     1.9966     1.9966     3.9863   248.2404     1.0000     1.0000 -1435.5752   157.8418     0.0000     0.0000    74.4920     0.0584     2.3337    16.0000
  1516.2276  6162.5312 6162579.5000    -999.25     0.2159     8.8240     0.5583   116.1325   116.1325     0.0000    -999.25   101.5434     2.5146     2.4877     0.5583     4.2642    -999.25     0.3967     0.6032     0.0517     0.0517 20218.4355     2.3480     2.1693     2.1693     4.7058   248.4427     1.0000     1.0000 -1435.7275   157.8497     0.0000     0.0000    68.5340     0.0517     2.3480    16.0000
  1516.3800  6415.4849 6415485.0000    -999.25     0.2159     8.8218     0.5128   113.4540   113.4540     0.0000    -999.25    97.3494     2.5656     2.5144     0.5128     4.3032    -999.25     0.0296     0.5863     0.0243     0.0243 21048.1797     2.3880     2.1925     2.1925     4.8072   248.4466     1.0000     1.0000 -1435.8800   157.8575     0.0000     0.0000    73.0200     0.0243     2.3880    16.0000
  1516.5324  6550.8613 6550845.0000    -999.25     0.2159     8.8199     0.5003   113.2683   113.2683     0.0000    -999.25    94.1269     2.5189     2.4382     0.5003     4.3327    -999.25     0.0116     0.5961     0.0179     0.0179 21492.2754     2.4344     2.1261     2.1261     4.5203   248.3510     1.0000     1.0000 -1436.0323   157.8653     0.0000     0.0000    74.0510     0.0179     2.4344    16.0000
  1516.6848  6585.8306 6585830.5000    -999.25     0.2159     8.8219     0.4959   114.3793   114.3793     0.0000    -999.25    92.0973     2.5245     2.4182     0.4959     4.3740    -999.25     0.0117     0.6167     0.0177     0.0177 21607.0547     2.4714     2.1087     2.1087     4.4464   248.3246     1.0000     1.0000 -1436.1848   157.8731     0.0000     0.0000    75.3700     0.0177     2.4714    16.0000
  1516.8372  6585.7158 6585698.0000    -999.25     0.2159     8.8216     0.4755   115.0617   115.0617     0.0000    -999.25    90.9955     2.5014     2.3830     0.4755     4.4700    -999.25     0.0093     0.6274     0.0173     0.0173 21606.6211     2.4861     2.0780     2.0780     4.3179   248.3472     1.0000     1.0000 -1436.3372   157.8810     0.0000     0.0000    76.1740     0.0173     2.4861    16.0000
  1516.9896  6692.5674 6692567.5000    -999.25     0.2159     8.8173     0.4516   113.4341   113.4341     0.0000    -999.25    92.5278     2.3911     2.2742     0.4516     4.7199    -999.25     0.0060     0.6121     0.0157     0.0157 21957.2422     2.4907     1.9831     1.9831     3.9327   248.2112     1.0000     1.0000 -1436.4896   157.8888     0.0000     0.0000    72.4920     0.0157     2.4907    16.0000
  1517.1420  7086.5762 7086576.0000    -999.25     0.2159     8.8179     0.4487   108.5595   108.5595     0.0000    -999.25    96.4127     2.3538     2.2308     0.4487     5.2043    -999.25     0.0068     0.5711     0.0151     0.0151 23249.9219     2.5240     1.9453     1.9453     3.7841   247.8707     1.0000     1.0000 -1436.6420   157.8966     0.0000     0.0000    64.9680     0.0151     2.5240    16.0000
  1517.2944  7719.7983 7719798.5000    -999.25     0.2159     8.8236     0.4584   102.7345   102.7345     0.0000    -999.25    97.8574     2.4896     2.3392     0.4584     5.4753    -999.25     0.0128     0.5319     0.0164     0.0164 25327.4219     2.6020     2.0398     2.0398     4.1608   247.5729     1.0000     1.0000 -1436.7944   157.9044     0.0000     0.0000    61.3270     0.0164     2.6020    16.0000
  1517.4468  7837.2969 7837297.0000    -999.25     0.2159     8.8259     0.4656   103.2516   103.2516     0.0000    -999.25    96.8877     2.7311     2.5387     0.4656     5.1824    -999.25     0.0161     0.5505     0.0167     0.0167 25712.9160     2.6549     2.2138     2.2138     4.9008   247.5532     1.0000     1.0000 -1436.9468   157.9122     0.0000     0.0000    64.5750     0.0167     2.6549    16.0000
  1517.5992  7309.5796 7309579.5000    -999.25     0.2159     8.8233     0.4792   108.6585   108.6585     0.0000    -999.25    97.1990     2.9050     2.6830     0.4792     4.7524    -999.25     0.0130     0.5928     0.0159     0.0159 23981.5605     2.6058     2.3396     2.3396     5.4736   247.8192     1.0000     1.0000 -1437.0992   157.9201     0.0000     0.0000    73.6700     0.0159     2.6058    16.0000
  1517.7516  6548.7251 6548725.5000    -999.25     0.2159     8.8203     0.5082   116.6983   116.6983     0.0000    -999.25    99.4670     2.9290     2.7129     0.5082     4.6457    -999.25     0.0147     0.6493     0.0168     0.0168 21485.3184     2.5073     2.3656     2.3656     5.5963   248.2261     1.0000     1.0000 -1437.2516   157.9279     0.0000     0.0000    85.2130     0.0168     2.5073    16.0000
  1517.9040  5926.9746 5927070.0000    -999.25     0.2159     8.8195     0.5318   125.5615   125.5615     0.0000    -999.25   103.0512     2.8382     2.6599     0.5318     4.8868    -999.25     0.0136     0.7225     0.0160     0.0160 19445.7656     2.4416     2.3194     2.3194     5.3797   248.5800     1.0000     1.0000 -1437.4041   157.9357     0.0000     0.0000    88.2480     0.0160     2.4416    16.0000
  1518.0564  5860.4707 5860471.0000    -999.25     0.2159     8.8186     0.5288   125.7329   125.7329     0.0000    -999.25   110.3662     2.6836     2.5544     0.5288     5.1575    -999.25     0.0154     0.7181     0.0163     0.0163 19227.2656     2.4175     2.2274     2.2274     4.9614   248.7436     1.0000     1.0000 -1437.5564   157.9435     0.0000     0.0000    89.2170     0.0163     2.4175    16.0000
  1518.2088  5930.2822 5930277.5000    -999.25     0.2159     8.8171     0.5119   123.6206   123.6206     0.0000    -999.25   120.9465     2.5061     2.4149     0.5119     4.9817    -999.25     0.0216     0.6935     0.0176     0.0176 19456.2910     2.4052     2.1058     2.1058     4.4343   248.7863     1.0000     1.0000 -1437.7087   157.9514     0.0000     0.0000    90.0000     0.0176     2.4052    16.0000
  1518.3612  5957.8159 5957816.0000    -999.25     0.2159     8.8203     0.5149   122.2563   122.2563     0.0000    -999.25   132.0504     2.3457     2.2687     0.5149     4.5304    -999.25     0.0296     0.6758     0.0182     0.0182 19546.6406     2.3897     1.9783     1.9783     3.9136   248.8708     1.0000     1.0000 -1437.8612   157.9592     0.0000     0.0000    87.4770     0.0182     2.3897    16.0000
  1518.5136  6095.7158 6095797.5000    -999.25     0.2159     8.8270     0.5342   119.4206   119.4206     0.0000    -999.25   138.7928     2.2690     2.1826     0.5342     4.4518    -999.25     0.0217     0.6467     0.0153     0.0153 19999.3359     2.3883     1.9032     1.9032     3.6223   248.9960     1.0000     1.0000 -1438.0135   157.9670     0.0000     0.0000    83.6850     0.0153     2.3883    16.0000
  1518.6660  6352.2280 6352228.0000    -999.25     0.2159     8.8278     0.5287   116.8102   116.8102     0.0000    -999.25   136.5899     2.3706     2.2513     0.5287     4.8292    -999.25     0.0104     0.6320     0.0118     0.0118 20840.6445     2.4344     1.9632     1.9632     3.8541   248.9746     1.0000     1.0000 -1438.1660   157.9749     0.0000     0.0000    73.0130     0.0118     2.4344    16.0000
