~Version ---------------------------------------------------
VERS. 2.0 : CWLS log ASCII Standard -VERSION 2.0
WRAP.  NO : 
~Well ------------------------------------------------------
STRT.m                                                  1335.18 : 
STOP.m                                                1589.7801 : 
STEP.m                                                   0.1524 : 
NULL.                                                   -999.25 : 
COMP.                                                           : COMPANY
WELL.                                                   Well-13 : WELL
FLD .                                                           : FIELD
LOC .                                                           : LOCATION
SRVC.                                                           : SERVICE COMPANY
DATE. 2021-01-20 14:34:06   : Log Export Date {yyyy-MM-dd HH:mm : ss}
PROV.                                                           : PROVINCE
UWI .                                                   Well-13 : UNIQUE WELL ID
API .                                                           : API NUMBER
~Curve Information -----------------------------------------
DEPTH             .m        : DEPTH
ACOUSTICIMPEDANCE1.kPa.s/m  : ACOUSTICIMPEDANCE1
AI                .kPa.s/m  : AI
AVG_PIGN          .m3/m3    : AVG_PIGN
CALI              .in       : CALI
CALI[DERIVED]1    .in       : CALI[DERIVED]1
DT                .us/ft    : DT
FACIES            ._        : FACIES
FLD1              ._        : FLD1
GR                .gAPI     : GR
LLD               .ohm.m    : LLD
LLS               .ohm.m    : LLS
NPHI              .m3/m3    : NPHI
PEF               .b/e      : PEF
PERF_INT          ._        : PERF_INT
PERMEABILITY      .mD       : PERMEABILITY
PHIT              .m3/m3    : PHIT
PIGN              .m3/m3    : PIGN
PIGN_MODELLING    .m3/m3    : PIGN_MODELLING
PIMP              .kPa.s/m  : PIMP
RHOB              .g/cm3    : RHOB
RT_MODELLING      .ohm.m    : RT_MODELLING
RT_POWER          .ohm.m    : RT_POWER
SP                .mV       : SP
SUWI              ._        : SUWI
SUWI_MODELLING    ._        : SUWI_MODELLING
SXWI              ._        : SXWI
TDVSS             .m        : TDVSS
TEMP              .K        : TEMP
VCL               .%        : VCL
WATER_VOL         ._        : WATER_VOL
ZLT               ._        : ZLT
~Params ----------------------------------------------------
~Other -----------------------------------------------------
~ASCII -----------------------------------------------------
# ...
  1384.1240  5217.1733 5217173.0000    -999.25     9.5590     9.5590   134.8390     0.0000    -999.25    91.0322     1.0850     1.1510     0.5598     4.5490    -999.25     0.0511     0.1945     0.0502     0.0502 17116.7090     2.3080     1.0850     1.1772   446.8690     1.0000     1.0000     1.0000 -1320.7640   154.6864    72.1530     0.0502     2.0000
  1384.2760  5243.9053 5243905.0000    -999.25     9.5420     9.5420   134.3260     0.0000    -999.25    92.1266     1.1530     1.2450     0.5343     4.5430    -999.25     0.0460     0.1940     0.0518     0.0518 17204.4141     2.3110     1.1530     1.3294   446.9000     1.0000     1.0000     1.0000 -1320.9160   154.6946    71.0780     0.0518     2.0000
  1384.4280  5330.6597 5330659.5000    -999.25     9.4690     9.4690   131.8540     0.0000    -999.25    91.2374     1.2310     1.3540     0.4894     4.5360    -999.25     0.2795     0.1909     0.0511     0.0511 17489.0410     2.3060     1.2310     1.5154   446.8730     1.0000     1.0000     1.0000 -1321.0681   154.7028    69.8740     0.0511     2.0000
  1384.5801  5490.9331 5490933.5000    -999.25     9.3580     9.3580   128.9490     0.0000    -999.25    90.2840     1.3550     1.5230     0.4534     4.5540    -999.25     0.9086     0.1804     0.0452     0.0452 18014.8730     2.3230     1.3550     1.8360   446.5180     1.0000     1.0000     1.0000 -1321.2200   154.7110    67.5790     0.0452     2.0000
  1384.7321  5788.4590 5788459.0000    -999.25     9.2250     9.2250   124.3220     0.0000    -999.25    88.7665     1.6010     1.8480     0.4320     4.6330    -999.25     0.8721     0.1620     0.0343     0.0343 18991.0078     2.3610     1.6010     2.5632   445.7600     1.0000     1.0000     1.0000 -1321.3721   154.7192    63.8850     0.0343     2.0000
  1384.8840  6099.2573 6099257.5000    -999.25     9.0800     9.0800   121.6350     0.0000    -999.25    84.0968     1.9040     2.2470     0.4265     4.5460    -999.25     0.0974     0.1448     0.0234     0.0234 20010.6875     2.4340     1.9040     3.6252   444.9710     1.0000     1.0000     1.0000 -1321.5240   154.7274    60.7100     0.0234     2.0000
  1385.0360  6037.5938 6037594.0000    -999.25     9.0190     9.0190   123.7860     0.0000    -999.25    78.3027     1.9160     2.2070     0.4584     4.2880    -999.25     0.0425     0.1445     0.0258     0.0258 19808.3789     2.4520     1.9160     3.6711   444.6170     1.0000     1.0000     1.0000 -1321.6760   154.7356    59.3720     0.0258     2.0000
  1385.1880  5837.1680 5837168.0000    -999.25     9.1140     9.1140   125.7910     0.0000    -999.25    77.7907     1.6100     1.7640     0.5299     4.2450    -999.25     0.0752     0.1667     0.0458     0.0458 19150.8125     2.4090     1.6100     2.5921   444.7750     1.0000     1.0000     1.0000 -1321.8280   154.7438    60.4230     0.0458     2.0000
  1385.3401  5570.4111 5570411.0000    -999.25     9.2380     9.2380   128.6960     0.0000    -999.25    83.7930     1.3750     1.4680     0.5935     4.4640    -999.25     0.0845     0.1883     0.0588     0.0588 18275.6270     2.3520     1.3750     1.8906   445.1510     1.0000     1.0000     1.0000 -1321.9801   154.7520    64.7750     0.0588     2.0000
  1385.4921  5421.9336 5421933.5000    -999.25     9.2640     9.2640   129.8030     0.0000    -999.25    90.9471     1.3100     1.3870     0.6015     4.6590    -999.25     0.0571     0.1938     0.0572     0.0572 17788.4961     2.3090     1.3100     1.7161   445.4040     1.0000     1.0000     1.0000 -1322.1321   154.7602    68.2880     0.0572     2.0000
  1385.6441  5503.7749 5503775.0000    -999.25     9.2180     9.2180   128.4820     0.0000    -999.25    94.7756     1.3240     1.4050     0.5913     4.7230    -999.25     0.0369     0.1937     0.0579     0.0579 18057.0039     2.3200     1.3240     1.7530   445.4550     1.0000     1.0000     1.0000 -1322.2841   154.7684    67.8890     0.0579     2.0000
  1385.7960  5559.9243 5559924.0000    -999.25     9.1800     9.1800   128.5550     0.0000    -999.25    95.0793     1.3400     1.4350     0.5855     4.7440    -999.25     0.0275     0.1927     0.0612     0.0612 18241.2207     2.3450     1.3400     1.7956   445.4900     1.0000     1.0000     1.0000 -1322.4360   154.7766    65.7740     0.0612     2.0000
  1385.9480  5583.3965 5583396.5000    -999.25     9.1740     9.1740   128.8880     0.0000    -999.25    93.0178     1.3450     1.4550     0.5405     4.8030    -999.25     0.0203     0.1885     0.0604     0.0604 18318.2305     2.3610     1.3450     1.8090   445.6280     1.0000     1.0000     1.0000 -1322.5880   154.7848    64.0460     0.0604     2.0000
  1386.1001  5711.5908 5711591.0000    -999.25     9.1630     9.1630   126.8490     0.0000    -999.25    90.3603     1.3660     1.4930     0.4833     5.0050    -999.25     0.0171     0.1828     0.0575     0.0575 18738.8145     2.3770     1.3660     1.8660   445.7110     1.0000     1.0000     1.0000 -1322.7401   154.7930    62.6500     0.0575     2.0000
  1386.2521  6031.3818 6031382.0000    -999.25     9.1070     9.1070   121.7910     0.0000    -999.25    87.8300     1.4420     1.5900     0.4732     5.3940    -999.25     0.0146     0.1776     0.0597     0.0597 19787.9980     2.4100     1.4420     2.0794   445.6590     1.0000     1.0000     1.0000 -1322.8920   154.8012    58.9630     0.0597     2.0000
  1386.4041  6371.9448 6371944.5000    -999.25     9.0110     9.0110   117.4820     0.0000    -999.25    84.9144     1.5940     1.7730     0.4919     5.7990    -999.25     0.0105     0.1665     0.0586     0.0586 20905.3301     2.4560     1.5940     2.5408   445.5580     1.0000     1.0000     1.0000 -1323.0441   154.8094    53.9650     0.0586     2.0000
  1386.5560  6642.6470 6642647.0000    -999.25     8.9270     8.9270   114.4380     0.0000    -999.25    81.6863     1.7720     1.9810     0.4883     5.8510    -999.25     0.0072     0.1508     0.0472     0.0472 21793.4609     2.4940     1.7720     3.1400   445.3180     1.0000     1.0000     1.0000 -1323.1960   154.8176    51.7880     0.0472     2.0000
  1386.7080  6644.1196 6644119.5000    -999.25     8.8870     8.8870   114.2750     0.0000    -999.25    80.0309     1.8540     2.0500     0.4765     5.4430    -999.25     0.0114     0.1415     0.0350     0.0350 21798.2930     2.4910     1.8540     3.4373   444.7990     1.0000     1.0000     1.0000 -1323.3480   154.8258    53.2360     0.0350     2.0000
  1386.8601  6172.0845 6172084.5000    -999.25     8.8900     8.8900   120.1010     0.0000    -999.25    82.1858     1.7990     1.9320     0.4884     4.8980    -999.25     0.0317     0.1475     0.0337     0.0337 20249.6211     2.4320     1.7990     3.2364   444.2910     1.0000     1.0000     1.0000 -1323.5000   154.8340    56.8670     0.0337     2.0000
  1387.0121  5635.8618 5635861.5000    -999.25     8.9750     8.9750   126.9310     0.0000    -999.25    87.1360     1.6440     1.7030     0.5100     4.4780    -999.25     0.0652     0.1662     0.0447     0.0447 18490.3594     2.3470     1.6440     2.7027   444.2070     1.0000     1.0000     1.0000 -1323.6521   154.8422    60.7450     0.0447     2.0000
  1387.1641  5302.0737 5302073.5000    -999.25     9.2040     9.2040   132.1050     0.0000    -999.25    91.1448     1.4520     1.4630     0.5322     4.2700    -999.25     0.0844     0.1852     0.0568     0.0568 17395.2559     2.2980     1.4520     2.1083   444.6130     1.0000     1.0000     1.0000 -1323.8041   154.8504    64.2190     0.0568     2.0000
  1387.3160  5128.8462 5128846.5000    -999.25     9.4950     9.4950   136.0320     0.0000    -999.25    91.6946     1.3120     1.3100     0.5449     4.2750    -999.25     0.0823     0.1935     0.0593     0.0593 16826.9238     2.2890     1.3120     1.7213   445.2850     1.0000     1.0000     1.0000 -1323.9561   154.8586    67.1260     0.0593     2.0000
  1387.4680  5213.0898 5213090.0000    -999.25     9.6600     9.6600   134.2430     0.0000    -999.25    90.5236     1.2620     1.2700     0.5430     4.4040    -999.25     0.0699     0.1926     0.0585     0.0585 17103.3125     2.2960     1.2620     1.5926   445.9390     1.0000     1.0000     1.0000 -1324.1080   154.8668    67.0440     0.0585     2.0000
