~Version ---------------------------------------------------
VERS. 2.0 : CWLS log ASCII Standard -VERSION 2.0
WRAP.  NO : 
~Well ------------------------------------------------------
STRT.m                                                  1335.18 : 
STOP.m                                                1589.7801 : 
STEP.m                                                   0.1524 : 
NULL.                                                   -999.25 : 
COMP.                                                           : COMPANY
WELL.                                                   Well-13 : WELL
FLD .                                                           : FIELD
LOC .                                                           : LOCATION
SRVC.                                                           : SERVICE COMPANY
DATE. 2021-01-20 14:34:06   : Log Export Date {yyyy-MM-dd HH:mm : ss}
PROV.                                                           : PROVINCE
UWI .                                                   Well-13 : UNIQUE WELL ID
API .                                                           : API NUMBER
~Curve Information -----------------------------------------
DEPTH             .m        : DEPTH
ACOUSTICIMPEDANCE1.kPa.s/m  : ACOUSTICIMPEDANCE1
AI                .kPa.s/m  : AI
AVG_PIGN          .m3/m3    : AVG_PIGN
CALI              .in       : CALI
CALI[DERIVED]1    .in       : CALI[DERIVED]1
DT                .us/ft    : DT
FACIES            ._        : FACIES
FLD1              ._        : FLD1
GR                .gAPI     : GR
LLD               .ohm.m    : LLD
LLS               .ohm.m    : LLS
NPHI              .m3/m3    : NPHI
PEF               .b/e      : PEF
PERF_INT          ._        : PERF_INT
PERMEABILITY      .mD       : PERMEABILITY
PHIT              .m3/m3    : PHIT
PIGN              .m3/m3    : PIGN
PIGN_MODELLING    .m3/m3    : PIGN_MODELLING
PIMP              .kPa.s/m  : PIMP
RHOB              .g/cm3    : RHOB
RT_MODELLING      .ohm.m    : RT_MODELLING
RT_POWER          .ohm.m    : RT_POWER
SP                .mV       : SP
SUWI              ._        : SUWI
SUWI_MODELLING    ._        : SUWI_MODELLING
SXWI              ._        : SXWI
TDVSS             .m        : TDVSS
TEMP              .K        : TEMP
VCL               .%        : VCL
WATER_VOL         ._        : WATER_VOL
ZLT               ._        : ZLT
~Params ----------------------------------------------------
~Other -----------------------------------------------------
~ASCII -----------------------------------------------------
# ...
  1502.9880  6193.9312 6193931.0000    -999.25     8.9030     8.9030   116.0851     0.0000    -999.25   101.7858     2.3070     2.4060     0.4898     4.6570    -999.25     1.7232     0.1862     0.0567     0.0567 20321.2969     2.3590     2.3070     5.3222   482.6460     1.0000     1.0000     1.0000 -1439.6281   161.0979    64.7650     0.0567    20.0000
  1503.1400  6779.8955 6779895.5000    -999.25     8.8930     8.8930   110.6828     0.0000    -999.25    97.7656     2.6710     2.7990     0.5241     5.5180    -999.25     2.3342     0.1688     0.0371     0.0371 22243.7520     2.4620     2.6710     7.1342   482.1790     1.0000     1.0000     1.0000 -1439.7800   161.1062    65.8500     0.0371    20.0000
  1503.2921  7224.4980 7224498.0000    -999.25     8.8770     8.8770   108.0902     0.0000    -999.25    87.9902     3.1400     3.3360     0.5443     5.9510    -999.25     0.3043     0.1501     0.0067     0.0100 23702.4219     2.5620     3.1400     9.8596   481.5420     1.0000     1.0000     1.0000 -1439.9320   161.1144    71.7080     0.0067    20.0000
  1503.4441  7230.5474 7230547.5000    -999.25     8.8780     8.8780   108.8429     0.0000    -999.25    78.9057     3.1080     3.3280     0.5237     5.4270    -999.25     0.0151     0.1451     0.0004     0.0100 23722.2676     2.5820     3.1080     9.6597   480.9400     1.0000     1.0000     1.0000 -1440.0841   161.1225    72.3830     0.0004    20.0000
  1503.5961  6869.5469 6869547.0000    -999.25     8.8890     8.8890   111.9448     0.0000    -999.25    77.7136     2.5920     2.7680     0.4988     4.9810    -999.25     0.0013     0.1537     0.0041     0.0100 22537.8848     2.5230     2.5920     6.7185   480.6720     1.0000     1.0000     1.0000 -1440.2361   161.1308    74.8040     0.0041    20.0000
  1503.7480  6500.5430 6500543.0000    -999.25     8.8920     8.8920   116.2363     0.0000    -999.25    82.6013     2.2010     2.3520     0.5099     5.0430    -999.25     0.0013     0.1721     0.0143     0.0143 21327.2402     2.4790     2.2010     4.8444   480.6930     1.0000     1.0000     1.0000 -1440.3881   161.1390    78.8720     0.0143    20.0000
  1503.9000  6279.4634 6279463.0000    -999.25     8.8870     8.8870   119.4064     0.0000    -999.25    85.4509     2.0850     2.2440     0.5387     5.2410    -999.25     0.0072     0.1846     0.0249     0.0249 20601.9141     2.4600     2.0850     4.3472   480.6600     1.0000     1.0000     1.0000 -1440.5400   161.1471    79.8820     0.0249    20.0000
  1504.0521  6234.4058 6234406.0000    -999.25     8.8870     8.8870   119.9760     0.0000    -999.25    83.7069     2.1270     2.3140     0.5432     5.3700    -999.25     0.0176     0.1889     0.0303     0.0303 20454.0879     2.4540     2.1270     4.5241   480.3620     1.0000     1.0000     1.0000 -1440.6921   161.1553    79.2800     0.0303    20.0000
  1504.2041  6232.9121 6232912.0000    -999.25     8.8910     8.8910   119.4179     0.0000    -999.25    82.0509     2.2010     2.4240     0.5131     5.4130    -999.25     0.0165     0.1904     0.0356     0.0356 20449.1875     2.4420     2.2010     4.8444   479.8170     1.0000     1.0000     1.0000 -1440.8440   161.1636    77.4170     0.0356    20.0000
  1504.3561  6198.8203 6198820.5000    -999.25     8.8950     8.8950   119.6322     0.0000    -999.25    82.9939     2.2120     2.4530     0.4752     5.4440    -999.25     0.0085     0.1920     0.0430     0.0430 20337.3359     2.4330     2.2120     4.8929   479.1380     1.0000     1.0000     1.0000 -1440.9960   161.1717    74.4570     0.0430    20.0000
  1504.5080  6170.8750 6170875.0000    -999.25     8.8910     8.8910   120.0752     0.0000    -999.25    85.4950     2.1170     2.3420     0.4686     5.4980    -999.25     0.0114     0.1930     0.0459     0.0459 20245.6523     2.4310     2.1170     4.4817   478.4020     1.0000     1.0000     1.0000 -1441.1481   161.1799    73.5660     0.0459    20.0000
  1504.6600  6171.2998 6171299.5000    -999.25     8.8820     8.8820   120.3139     0.0000    -999.25    87.3762     1.9710     2.1650     0.4979     5.7520    -999.25     0.0328     0.1935     0.0418     0.0418 20247.0469     2.4360     1.9710     3.8848   477.6120     1.0000     1.0000     1.0000 -1441.3000   161.1882    75.8230     0.0418    20.0000
  1504.8120  6227.0220 6227022.0000    -999.25     8.8830     8.8830   120.8036     0.0000    -999.25    86.4581     1.8690     2.0460     0.5095     6.2450    -999.25     0.0651     0.1929     0.0401     0.0401 20429.8633     2.4680     1.8690     3.4932   476.7170     1.0000     1.0000     1.0000 -1441.4520   161.1963    76.4410     0.0401    20.0000
  1504.9641  6428.5054 6428505.0000    -999.25     8.8950     8.8950   120.9052     0.0000    -999.25    83.2966     1.8470     2.0280     0.4811     6.6050    -999.25     0.0666     0.1835     0.0314     0.0314 21090.8965     2.5500     1.8470     3.4114   475.7040     1.0000     1.0000     1.0000 -1441.6040   161.2045    76.0060     0.0314    20.0000
  1505.1161  6585.2959 6585296.0000    -999.25     8.9020     8.9020   120.4797     0.0000    -999.25    81.7044     1.8950     2.1050     0.4595     6.3850    -999.25     0.0359     0.1696     0.0155     0.0155 21605.3027     2.6030     1.8950     3.5910   474.6130     1.0000     1.0000     1.0000 -1441.7561   161.2128    77.0260     0.0155    20.0000
  1505.2680  6529.0479 6529048.0000    -999.25     8.9040     8.9040   120.2105     0.0000    -999.25    81.8632     1.9930     2.2510     0.4640     5.9010    -999.25     0.0194     0.1684     0.0129     0.0129 21420.7598     2.5750     1.9930     3.9720   473.4360     1.0000     1.0000     1.0000 -1441.9081   161.2209    77.7830     0.0129    20.0000
  1505.4200  6412.3311 6412331.0000    -999.25     8.9130     8.9130   120.1169     0.0000    -999.25    80.9419     2.1200     2.4350     0.4844     5.7390    -999.25     0.0204     0.1784     0.0224     0.0224 21037.8301     2.5270     2.1200     4.4944   472.0790     1.0000     1.0000     1.0000 -1442.0601   161.2291    78.0070     0.0224    20.0000
  1505.5720  6312.5317 6312531.5000    -999.25     8.9220     8.9220   119.8914     0.0000    -999.25    78.4718     2.2450     2.6090     0.5150     5.8840    -999.25     0.0300     0.1892     0.0366     0.0366 20710.4062     2.4830     2.2450     5.0400   470.5550     1.0000     1.0000     1.0000 -1442.2120   161.2373    76.2950     0.0366    20.0000
  1505.7241  6292.9062 6292906.0000    -999.25     8.9290     8.9290   119.2482     0.0000    -999.25    76.6698     2.3400     2.7240     0.5310     6.2170    -999.25     0.0353     0.1912     0.0431     0.0431 20646.0176     2.4620     2.3400     5.4756   469.0470     1.0000     1.0000     1.0000 -1442.3641   161.2455    74.0380     0.0431    20.0000
  1505.8761  6363.5972 6363597.5000    -999.25     8.9330     8.9330   118.5941     0.0000    -999.25    76.8831     2.4070     2.7830     0.5122     6.3880    -999.25     0.0290     0.1829     0.0288     0.0288 20877.9434     2.4760     2.4070     5.7936   467.7010     1.0000     1.0000     1.0000 -1442.5160   161.2537    77.0240     0.0288    20.0000
  1506.0280  6393.4004 6393400.5000    -999.25     8.9300     8.9300   118.7563     0.0000    -999.25    78.7249     2.4430     2.7890     0.4942     5.9100    -999.25     0.0162     0.1745     0.0109     0.0109 20975.7227     2.4910     2.4430     5.9682   466.5190     1.0000     1.0000     1.0000 -1442.6681   161.2619    81.7910     0.0109    20.0000
  1506.1800  6244.2642 6244264.0000    -999.25     8.9220     8.9220   119.9819     0.0000    -999.25    81.1782     2.4040     2.7000     0.5091     5.2380    -999.25     0.0101     0.1788     0.0150     0.0150 20486.4297     2.4580     2.4040     5.7792   465.5180     1.0000     1.0000     1.0000 -1442.8201   161.2701    81.8760     0.0150    20.0000
  1506.3320  5953.9185 5953918.5000    -999.25     8.9130     8.9130   122.2493     0.0000    -999.25    82.9423     2.2630     2.4970     0.5405     5.0100    -999.25     0.0146     0.1896     0.0310     0.0310 19533.8535     2.3880     2.2630     5.1212   464.7760     1.0000     1.0000     1.0000 -1442.9720   161.2783    79.3030     0.0310    20.0000
