~Version ---------------------------------------------------
VERS. 2.0 : CWLS log ASCII Standard -VERSION 2.0
WRAP.  NO : 
~Well ------------------------------------------------------
STRT.m                                                  1335.18 : 
STOP.m                                                1589.7801 : 
STEP.m                                                   0.1524 : 
NULL.                                                   -999.25 : 
COMP.                                                           : COMPANY
WELL.                                                   Well-13 : WELL
FLD .                                                           : FIELD
LOC .                                                           : LOCATION
SRVC.                                                           : SERVICE COMPANY
DATE. 2021-01-20 14:34:06   : Log Export Date {yyyy-MM-dd HH:mm : ss}
PROV.                                                           : PROVINCE
UWI .                                                   Well-13 : UNIQUE WELL ID
API .                                                           : API NUMBER
~Curve Information -----------------------------------------
DEPTH             .m        : DEPTH
ACOUSTICIMPEDANCE1.kPa.s/m  : ACOUSTICIMPEDANCE1
AI                .kPa.s/m  : AI
AVG_PIGN          .m3/m3    : AVG_PIGN
CALI              .in       : CALI
CALI[DERIVED]1    .in       : CALI[DERIVED]1
DT                .us/ft    : DT
FACIES            ._        : FACIES
FLD1              ._        : FLD1
GR                .gAPI     : GR
LLD               .ohm.m    : LLD
LLS               .ohm.m    : LLS
NPHI              .m3/m3    : NPHI
PEF               .b/e      : PEF
PERF_INT          ._        : PERF_INT
PERMEABILITY      .mD       : PERMEABILITY
PHIT              .m3/m3    : PHIT
PIGN              .m3/m3    : PIGN
PIGN_MODELLING    .m3/m3    : PIGN_MODELLING
PIMP              .kPa.s/m  : PIMP
RHOB              .g/cm3    : RHOB
RT_MODELLING      .ohm.m    : RT_MODELLING
RT_POWER          .ohm.m    : RT_POWER
SP                .mV       : SP
SUWI              ._        : SUWI
SUWI_MODELLING    ._        : SUWI_MODELLING
SXWI              ._        : SXWI
TDVSS             .m        : TDVSS
TEMP              .K        : TEMP
VCL               .%        : VCL
WATER_VOL         ._        : WATER_VOL
ZLT               ._        : ZLT
~Params ----------------------------------------------------
~Other -----------------------------------------------------
~ASCII -----------------------------------------------------
# ...
  1586.8920  5615.4736 5615473.5000    -999.25     8.9560     8.9560   129.5630     0.0000    -999.25    81.8330     2.3870     2.5460     0.4675     5.2900    -999.25    -999.25     0.1919     0.0336     0.0336 18423.4707     2.3870     2.3870     5.6978   463.1590     1.0000     1.0000     1.0000 -1523.5321   165.6238    79.1350     0.0336    -999.25
  1587.0440  5800.4375 5800437.5000    -999.25     8.9550     8.9550   126.5350     0.0000    -999.25    86.8748     2.2490     2.3670     0.4947     5.1650    -999.25    -999.25     0.1903     0.0245     0.0245 19030.3066     2.4080     2.2490     5.0580   462.9230     1.0000     1.0000     1.0000 -1523.6841   165.6320    82.9110     0.0245    -999.25
  1587.1961  5821.5449 5821545.0000    -999.25     8.9550     8.9550   125.6050     0.0000    -999.25    90.9378     2.1090     2.2030     0.5415     5.0240    -999.25    -999.25     0.1931     0.0186     0.0186 19099.5566     2.3990     2.1090     4.4479   462.7710     1.0000     1.0000     1.0000 -1523.8361   165.6402    87.2200     0.0186    -999.25
  1587.3481  5724.8130 5724813.0000    -999.25     8.9500     8.9500   126.7690     0.0000    -999.25    92.3881     2.0300     2.1200     0.5730     4.9820    -999.25    -999.25     0.1959     0.0162     0.0162 18782.1953     2.3810     2.0300     4.1209   462.8570     1.0000     1.0000     1.0000 -1523.9880   165.6484    89.8450     0.0162    -999.25
  1587.5001  5615.1909 5615191.0000    -999.25     8.9460     8.9460   129.0810     0.0000    -999.25    91.2661     1.9940     2.0920     0.5718     5.0390    -999.25    -999.25     0.1969     0.0125     0.0125 18422.5410     2.3780     1.9940     3.9760   463.0830     1.0000     1.0000     1.0000 -1524.1400   165.6566    92.1870     0.0125    -999.25
  1587.6520  5585.9888 5585989.0000    -999.25     8.9500     8.9500   130.3560     0.0000    -999.25    89.3189     1.9760     2.0860     0.5619     5.2320    -999.25    -999.25     0.1971     0.0109     0.0109 18326.7344     2.3890     1.9760     3.9046   463.1400     1.0000     1.0000     1.0000 -1524.2920   165.6647    93.0850     0.0109    -999.25
  1587.8040  5615.9790 5615979.0000    -999.25     8.9560     8.9560   130.4740     0.0000    -999.25    88.2922     1.9720     2.0930     0.5650     5.5450    -999.25    -999.25     0.1973     0.0099     0.0100 18425.1270     2.4040     1.9720     3.8888   462.8090     1.0000     1.0000     1.0000 -1524.4441   165.6729    93.6870     0.0099    -999.25
  1587.9561  5651.5166 5651516.5000    -999.25     8.9580     8.9580   130.0850     0.0000    -999.25    87.6051     1.9830     2.1070     0.5767     5.7620    -999.25    -999.25     0.1976     0.0085     0.0100 18541.7207     2.4120     1.9830     3.9323   462.3220     1.0000     1.0000     1.0000 -1524.5961   165.6812    94.5610     0.0085    -999.25
  1588.1081  5640.7949 5640795.0000    -999.25     8.9490     8.9490   129.9000     0.0000    -999.25    85.8809     1.9890     2.1070     0.5745     5.6100    -999.25    -999.25     0.1977     0.0096     0.0100 18506.5449     2.4040     1.9890     3.9561   461.9610     1.0000     1.0000     1.0000 -1524.7480   165.6893    94.0600     0.0096    -999.25
  1588.2601  5557.1885 5557188.5000    -999.25     8.9390     8.9390   130.1540     0.0000    -999.25    83.9899     1.9760     2.0780     0.5540     5.0800    -999.25    -999.25     0.1976     0.0125     0.0125 18232.2461     2.3730     1.9760     3.9046   461.8010     1.0000     1.0000     1.0000 -1524.9000   165.6976    92.5410     0.0125    -999.25
  1588.4120  5420.3735 5420373.5000    -999.25     8.9450     8.9450   130.9650     0.0000    -999.25    83.9201     1.9520     2.0360     0.5493     4.4790    -999.25    -999.25     0.1978     0.0126     0.0126 17783.3770     2.3290     1.9520     3.8103   461.8020     1.0000     1.0000     1.0000 -1525.0520   165.7057    92.5530     0.0126    -999.25
  1588.5640  5334.6411 5334641.0000    -999.25     8.9680     8.9680   131.9270     0.0000    -999.25    85.1098     1.9370     2.0070     0.5628     4.1250    -999.25    -999.25     0.1979     0.0111     0.0111 17502.1035     2.3090     1.9370     3.7520   461.9190     1.0000     1.0000     1.0000 -1525.2040   165.7139    93.4170     0.0111    -999.25
  1588.7160  5436.2554 5436255.0000    -999.25     8.9970     8.9970   131.0870     0.0000    -999.25    86.3837     1.9580     2.0180     0.5566     4.1350    -999.25    -999.25     0.1974     0.0144     0.0144 17835.4824     2.3380     1.9580     3.8338   462.1140     1.0000     1.0000     1.0000 -1525.3561   165.7222    91.4910     0.0144    -999.25
  1588.8681  5713.0181 5713018.0000    -999.25     9.0160     9.0160   127.8310     0.0000    -999.25    86.7579     2.0290     2.0820     0.5287     4.3490    -999.25    -999.25     0.1943     0.0184     0.0184 18743.4980     2.3960     2.0290     4.1168   462.3820     1.0000     1.0000     1.0000 -1525.5081   165.7303    87.9410     0.0184    -999.25
  1589.0201  5898.4580 5898458.0000    -999.25     9.0170     9.0170   124.9490     0.0000    -999.25    85.2850     2.0750     2.1140     0.5225     4.4520    -999.25    -999.25     0.1924     0.0190     0.0190 19351.8965     2.4180     2.0750     4.3056   462.6260     1.0000     1.0000     1.0000 -1525.6600   165.7385    86.7060     0.0190    -999.25
  1589.1720  5778.9512 5778951.5000    -999.25     9.0310     9.0310   124.8430     0.0000    -999.25    83.3743     1.9660     1.9830     0.5410     4.4190    -999.25    -999.25     0.1951     0.0197     0.0197 18959.8145     2.3670     1.9660     3.8652   462.7840     1.0000     1.0000     1.0000 -1525.8120   165.7467    87.6860     0.0197    -999.25
  1589.3240  5459.4165 5459416.5000    -999.25     9.1070     9.1070   128.1860     0.0000    -999.25    83.3670     1.7550     1.7610     0.5443     4.3890    -999.25    -999.25     0.1967     0.0196     0.0196 17911.4727     2.2960     1.7550     3.0800   463.0340     1.0000     1.0000     1.0000 -1525.9641   165.7550    88.5640     0.0196    -999.25
  1589.4760  5160.8994 5160899.5000    -999.25     9.2130     9.2130   134.0650     0.0000    -999.25    84.9159     1.5990     1.6090     0.5197     4.5500    -999.25    -999.25     0.1963     0.0207     0.0207 16932.0840     2.2700     1.5990     2.5568   463.4140     1.0000     1.0000     1.0000 -1526.1161   165.7631    87.8060     0.0207    -999.25
  1589.6281  5065.7437 5065743.5000    -999.25     9.2240     9.2240   137.5460     0.0000    -999.25    86.5469     1.5500     1.5790     0.4982     4.9450    -999.25    -999.25     0.1958     0.0226     0.0226 16619.8945     2.2860     1.5500     2.4025   463.6490     1.0000     1.0000     1.0000 -1526.2681   165.7713    86.6100     0.0226    -999.25
  1589.7801  5136.0581 5136058.0000    -999.25     9.1070     9.1070   137.5620     0.0000    -999.25    87.6236     1.6100     1.6740     0.4980     5.2540    -999.25    -999.25    -999.25    -999.25    -999.25 16850.5840     2.3180     1.6100     2.5921   463.5410    -999.25    -999.25    -999.25 -1526.4200   165.7795    -999.25    -999.25    -999.25
