~Version ---------------------------------------------------
VERS. 2.0 : CWLS log ASCII Standard -VERSION 2.0
WRAP.  NO : 
~Well ------------------------------------------------------
STRT.m                                                1235.3544 : 
STOP.m                                                1623.2124 : 
STEP.m                                                   0.1524 : 
NULL.                                                   -999.25 : 
COMP.                                                           : COMPANY
WELL.                                                   Well-20 : WELL
FLD .                                                           : FIELD
LOC .                                                           : LOCATION
SRVC.                                                           : SERVICE COMPANY
DATE. 2021-01-20 14:34:13   : Log Export Date {yyyy-MM-dd HH:mm : ss}
PROV.                                                           : PROVINCE
UWI .                                                   Well-20 : UNIQUE WELL ID
API .                                                           : API NUMBER
~Curve Information -----------------------------------------
DEPTH             .m        : DEPTH
ACOUSTICIMPEDANCE1.kPa.s/m  : ACOUSTICIMPEDANCE1
AI                .kPa.s/m  : AI
AVG_PIGN          .m3/m3    : AVG_PIGN
BIT               .m        : BIT
CALI              .in       : CALI
NPHI              .m3/m3    : NPHI
DT                .us/ft    : DT
DTDS              .us/ft    : DTDS
FACIES            ._        : FACIES
FLD1              ._        : FLD1
GR                .gAPI     : GR
M2R1              .ohm.m    : M2R1
LLD               .ohm.m    : LLD
NPHI_1            .m3/m3    : NPHI_1
PEF               .b/e      : PEF
PERF_INT          ._        : PERF_INT
PERMEABILITY      .mD       : PERMEABILITY
PHIT              .m3/m3    : PHIT
PIGN              .m3/m3    : PIGN
PIGN_MODELLING    .m3/m3    : PIGN_MODELLING
PIMP              .kPa.s/m  : PIMP
RHOB              .g/cm3    : RHOB
LLD_1             .ohm.m    : LLD_1
RT_MODELLING      .ohm.m    : RT_MODELLING
RT_POWER          .ohm.m    : RT_POWER
SP                .mV       : SP
SUWI              ._        : SUWI
SUWI_MODELLING    ._        : SUWI_MODELLING
TDVSS             .m        : TDVSS
TEMP              .K        : TEMP
TH                .kg/kg    : TH
U                 .kg/kg    : U
VCL               .%        : VCL
WATER_VOL         ._        : WATER_VOL
RHOB_1            .g/cm3    : RHOB_1
ZLT               ._        : ZLT
~Params ----------------------------------------------------
~Other -----------------------------------------------------
~ASCII -----------------------------------------------------
# ...
  1439.5704  7955.9761 7955976.0000    -999.25     0.2159     8.9447     0.4187   101.0831   101.0831     0.0000     0.0000    66.2432     2.9090     2.9019     0.4187     4.6253    -999.25     0.0000     0.5244     0.0001     0.0100 26102.2832     2.6385     3.0100     3.0100     9.0601   251.5149     1.0000     1.0000 -1359.0704   153.9137     0.0000     0.0000    71.8290     0.0001     2.6385     8.0000
  1439.7228  7357.3442 7357344.5000    -999.25     0.2159     8.9704     0.4019   103.7564   103.7564     0.0000     0.0000    73.7174     2.4648     2.5301     0.4019     4.3267    -999.25     0.0448     0.5176     0.0237     0.0237 24138.2695     2.5045     2.2520     2.2520     5.0716   251.9021     1.0000     1.0000 -1359.2228   153.9216     0.0000     0.0000    74.1990     0.0237     2.5045     8.0000
  1439.8752  6431.5708 6431570.5000    -999.25     0.2159     8.9963     0.4330   112.8622   112.8622     0.0000     0.0000    81.3593     2.1469     2.2572     0.4330     4.8443    -999.25     0.3886     0.5786     0.0532     0.0532 21100.9531     2.3815     1.9682     1.9682     3.8740   252.2578     1.0000     1.0000 -1359.3752   153.9294     0.0000     0.0000    79.5610     0.0532     2.3815     8.0000
  1440.0276  5701.7217 5701722.0000    -999.25     0.2159     9.0347     0.5027   122.4338   122.4338     0.0000     0.0000    87.7586     1.8697     1.9950     0.5027     5.5781    -999.25     0.2750     0.6525     0.0569     0.0569 18706.4375     2.2903     1.7396     1.7396     3.0262   252.7890     1.0000     1.0000 -1359.5276   153.9372     0.0000     0.0000    86.8260     0.0569     2.2903     8.0000
  1440.1800  5368.2646 5368293.5000    -999.25     0.2159     9.0929     0.5587   128.6649   128.6649     0.0000     0.0000    93.0264     1.6662     1.7833     0.5587     5.9403    -999.25     0.2298     0.7095     0.0634     0.0634 17612.5117     2.2661     1.5550     1.5550     2.4181   253.3222     1.0000     1.0000 -1359.6801   153.9450     0.0000     0.0000    86.7270     0.0634     2.2661     8.0000
  1440.3324  5327.2739 5327274.0000    -999.25     0.2159     9.1398     0.5603   128.9340   128.9340     0.0000     0.0000    92.6544     1.6545     1.7510     0.5603     5.8951    -999.25     0.0488     0.7089     0.0383     0.0383 17477.9336     2.2535     1.5465     1.5465     2.3917   253.2603     0.9408     0.9408 -1359.8324   153.9529     0.0000     0.0000    87.8920     0.0360     2.2535     8.0000
  1440.4848  5549.9053 5550028.5000    -999.25     0.2159     9.1157     0.5236   126.0136   126.0136     0.0000     0.0000    86.4246     1.8995     1.9649     0.5236     5.9106    -999.25     0.1620     0.6897     0.0504     0.0504 18208.7539     2.2945     2.1675     2.1675     4.6979   252.2471     0.8686     0.8686 -1359.9847   153.9607     0.0000     0.0000    72.7570     0.0438     2.2945     8.0000
  1440.6372  6239.5088 6239509.0000    -999.25     0.2159     9.0248     0.4862   117.7920   117.7920     0.0000     0.0000    77.3020     2.3966     2.4140     0.4862     6.5732    -999.25     1.1237     0.6361     0.0842     0.0842 20470.8301     2.4113     3.0038     3.0038     9.0226   250.6682     0.8598     0.8598 -1360.1372   153.9685     0.0000     0.0000    52.1560     0.0724     2.4113     8.0000
  1440.7896  7004.5493 7004456.5000    -999.25     0.2159     8.9443     0.4825   111.0274   111.0274     0.0000     0.0000    67.0234     2.8863     2.8292     0.4825     7.7396    -999.25     0.0714     0.6030     0.0320     0.0320 22980.5020     2.5515     3.7959     3.7959    14.4092   249.3225     0.8875     0.8875 -1360.2896   153.9763     0.0000     0.0000    68.5170     0.0284     2.5515     8.0000
  1440.9420  7029.7329 7029733.0000    -999.25     0.2159     8.9168     0.5079   113.7255   113.7255     0.0000     0.0000    60.0679     2.8781     2.7916     0.5079     7.6501    -999.25     0.0000     0.6485     0.0029     0.0100 23063.4297     2.6229     3.5161     3.5161    12.3628   248.9391     0.9876     0.9876 -1360.4420   153.9842     0.0000     0.0000    82.2730     0.0029     2.6229     8.0000
  1441.0944  6532.8018 6532694.5000    -999.25     0.2159     8.9137     0.5301   119.7122   119.7122     0.0000     0.0000    62.5899     2.3868     2.3367     0.5301     6.1419    -999.25     0.0000     0.6947     0.0001     0.0100 21432.7266     2.5658     2.5253     2.5253     6.3770   249.9091     1.0000     1.0000 -1360.5944   153.9920     0.0000     0.0000    92.0970     0.0001     2.5658     8.0000
  1441.2468  5911.9375 5911937.5000    -999.25     0.2159     8.9089     0.5294   125.5354   125.5354     0.0000     0.0000    73.2219     1.9527     1.9285     0.5294     5.3020    -999.25     0.0000     0.7205     0.0021     0.0100 19396.1211     2.4349     1.8851     1.8851     3.5535   251.7687     1.0000     1.0000 -1360.7468   153.9998     0.0000     0.0000    93.5900     0.0021     2.4349     8.0000
  1441.3992  5625.1597 5625159.5000    -999.25     0.2159     8.9042     0.5163   128.4025   128.4025     0.0000     0.0000    83.2881     1.7920     1.7721     0.5163     5.3970    -999.25     0.0000     0.7330     0.0004     0.0100 18455.2480     2.3697     1.7862     1.7862     3.1905   253.3440     1.0000     1.0000 -1360.8992   154.0076     0.0000     0.0000    89.1770     0.0004     2.3697     8.0000
  1441.5516  5731.5298 5731530.0000    -999.25     0.2159     8.9030     0.5023   126.4024   126.4024     0.0000     0.0000    85.9868     1.8840     1.8447     0.5023     6.1303    -999.25     0.0000     0.7146     0.0001     0.0100 18804.2324     2.3769     2.1413     2.1413     4.5853   253.8675     1.0000     1.0000 -1361.0516   154.0155     0.0000     0.0000    83.8460     0.0001     2.3769     8.0000
  1441.7040  6318.0488 6318048.5000    -999.25     0.2159     8.9020     0.4922   119.2223   119.2223     0.0000     0.0000    80.3089     2.2369     2.1464     0.4922     7.4220    -999.25     0.0000     0.6658     0.0001     0.0100 20728.5059     2.4713     2.8758     2.8758     8.2703   253.4845     1.0000     1.0000 -1361.2040   154.0233     0.0000     0.0000    68.7300     0.0001     2.4713     8.0000
  1441.8564  7335.8154 7335815.5000    -999.25     0.2159     8.9001     0.4913   109.9651   109.9651     0.0000     0.0000    68.4309     2.8046     2.6268     0.4913     8.6036    -999.25     0.0000     0.6164     0.0001     0.0100 24067.6348     2.6466     3.7428     3.7428    14.0083   252.6698     1.0000     1.0000 -1361.3564   154.0311     0.0000     0.0000    61.4650     0.0001     2.6466     8.0000
  1442.0088  7955.8794 7955879.5000    -999.25     0.2159     8.8995     0.4914   106.8885   106.8885     0.0000     0.0000    57.4801     3.0356     2.8368     0.4914     8.0524    -999.25     0.0000     0.6216     0.0001     0.0100 26101.9668     2.7900     3.6849     3.6849    13.5786   252.0123     1.0000     1.0000 -1361.5088   154.0389     0.0000     0.0000    61.1630     0.0001     2.7900     8.0000
  1442.1612  7564.8301 7564509.5000    -999.25     0.2159     8.9008     0.4825   110.7901   110.7901     0.0000     0.0000    56.8560     2.5111     2.4253     0.4825     6.4483    -999.25     0.0047     0.6509     0.0120     0.0120 24817.9434     2.7497     2.9592     2.9592     8.7569   252.2280     1.0000     1.0000 -1361.6613   154.0468     0.0000     0.0000    75.0640     0.0120     2.7497     8.0000
  1442.3136  6596.2803 6596280.5000    -999.25     0.2159     8.9019     0.4760   116.7534   116.7534     0.0000     0.0000    67.2697     1.9136     1.8964     0.4760     5.7727    -999.25     0.1474     0.6548     0.0396     0.0396 21641.3398     2.5267     2.0605     2.0605     4.2458   253.5231     1.0000     1.0000 -1361.8136   154.0546     0.0000     0.0000    78.5100     0.0396     2.5267     8.0000
  1442.4660  5969.2280 5969368.5000    -999.25     0.2159     8.9026     0.4850   122.9213   122.9213     0.0000     0.0000    78.4326     1.6636     1.6652     0.4850     5.5805    -999.25     0.2313     0.6870     0.0487     0.0487 19584.5410     2.4073     1.6288     1.6288     2.6530   255.0776     1.0000     1.0000 -1361.9659   154.0624     0.0000     0.0000    80.9250     0.0487     2.4073     8.0000
