~Version ---------------------------------------------------
VERS. 2.0 : CWLS log ASCII Standard -VERSION 2.0
WRAP.  NO : 
~Well ------------------------------------------------------
STRT.m                                                1235.3544 : 
STOP.m                                                1623.2124 : 
STEP.m                                                   0.1524 : 
NULL.                                                   -999.25 : 
COMP.                                                           : COMPANY
WELL.                                                   Well-20 : WELL
FLD .                                                           : FIELD
LOC .                                                           : LOCATION
SRVC.                                                           : SERVICE COMPANY
DATE. 2021-01-20 14:34:13   : Log Export Date {yyyy-MM-dd HH:mm : ss}
PROV.                                                           : PROVINCE
UWI .                                                   Well-20 : UNIQUE WELL ID
API .                                                           : API NUMBER
~Curve Information -----------------------------------------
DEPTH             .m        : DEPTH
ACOUSTICIMPEDANCE1.kPa.s/m  : ACOUSTICIMPEDANCE1
AI                .kPa.s/m  : AI
AVG_PIGN          .m3/m3    : AVG_PIGN
BIT               .m        : BIT
CALI              .in       : CALI
NPHI              .m3/m3    : NPHI
DT                .us/ft    : DT
DTDS              .us/ft    : DTDS
FACIES            ._        : FACIES
FLD1              ._        : FLD1
GR                .gAPI     : GR
M2R1              .ohm.m    : M2R1
LLD               .ohm.m    : LLD
NPHI_1            .m3/m3    : NPHI_1
PEF               .b/e      : PEF
PERF_INT          ._        : PERF_INT
PERMEABILITY      .mD       : PERMEABILITY
PHIT              .m3/m3    : PHIT
PIGN              .m3/m3    : PIGN
PIGN_MODELLING    .m3/m3    : PIGN_MODELLING
PIMP              .kPa.s/m  : PIMP
RHOB              .g/cm3    : RHOB
LLD_1             .ohm.m    : LLD_1
RT_MODELLING      .ohm.m    : RT_MODELLING
RT_POWER          .ohm.m    : RT_POWER
SP                .mV       : SP
SUWI              ._        : SUWI
SUWI_MODELLING    ._        : SUWI_MODELLING
TDVSS             .m        : TDVSS
TEMP              .K        : TEMP
TH                .kg/kg    : TH
U                 .kg/kg    : U
VCL               .%        : VCL
WATER_VOL         ._        : WATER_VOL
RHOB_1            .g/cm3    : RHOB_1
ZLT               ._        : ZLT
~Params ----------------------------------------------------
~Other -----------------------------------------------------
~ASCII -----------------------------------------------------
# ...
  1363.3704  7204.5239 7204464.5000    -999.25     0.2159     8.8975     0.4345   105.4453   105.4453     0.0000    -999.25    90.3601     2.5828     2.4406     0.4345     5.1421    -999.25     0.0067     0.5316     0.0134     0.0134 23636.6953     2.4924     2.1282     2.1282     4.5292   240.4042     1.0000     1.0000 -1282.8704   150.0013     0.0000     0.0000    57.7980     0.0134     2.4924     1.0000
  1363.5228  7208.3423 7208342.0000    -999.25     0.2159     8.8999     0.4381   105.2711   105.2711     0.0000    -999.25    89.5547     2.4590     2.3439     0.4381     5.0862    -999.25     0.0061     0.5291     0.0130     0.0130 23649.4160     2.4896     2.0438     2.0438     4.1773   240.2106     1.0000     1.0000 -1283.0228   150.0091     0.0000     0.0000    61.0700     0.0130     2.4896     1.0000
  1363.6752  6996.5845 6996584.5000    -999.25     0.2159     8.9223     0.4591   106.4707   106.4707     0.0000    -999.25    91.3781     2.1464     2.0583     0.4591     4.9882    -999.25     0.0424     0.5297     0.0261     0.0261 22954.6738     2.4440     1.7948     1.7948     3.2213   240.7500     1.0000     1.0000 -1283.1752   150.0170     0.0000     0.0000    63.8010     0.0261     2.4440     1.0000
  1363.8276  6527.1626 6527162.5000    -999.25     0.2159     8.9604     0.4783   111.9798   111.9798     0.0000    -999.25    92.8591     1.9806     1.8985     0.4783     5.0806    -999.25     0.1894     0.5739     0.0453     0.0453 21414.5762     2.3980     1.6555     1.6555     2.7406   241.3601     1.0000     1.0000 -1283.3276   150.0248     0.0000     0.0000    62.1870     0.0453     2.3980     1.0000
  1363.9800  6363.5508 6363551.0000    -999.25     0.2159     8.9924     0.4811   114.0111   114.0111     0.0000    -999.25    91.4297     1.9895     1.9066     0.4811     5.4295    -999.25     0.7360     0.5900     0.0721     0.0721 20877.7910     2.3803     1.6626     1.6626     2.7641   241.4203     1.0000     1.0000 -1283.4800   150.0326     0.0000     0.0000    56.9670     0.0721     2.3803     1.0000
  1364.1324  6384.6348 6384635.0000    -999.25     0.2159     9.0228     0.4890   113.3243   113.3243     0.0000    -999.25    87.2922     2.0006     1.9243     0.4890     5.8708    -999.25     1.0175     0.5814     0.0820     0.0820 20946.9648     2.3738     1.6780     1.6780     2.8155   241.2011     1.0000     1.0000 -1283.6324   150.0404     0.0000     0.0000    59.2230     0.0820     2.3738     1.0000
  1364.2848  6180.5630 6180563.0000    -999.25     0.2159     9.0961     0.4972   116.8343   116.8343     0.0000    -999.25    83.9378     1.8065     1.7600     0.4972     6.0766    -999.25     0.7078     0.6157     0.0739     0.0739 20277.4375     2.3691     1.5347     1.5347     2.3552   241.7751     1.0000     1.0000 -1283.7848   150.0482     0.0000     0.0000    66.9570     0.0739     2.3691     1.0000
  1364.4372  5967.6812 5967662.5000    -999.25     0.2159     9.2467     0.4812   120.9152   120.9152     0.0000    -999.25    84.4320     1.4958     1.4773     0.4812     5.9645    -999.25     0.5268     0.6566     0.0641     0.0641 19578.9473     2.3674     1.2882     1.2882     1.6594   243.6966     1.0000     1.0000 -1283.9373   150.0561     0.0000     0.0000    71.5950     0.0641     2.3674     1.0000
  1364.5896  5697.0557 5697055.5000    -999.25     0.2159     9.4203     0.4793   125.8244   125.8244     0.0000    -999.25    88.2795     1.2740     1.2689     0.4793     5.7768    -999.25     0.1700     0.7024     0.0438     0.0438 18691.1270     2.3518     1.1065     1.1065     1.2243   246.1998     1.0000     1.0000 -1284.0896   150.0639     0.0000     0.0000    80.4550     0.0438     2.3518     1.0000
  1364.7420  5426.0723 5426095.0000    -999.25     0.2159     9.5290     0.5175   131.1645   131.1645     0.0000    -999.25    91.0953     1.1685     1.1681     0.5175     5.6630    -999.25     0.0300     0.7522     0.0270     0.0270 17802.1504     2.3350     1.0186     1.0186     1.0375   248.1999     1.0000     1.0000 -1284.2419   150.0717     0.0000     0.0000    87.8730     0.0270     2.3350     1.0000
  1364.8944  5317.9644 5317964.5000    -999.25     0.2159     9.5505     0.5541   133.4641   133.4641     0.0000    -999.25    92.2180     1.1267     1.1242     0.5541     5.5599    -999.25     0.0151     0.7738     0.0238     0.0238 17447.3906     2.3286     0.9803     0.9803     0.9610   249.4115     1.0000     1.0000 -1284.3944   150.0796     0.0000     0.0000    89.2720     0.0238     2.3286     1.0000
  1365.0468  5254.4380 5254440.5000    -999.25     0.2159     9.4917     0.5515   135.0371   135.0371     0.0000    -999.25    93.1601     1.1156     1.1048     0.5515     5.4552    -999.25     0.0171     0.7896     0.0246     0.0246 17238.9785     2.3279     0.9634     0.9634     0.9281   250.1266     1.0000     1.0000 -1284.5468   150.0874     0.0000     0.0000    88.9180     0.0246     2.3279     1.0000
  1365.1992  5215.2349 5215235.0000    -999.25     0.2159     9.3766     0.5446   136.0989   136.0989     0.0000    -999.25    92.5190     1.1334     1.1085     0.5446     5.3734    -999.25     0.0175     0.8005     0.0244     0.0244 17110.3516     2.3287     0.9666     0.9666     0.9344   250.5822     1.0000     1.0000 -1284.6992   150.0952     0.0000     0.0000    89.1510     0.0244     2.3287     1.0000
  1365.3516  5276.8589 5276873.5000    -999.25     0.2159     9.2719     0.5523   134.9947   134.9947     0.0000    -999.25    90.3928     1.1882     1.1447     0.5523     5.2582    -999.25     0.0141     0.7915     0.0231     0.0231 17312.5762     2.3371     0.9982     0.9982     0.9964   250.8241     1.0000     1.0000 -1284.8516   150.1030     0.0000     0.0000    89.8030     0.0231     2.3371     1.0000
  1365.5040  5375.8042 5375804.0000    -999.25     0.2159     9.2114     0.5634   133.5363   133.5363     0.0000    -999.25    90.6917     1.2849     1.2180     0.5634     5.0809    -999.25     0.0067     0.7813     0.0185     0.0185 17637.1523     2.3552     1.0621     1.0621     1.1281   250.8195     1.0000     1.0000 -1285.0040   150.1109     0.0000     0.0000    88.2570     0.0185     2.3552     1.0000
  1365.6564  5519.6392 5519639.0000    -999.25     0.2159     9.1490     0.5498   131.0008   131.0008     0.0000    -999.25    92.1050     1.4254     1.3297     0.5498     4.9754    -999.25     0.0059     0.7599     0.0170     0.0170 18109.0508     2.3723     1.1595     1.1595     1.3445   250.5200     1.0000     1.0000 -1285.1564   150.1187     0.0000     0.0000    82.7920     0.0170     2.3723     1.0000
  1365.8088  5769.3584 5769358.0000    -999.25     0.2159     9.0738     0.5099   126.2023   126.2023     0.0000    -999.25    91.2835     1.6139     1.4831     0.5099     4.9710    -999.25     0.0069     0.7155     0.0160     0.0160 18928.3398     2.3888     1.2933     1.2933     1.6726   249.8765     1.0000     1.0000 -1285.3088   150.1265     0.0000     0.0000    77.6460     0.0160     2.3888     1.0000
  1365.9612  6008.2324 6008232.5000    -999.25     0.2159     9.0267     0.4776   122.0624   122.0624     0.0000    -999.25    90.2792     1.8326     1.6641     0.4776     5.0351    -999.25     0.0072     0.6780     0.0151     0.0151 19712.0488     2.4061     1.4511     1.4511     2.1057   248.8263     1.0000     1.0000 -1285.4612   150.1343     0.0000     0.0000    73.7180     0.0151     2.4061     1.0000
  1366.1136  6208.4229 6208423.0000    -999.25     0.2159     9.0163     0.4584   118.8531   118.8531     0.0000    -999.25    90.7347     2.0114     1.8196     0.4584     5.1409    -999.25     0.0069     0.6493     0.0143     0.0143 20368.8418     2.4209     1.5867     1.5867     2.5176   247.4233     1.0000     1.0000 -1285.6136   150.1422     0.0000     0.0000    71.1450     0.0143     2.4209     1.0000
  1366.2660  6324.0996 6324099.5000    -999.25     0.2159     9.0192     0.4349   117.0695   117.0695     0.0000    -999.25    91.3661     2.0820     1.8988     0.4349     5.1567    -999.25     0.0068     0.6332     0.0135     0.0135 20748.3594     2.4290     1.6558     1.6558     2.7415   245.8252     1.0000     1.0000 -1285.7660   150.1500     0.0000     0.0000    70.0480     0.0135     2.4290     1.0000
