~Version ---------------------------------------------------
VERS. 2.0 : CWLS log ASCII Standard -VERSION 2.0
WRAP.  NO : 
~Well ------------------------------------------------------
STRT.m                                                1235.3544 : 
STOP.m                                                1623.2124 : 
STEP.m                                                   0.1524 : 
NULL.                                                   -999.25 : 
COMP.                                                           : COMPANY
WELL.                                                   Well-20 : WELL
FLD .                                                           : FIELD
LOC .                                                           : LOCATION
SRVC.                                                           : SERVICE COMPANY
DATE. 2021-01-20 14:34:13   : Log Export Date {yyyy-MM-dd HH:mm : ss}
PROV.                                                           : PROVINCE
UWI .                                                   Well-20 : UNIQUE WELL ID
API .                                                           : API NUMBER
~Curve Information -----------------------------------------
DEPTH             .m        : DEPTH
ACOUSTICIMPEDANCE1.kPa.s/m  : ACOUSTICIMPEDANCE1
AI                .kPa.s/m  : AI
AVG_PIGN          .m3/m3    : AVG_PIGN
BIT               .m        : BIT
CALI              .in       : CALI
NPHI              .m3/m3    : NPHI
DT                .us/ft    : DT
DTDS              .us/ft    : DTDS
FACIES            ._        : FACIES
FLD1              ._        : FLD1
GR                .gAPI     : GR
M2R1              .ohm.m    : M2R1
LLD               .ohm.m    : LLD
NPHI_1            .m3/m3    : NPHI_1
PEF               .b/e      : PEF
PERF_INT          ._        : PERF_INT
PERMEABILITY      .mD       : PERMEABILITY
PHIT              .m3/m3    : PHIT
PIGN              .m3/m3    : PIGN
PIGN_MODELLING    .m3/m3    : PIGN_MODELLING
PIMP              .kPa.s/m  : PIMP
RHOB              .g/cm3    : RHOB
LLD_1             .ohm.m    : LLD_1
RT_MODELLING      .ohm.m    : RT_MODELLING
RT_POWER          .ohm.m    : RT_POWER
SP                .mV       : SP
SUWI              ._        : SUWI
SUWI_MODELLING    ._        : SUWI_MODELLING
TDVSS             .m        : TDVSS
TEMP              .K        : TEMP
TH                .kg/kg    : TH
U                 .kg/kg    : U
VCL               .%        : VCL
WATER_VOL         ._        : WATER_VOL
RHOB_1            .g/cm3    : RHOB_1
ZLT               ._        : ZLT
~Params ----------------------------------------------------
~Other -----------------------------------------------------
~ASCII -----------------------------------------------------
# ...
  1287.1704  4712.0244 4712024.5000    -999.25     0.2159     8.2538     0.4985   143.1039   143.1039    -999.25    -999.25    67.7179     0.9585     0.9714     0.4985     4.1381    -999.25    -999.25     0.8420    -999.25    -999.25 15459.3975     2.2123    -999.25    -999.25    -999.25   249.0580    -999.25    -999.25 -1206.6704   146.0889     0.0000     0.0000    -999.25    -999.25     2.2123    -999.25
  1287.3228  4684.1934 4684193.5000    -999.25     0.2159     8.2515     0.5113   143.6418   143.6418    -999.25    -999.25    69.5576     1.0213     1.0288     0.5113     4.1632    -999.25    -999.25     0.8462    -999.25    -999.25 15368.0889     2.2075    -999.25    -999.25    -999.25   249.0060    -999.25    -999.25 -1206.8228   146.0967     0.0000     0.0000    -999.25    -999.25     2.2075    -999.25
  1287.4752  4744.6289 4744629.0000    -999.25     0.2159     8.2629     0.5313   142.4417   142.4417    -999.25    -999.25    70.3075     1.0682     1.0717     0.5313     4.1951    -999.25    -999.25     0.8365    -999.25    -999.25 15566.3682     2.2173    -999.25    -999.25    -999.25   248.9748    -999.25    -999.25 -1206.9752   146.1045     0.0000     0.0000    -999.25    -999.25     2.2173    -999.25
  1287.6276  4970.8452 4970845.5000    -999.25     0.2159     8.3031     0.5522   137.4126   137.4126    -999.25    -999.25    69.5810     1.0926     1.0968     0.5522     4.2813    -999.25    -999.25     0.7916    -999.25    -999.25 16308.5479     2.2410    -999.25    -999.25    -999.25   248.9777    -999.25    -999.25 -1207.1276   146.1123     0.0000     0.0000    -999.25    -999.25     2.2410    -999.25
  1287.7800  5212.1484 5212148.5000    -999.25     0.2159     8.3528     0.5581   132.2965   132.2965    -999.25    -999.25    67.6867     1.0922     1.1033     0.5581     4.2845    -999.25    -999.25     0.7452    -999.25    -999.25 17100.2246     2.2623    -999.25    -999.25    -999.25   248.9529    -999.25    -999.25 -1207.2800   146.1202     0.0000     0.0000    -999.25    -999.25     2.2623    -999.25
  1287.9324  5258.1367 5258136.5000    -999.25     0.2159     8.3782     0.5383   131.0409   131.0409    -999.25    -999.25    66.6083     1.0463     1.0681     0.5383     4.2197    -999.25    -999.25     0.7321    -999.25    -999.25 17251.1035     2.2606    -999.25    -999.25    -999.25   248.8460    -999.25    -999.25 -1207.4324   146.1280     0.0000     0.0000    -999.25    -999.25     2.2606    -999.25
  1288.0848  5077.8423 5077842.0000    -999.25     0.2159     8.3897     0.5101   134.3971   134.3971    -999.25    -999.25    68.5609     0.9662     0.9970     0.5101     4.1700    -999.25    -999.25     0.7606    -999.25    -999.25 16659.5879     2.2390    -999.25    -999.25    -999.25   248.7245    -999.25    -999.25 -1207.5848   146.1358     0.0000     0.0000    -999.25    -999.25     2.2390    -999.25
  1288.2372  4836.6089 4836609.0000    -999.25     0.2159     8.4258     0.4995   139.9534   139.9534    -999.25    -999.25    71.5712     0.9017     0.9371     0.4995     4.1598    -999.25    -999.25     0.8122    -999.25    -999.25 15868.1406     2.2208    -999.25    -999.25    -999.25   248.7148    -999.25    -999.25 -1207.7372   146.1436     0.0000     0.0000    -999.25    -999.25     2.2208    -999.25
  1288.3896  4694.0537 4694054.0000    -999.25     0.2159     8.4861     0.4945   144.1907   144.1907    -999.25    -999.25    71.7835     0.8804     0.9166     0.4945     4.2123    -999.25    -999.25     0.8551    -999.25    -999.25 15400.4385     2.2206    -999.25    -999.25    -999.25   248.8276    -999.25    -999.25 -1207.8896   146.1515     0.0000     0.0000    -999.25    -999.25     2.2206    -999.25
  1288.5420  4730.1196 4730119.5000    -999.25     0.2159     8.5593     0.4849   143.9934   143.9934    -999.25    -999.25    70.5818     0.9060     0.9403     0.4849     4.3898    -999.25    -999.25     0.8566    -999.25    -999.25 15518.7646     2.2346    -999.25    -999.25    -999.25   248.9232    -999.25    -999.25 -1208.0420   146.1593     0.0000     0.0000    -999.25    -999.25     2.2346    -999.25
  1288.6944  4889.1084 4889108.0000    -999.25     0.2159     8.6408     0.4975   140.1837   140.1837    -999.25    -999.25    70.1200     0.9601     0.9904     0.4975     4.6257    -999.25    -999.25     0.8216    -999.25    -999.25 16040.3809     2.2486    -999.25    -999.25    -999.25   248.8974    -999.25    -999.25 -1208.1945   146.1671     0.0000     0.0000    -999.25    -999.25     2.2486    -999.25
  1288.8468  5033.2397 5033239.5000    -999.25     0.2159     8.7096     0.5310   136.0907   136.0907    -999.25    -999.25    70.0372     0.9871     1.0110     0.5310     4.7826    -999.25    -999.25     0.7798    -999.25    -999.25 16513.2539     2.2473    -999.25    -999.25    -999.25   248.8098    -999.25    -999.25 -1208.3468   146.1749     0.0000     0.0000    -999.25    -999.25     2.2473    -999.25
  1288.9992  5034.9482 5034948.0000    -999.25     0.2159     8.7421     0.5426   135.0396   135.0396    -999.25    -999.25    69.5792     0.9570     0.9742     0.5426     4.7988    -999.25    -999.25     0.7650    -999.25    -999.25 16518.8594     2.2307    -999.25    -999.25    -999.25   248.7722    -999.25    -999.25 -1208.4991   146.1828     0.0000     0.0000    -999.25    -999.25     2.2307    -999.25
  1289.1516  4940.1025 4940102.5000    -999.25     0.2159     8.7650     0.5307   136.6759   136.6759    -999.25    -999.25    67.9146     0.9102     0.9224     0.5307     4.7022    -999.25    -999.25     0.7776    -999.25    -999.25 16207.6846     2.2152    -999.25    -999.25    -999.25   248.8244    -999.25    -999.25 -1208.6516   146.1906     0.0000     0.0000    -999.25    -999.25     2.2152    -999.25
  1289.3040  4841.1558 4841156.0000    -999.25     0.2159     8.8269     0.5335   139.1168   139.1168    -999.25    -999.25    66.2581     0.8826     0.8914     0.5335     4.5686    -999.25    -999.25     0.8009    -999.25    -999.25 15883.0576     2.2096    -999.25    -999.25    -999.25   248.9210    -999.25    -999.25 -1208.8040   146.1984     0.0000     0.0000    -999.25    -999.25     2.2096    -999.25
  1289.4564  4769.1494 4769149.5000    -999.25     0.2159     8.9208     0.5543   141.3067   141.3067    -999.25    -999.25    65.6941     0.8723     0.8779     0.5543     4.5506    -999.25    -999.25     0.8235    -999.25    -999.25 15646.8164     2.2110    -999.25    -999.25    -999.25   248.9805    -999.25    -999.25 -1208.9564   146.2062     0.0000     0.0000    -999.25    -999.25     2.2110    -999.25
  1289.6088  4771.2778 4771278.0000    -999.25     0.2159     8.9963     0.5516   141.6589   141.6589    -999.25    -999.25    65.2458     0.8675     0.8689     0.5516     4.6374    -999.25    -999.25     0.8287    -999.25    -999.25 15653.7988     2.2175    -999.25    -999.25    -999.25   248.9831    -999.25    -999.25 -1209.1088   146.2141     0.0000     0.0000    -999.25    -999.25     2.2175    -999.25
  1289.7612  4810.3662 4810366.0000    -999.25     0.2159     9.0244     0.5256   140.9957   140.9957    -999.25    -999.25    63.2170     0.8606     0.8567     0.5256     4.7617    -999.25    -999.25     0.8239    -999.25    -999.25 15782.0410     2.2252    -999.25    -999.25    -999.25   248.9929    -999.25    -999.25 -1209.2612   146.2219     0.0000     0.0000    -999.25    -999.25     2.2252    -999.25
  1289.9136  4834.1782 4834178.0000    -999.25     0.2159     9.0263     0.5150   140.4399   140.4399    -999.25    -999.25    61.3732     0.8502     0.8408     0.5150     4.8089    -999.25    -999.25     0.8188    -999.25    -999.25 15860.1641     2.2274    -999.25    -999.25    -999.25   249.0802    -999.25    -999.25 -1209.4136   146.2297     0.0000     0.0000    -999.25    -999.25     2.2274    -999.25
  1290.0660  4793.3384 4793338.0000    -999.25     0.2159     9.0241     0.5217   141.4012   141.4012    -999.25    -999.25    60.5506     0.8400     0.8256     0.5217     4.8096    -999.25    -999.25     0.8276    -999.25    -999.25 15726.1748     2.2237    -999.25    -999.25    -999.25   249.2988    -999.25    -999.25 -1209.5660   146.2375     0.0000     0.0000    -999.25    -999.25     2.2237    -999.25
