~Version ---------------------------------------------------
VERS. 2.0 : CWLS log ASCII Standard -VERSION 2.0
WRAP.  NO : 
~Well ------------------------------------------------------
STRT.m                                                  1335.18 : 
STOP.m                                                1589.7801 : 
STEP.m                                                   0.1524 : 
NULL.                                                   -999.25 : 
COMP.                                                           : COMPANY
WELL.                                                   Well-13 : WELL
FLD .                                                           : FIELD
LOC .                                                           : LOCATION
SRVC.                                                           : SERVICE COMPANY
DATE. 2021-01-20 14:34:06   : Log Export Date {yyyy-MM-dd HH:mm : ss}
PROV.                                                           : PROVINCE
UWI .                                                   Well-13 : UNIQUE WELL ID
API .                                                           : API NUMBER
~Curve Information -----------------------------------------
DEPTH             .m        : DEPTH
ACOUSTICIMPEDANCE1.kPa.s/m  : ACOUSTICIMPEDANCE1
AI                .kPa.s/m  : AI
AVG_PIGN          .m3/m3    : AVG_PIGN
CALI              .in       : CALI
CALI[DERIVED]1    .in       : CALI[DERIVED]1
DT                .us/ft    : DT
FACIES            ._        : FACIES
FLD1              ._        : FLD1
GR                .gAPI     : GR
LLD               .ohm.m    : LLD
LLS               .ohm.m    : LLS
NPHI              .m3/m3    : NPHI
PEF               .b/e      : PEF
PERF_INT          ._        : PERF_INT
PERMEABILITY      .mD       : PERMEABILITY
PHIT              .m3/m3    : PHIT
PIGN              .m3/m3    : PIGN
PIGN_MODELLING    .m3/m3    : PIGN_MODELLING
PIMP              .kPa.s/m  : PIMP
RHOB              .g/cm3    : RHOB
RT_MODELLING      .ohm.m    : RT_MODELLING
RT_POWER          .ohm.m    : RT_POWER
SP                .mV       : SP
SUWI              ._        : SUWI
SUWI_MODELLING    ._        : SUWI_MODELLING
SXWI              ._        : SXWI
TDVSS             .m        : TDVSS
TEMP              .K        : TEMP
VCL               .%        : VCL
WATER_VOL         ._        : WATER_VOL
ZLT               ._        : ZLT
~Params ----------------------------------------------------
~Other -----------------------------------------------------
~ASCII -----------------------------------------------------
# ...
  1551.9320  6018.4507 6018450.5000    -999.25     8.9300     8.9300   126.1042     0.0000    -999.25    87.4905     2.1960     2.3660     0.5997     6.7580    -999.25    -999.25     0.1929     0.0073     0.0100 19745.5723     2.4900     2.1960     4.8224   445.1500     1.0000     1.0000     1.0000 -1488.5720   163.7380    92.8180     0.0073    -999.25
  1552.0840  5880.2944 5880294.5000    -999.25     8.9280     8.9280   127.8748     0.0000    -999.25    88.3942     2.1520     2.2950     0.5884     6.2440    -999.25    -999.25     0.1926     0.0022     0.0100 19292.3047     2.4670     2.1520     4.6311   444.8890     1.0000     1.0000     1.0000 -1488.7241   163.7462    95.2450     0.0022    -999.25
  1552.2360  5723.8833 5723883.5000    -999.25     8.9300     8.9300   129.6651     0.0000    -999.25    88.7794     2.1030     2.2310     0.5703     5.4540    -999.25    -999.25     0.1936     0.0005     0.0100 18779.1445     2.4350     2.1030     4.4226   444.7890     1.0000     1.0000     1.0000 -1488.8761   163.7544    96.5830     0.0005    -999.25
  1552.3881  5528.4756 5528475.5000    -999.25     8.9340     8.9340   131.5467     0.0000    -999.25    89.5464     2.0650     2.1900     0.5754     4.6910    -999.25    -999.25     0.1965     0.0020     0.0100 18138.0430     2.3860     2.0650     4.2642   445.0310     1.0000     1.0000     1.0000 -1489.0281   163.7626    97.2640     0.0020    -999.25
  1552.5401  5374.8535 5374853.5000    -999.25     8.9380     8.9380   132.3010     0.0000    -999.25    90.0342     2.0540     2.1860     0.5889     4.3100    -999.25    -999.25     0.1986     0.0036     0.0100 17634.0332     2.3330     2.0540     4.2189   445.5990     1.0000     1.0000     1.0000 -1489.1801   163.7708    97.4920     0.0036    -999.25
  1552.6921  5390.9453 5390945.0000    -999.25     8.9360     8.9360   130.7188     0.0000    -999.25    90.2318     2.0820     2.2290     0.5774     4.3760    -999.25    -999.25     0.1980     0.0070     0.0100 17686.8281     2.3120     2.0820     4.3347   446.2740     1.0000     1.0000     1.0000 -1489.3322   163.7790    95.5190     0.0070    -999.25
  1552.8440  5580.1401 5580140.0000    -999.25     8.9280     8.9280   127.7615     0.0000    -999.25    93.0563     2.1270     2.2920     0.5540     4.5850    -999.25    -999.25     0.1964     0.0121     0.0121 18307.5469     2.3390     2.1270     4.5241   446.8190     1.0000     1.0000     1.0000 -1489.4840   163.7872    92.1690     0.0121    -999.25
  1552.9960  5849.6016 5849601.5000    -999.25     8.9280     8.9280   124.4815     0.0000    -999.25   100.4765     2.1210     2.2920     0.5542     4.7390    -999.25    -999.25     0.1923     0.0124     0.0124 19191.6074     2.3890     2.1210     4.4986   447.1050     1.0000     1.0000     1.0000 -1489.6360   163.7954    89.9730     0.0124    -999.25
  1553.1481  6049.7349 6049735.0000    -999.25     8.9400     8.9400   121.9253     0.0000    -999.25   109.0072     2.0540     2.2220     0.5720     4.9030    -999.25    -999.25     0.1859     0.0081     0.0100 19848.2109     2.4200     2.0540     4.2189   447.1470     1.0000     1.0000     1.0000 -1489.7881   163.8036    88.8760     0.0081    -999.25
  1553.3001  6143.9175 6143917.5000    -999.25     8.9520     8.9520   120.8997     0.0000    -999.25   113.8064     2.0200     2.1870     0.5581     5.1820    -999.25    -999.25     0.1813     0.0048     0.0100 20157.2090     2.4370     2.0200     4.0804   447.0420     1.0000     1.0000     1.0000 -1489.9401   163.8118    88.2610     0.0048    -999.25
  1553.4521  6171.5713 6171571.5000    -999.25     8.9570     8.9570   120.7530     0.0000    -999.25   114.1674     2.0750     2.2530     0.5113     5.4590    -999.25    -999.25     0.1782     0.0066     0.0100 20247.9375     2.4450     2.0750     4.3056   446.8310     1.0000     1.0000     1.0000 -1490.0920   163.8200    85.8230     0.0066    -999.25
  1553.6040  6136.9126 6136913.0000    -999.25     8.9570     8.9570   121.3357     0.0000    -999.25   111.3940     2.1660     2.3510     0.4775     5.3930    -999.25    -999.25     0.1761     0.0112     0.0112 20134.2285     2.4430     2.1660     4.6916   446.5490     1.0000     1.0000     1.0000 -1490.2440   163.8282    82.4200     0.0112    -999.25
  1553.7560  6048.9282 6048928.0000    -999.25     8.9530     8.9530   123.1006     0.0000    -999.25   106.9020     2.1470     2.3100     0.4812     5.0620    -999.25    -999.25     0.1797     0.0139     0.0139 19845.5645     2.4430     2.1470     4.6096   446.4430     1.0000     1.0000     1.0000 -1490.3961   163.8364    82.9150     0.0139    -999.25
  1553.9081  5873.2832 5873283.5000    -999.25     8.9570     8.9570   125.8478     0.0000    -999.25   104.4014     1.9540     2.0740     0.5172     4.8840    -999.25    -999.25     0.1892     0.0179     0.0179 19269.3027     2.4250     1.9540     3.8181   446.7020     1.0000     1.0000     1.0000 -1490.5481   163.8446    85.6490     0.0179    -999.25
  1554.0601  5694.1328 5694133.0000    -999.25     8.9670     8.9670   128.4155     0.0000    -999.25   106.3714     1.7120     1.8010     0.5403     5.0330    -999.25    -999.25     0.1955     0.0205     0.0205 18681.5391     2.3990     1.7120     2.9309   447.1710     1.0000     1.0000     1.0000 -1490.7001   163.8528    87.5080     0.0205    -999.25
  1554.2121  5659.7969 5659797.0000    -999.25     8.9710     8.9710   128.9253     0.0000    -999.25   109.4290     1.5670     1.6510     0.5215     5.3180    -999.25    -999.25     0.1951     0.0227     0.0227 18568.8867     2.3940     1.5670     2.4555   447.4990     1.0000     1.0000     1.0000 -1490.8521   163.8610    86.1780     0.0227    -999.25
  1554.3640  5789.3657 5789365.5000    -999.25     8.9710     8.9710   126.9876     0.0000    -999.25   110.4541     1.5670     1.6710     0.4951     5.5450    -999.25    -999.25     0.1941     0.0297     0.0297 18993.9824     2.4120     1.5670     2.4555   447.5430     1.0000     1.0000     1.0000 -1491.0040   163.8692    82.1910     0.0297    -999.25
  1554.5160  5965.9224 5965922.5000    -999.25     8.9760     8.9760   124.1491     0.0000    -999.25   109.2743     1.7080     1.8600     0.4840     5.7480    -999.25    -999.25     0.1933     0.0360     0.0360 19573.2363     2.4300     1.7080     2.9173   447.3620     1.0000     1.0000     1.0000 -1491.1560   163.8774    78.6440     0.0360    -999.25
  1554.6680  6069.9277 6069928.0000    -999.25     8.9780     8.9780   122.0219     0.0000    -999.25   105.7774     1.9240     2.1430     0.4790     5.9760    -999.25    -999.25     0.1930     0.0388     0.0388 19914.4609     2.4300     1.9240     3.7018   447.0590     1.0000     1.0000     1.0000 -1491.3081   163.8856    77.1180     0.0388    -999.25
  1554.8201  6058.5322 6058532.5000    -999.25     8.9700     8.9700   121.4967     0.0000    -999.25   100.8578     2.0830     2.3490     0.4900     6.0560    -999.25    -999.25     0.1926     0.0347     0.0347 19877.0742     2.4150     2.0830     4.3389   446.7900     1.0000     1.0000     1.0000 -1491.4601   163.8938    78.9730     0.0347    -999.25
  1554.9721  6005.8867 6005886.5000    -999.25     8.9590     8.9590   122.3080     0.0000    -999.25    98.0263     2.1480     2.4130     0.5285     5.8240    -999.25    -999.25     0.1906     0.0238     0.0238 19704.3535     2.4100     2.1480     4.6139   446.7130     1.0000     1.0000     1.0000 -1491.6121   163.9020    83.3650     0.0238    -999.25
  1555.1240  5959.6128 5959613.0000    -999.25     8.9560     8.9560   123.4622     0.0000    -999.25    97.6482     2.1700     2.4050     0.5422     5.4260    -999.25    -999.25     0.1886     0.0171     0.0171 19552.5352     2.4140     2.1700     4.7089   446.8520     1.0000     1.0000     1.0000 -1491.7640   163.9102    85.7700     0.0171    -999.25
  1555.2760  5901.2432 5901243.0000    -999.25     8.9650     8.9650   124.4768     0.0000    -999.25    96.2622     2.1590     2.3510     0.5088     5.1440    -999.25    -999.25     0.1901     0.0234     0.0234 19361.0332     2.4100     2.1590     4.6613   447.1730     1.0000     1.0000     1.0000 -1491.9160   163.9184    83.3330     0.0234    -999.25
