~Version ---------------------------------------------------
VERS. 2.0 : CWLS log ASCII Standard -VERSION 2.0
WRAP.  NO : 
~Well ------------------------------------------------------
STRT.m                                                  1335.18 : 
STOP.m                                                1589.7801 : 
STEP.m                                                   0.1524 : 
NULL.                                                   -999.25 : 
COMP.                                                           : COMPANY
WELL.                                                   Well-13 : WELL
FLD .                                                           : FIELD
LOC .                                                           : LOCATION
SRVC.                                                           : SERVICE COMPANY
DATE. 2021-01-20 14:34:06   : Log Export Date {yyyy-MM-dd HH:mm : ss}
PROV.                                                           : PROVINCE
UWI .                                                   Well-13 : UNIQUE WELL ID
API .                                                           : API NUMBER
~Curve Information -----------------------------------------
DEPTH             .m        : DEPTH
ACOUSTICIMPEDANCE1.kPa.s/m  : ACOUSTICIMPEDANCE1
AI                .kPa.s/m  : AI
AVG_PIGN          .m3/m3    : AVG_PIGN
CALI              .in       : CALI
CALI[DERIVED]1    .in       : CALI[DERIVED]1
DT                .us/ft    : DT
FACIES            ._        : FACIES
FLD1              ._        : FLD1
GR                .gAPI     : GR
LLD               .ohm.m    : LLD
LLS               .ohm.m    : LLS
NPHI              .m3/m3    : NPHI
PEF               .b/e      : PEF
PERF_INT          ._        : PERF_INT
PERMEABILITY      .mD       : PERMEABILITY
PHIT              .m3/m3    : PHIT
PIGN              .m3/m3    : PIGN
PIGN_MODELLING    .m3/m3    : PIGN_MODELLING
PIMP              .kPa.s/m  : PIMP
RHOB              .g/cm3    : RHOB
RT_MODELLING      .ohm.m    : RT_MODELLING
RT_POWER          .ohm.m    : RT_POWER
SP                .mV       : SP
SUWI              ._        : SUWI
SUWI_MODELLING    ._        : SUWI_MODELLING
SXWI              ._        : SXWI
TDVSS             .m        : TDVSS
TEMP              .K        : TEMP
VCL               .%        : VCL
WATER_VOL         ._        : WATER_VOL
ZLT               ._        : ZLT
~Params ----------------------------------------------------
~Other -----------------------------------------------------
~ASCII -----------------------------------------------------
# ...
  1468.0280  6402.6123 6402612.5000    -999.25     9.1320     9.1320   115.8720     0.0000    -999.25   103.3751     1.8120     1.8550     0.5282     4.2900    -999.25     0.0668     0.1849     0.0418     0.0418 21005.9453     2.4340     1.8120     3.2833   454.6380     1.0000     1.0000     1.0000 -1404.6681   159.2122    71.5560     0.0418    16.0000
  1468.1800  6227.7510 6227751.0000    -999.25     9.1850     9.1850   120.3979     0.0000    -999.25   111.2353     1.6080     1.6450     0.5076     4.7350    -999.25     0.1015     0.1933     0.0432     0.0432 20432.2539     2.4600     1.6080     2.5857   455.6420     1.0000     1.0000     1.0000 -1404.8201   159.2204    75.0820     0.0432    16.0000
  1468.3320  6420.3042 6420304.5000    -999.25     9.1500     9.1500   118.4486     0.0000    -999.25   113.5636     1.5770     1.6340     0.5057     5.0350    -999.25     0.0549     0.1912     0.0441     0.0441 21063.9902     2.4950     1.5770     2.4869   456.3550     1.0000     1.0000     1.0000 -1404.9720   159.2286    73.5550     0.0441    16.0000
  1468.4841  6645.3550 6645355.0000    -999.25     9.0980     9.0980   114.0703     0.0000    -999.25   110.3962     1.6200     1.7200     0.5139     4.8820    -999.25     0.0183     0.1864     0.0488     0.0488 21802.3457     2.4870     1.6200     2.6244   456.7790     1.0000     1.0000     1.0000 -1405.1240   159.2368    68.7970     0.0488    16.0000
  1468.6361  6871.5669 6871567.0000    -999.25     9.0260     9.0260   109.2949     0.0000    -999.25   105.3430     1.7200     1.8810     0.4939     4.5810    -999.25     0.0150     0.1789     0.0489     0.0489 22544.5098     2.4640     1.7200     2.9584   456.9880     1.0000     1.0000     1.0000 -1405.2761   159.2450    65.0150     0.0489    16.0000
  1468.7881  7035.6997 7035699.5000    -999.25     8.9290     8.9290   108.2615     0.0000    -999.25   100.5867     1.8870     2.1170     0.4726     4.3990    -999.25     0.0315     0.1612     0.0299     0.0299 23083.0039     2.4990     1.8870     3.5608   457.1710     1.0000     1.0000     1.0000 -1405.4281   159.2532    65.6750     0.0299    16.0000
  1468.9400  7247.7520 7247752.0000    -999.25     8.8980     8.8980   107.5331     0.0000    -999.25   101.4855     1.9840     2.2430     0.4774     4.1380    -999.25     0.0225     0.1476     0.0077     0.0100 23778.7129     2.5570     1.9840     3.9363   457.4620     1.0000     1.0000     1.0000 -1405.5801   159.2614    69.9500     0.0077    16.0000
  1469.0920  7014.3174 7014317.0000    -999.25     8.9470     8.9470   109.1564     0.0000    -999.25   112.3910     1.9020     2.1190     0.4906     3.8010    -999.25     0.0081     0.1539     0.0024     0.0100 23012.8516     2.5120     1.9020     3.6176   457.7750     1.0000     1.0000     1.0000 -1405.7321   159.2696    75.7170     0.0024    16.0000
  1469.2441  6504.8950 6504895.0000    -999.25     8.9850     8.9850   113.6283     0.0000    -999.25   126.4026     1.8210     1.9990     0.5048     3.6400    -999.25     0.0052     0.1701     0.0131     0.0131 21341.5195     2.4250     1.8210     3.3160   457.9820     1.0000     1.0000     1.0000 -1405.8840   159.2778    78.4950     0.0131    16.0000
  1469.3961  6376.4497 6376449.5000    -999.25     8.9790     8.9790   113.1925     0.0000    -999.25   131.7207     1.8850     2.0590     0.5122     3.7470    -999.25     0.0268     0.1826     0.0340     0.0340 20920.1113     2.3680     1.8850     3.5532   458.0990     1.0000     1.0000     1.0000 -1406.0360   159.2860    74.2920     0.0340    16.0000
  1469.5481  6504.5962 6504596.5000    -999.25     8.9610     8.9610   111.7591     0.0000    -999.25   125.4815     2.0990     2.3060     0.4972     4.1410    -999.25     0.1074     0.1820     0.0462     0.0462 21340.5391     2.3850     2.0990     4.4058   458.1330     1.0000     1.0000     1.0000 -1406.1880   159.2942    67.9090     0.0462    16.0000
  1469.7000  6834.4868 6834487.0000    -999.25     8.9170     8.9170   109.7095     0.0000    -999.25   113.1320     2.4270     2.7060     0.4751     4.6830    -999.25     0.1545     0.1643     0.0384     0.0384 22422.8574     2.4600     2.4270     5.8903   458.0530     1.0000     1.0000     1.0000 -1406.3401   159.3024    62.9640     0.0384    16.0000
  1469.8520  7447.5000 7447500.0000    -999.25     8.8560     8.8560   104.4853     0.0000    -999.25   101.0383     2.7140     3.0760     0.4771     5.0170    -999.25     0.0858     0.1385     0.0194     0.0194 24434.0566     2.5530     2.7140     7.3658   457.9150     1.0000     1.0000     1.0000 -1406.4921   159.3106    59.5610     0.0194    16.0000
  1470.0041  7726.8848 7726885.0000    -999.25     8.8400     8.8400   103.3109     0.0000    -999.25    93.2449     2.7690     3.1460     0.4829     4.8880    -999.25     0.0213     0.1242     0.0052     0.0100 25350.6719     2.6190     2.7690     7.6674   457.8890     1.0000     1.0000     1.0000 -1406.6440   159.3188    59.4930     0.0052    16.0000
  1470.1561  7488.7515 7488751.5000    -999.25     8.8920     8.8920   106.8809     0.0000    -999.25    92.1318     2.5230     2.8230     0.4670     4.4570    -999.25     0.0065     0.1285     0.0011     0.0100 24569.3945     2.6260     2.5230     6.3655   458.0210     1.0000     1.0000     1.0000 -1406.7960   159.3270    63.6880     0.0011    16.0000
  1470.3081  7153.5430 7153543.0000    -999.25     8.9340     8.9340   111.4632     0.0000    -999.25    98.4241     2.1690     2.3920     0.4536     4.3630    -999.25     0.0053     0.1409     0.0003     0.0100 23469.6289     2.6160     2.1690     4.7046   458.2330     1.0000     1.0000     1.0000 -1406.9481   159.3352    70.3020     0.0003    16.0000
  1470.4600  6956.4263 6956426.5000    -999.25     8.9120     8.9120   116.2866     0.0000    -999.25   107.4389     2.0010     2.2050     0.4803     4.8750    -999.25     0.0048     0.1490     0.0001     0.0100 22822.9219     2.6540     2.0010     4.0040   458.3750     1.0000     1.0000     1.0000 -1407.1001   159.3434    74.5040     0.0001    16.0000
  1470.6120  6911.5337 6911533.5000    -999.25     8.8740     8.8740   118.5854     0.0000    -999.25   112.5083     2.0600     2.2970     0.5311     5.3840    -999.25     0.0045     0.1516     0.0001     0.0100 22675.6348     2.6890     2.0600     4.2436   458.3830     1.0000     1.0000     1.0000 -1407.2521   159.3516    75.8050     0.0001    16.0000
  1470.7640  7010.3413 7010341.5000    -999.25     8.8810     8.8810   117.5662     0.0000    -999.25   113.1599     2.1970     2.4750     0.5508     5.3450    -999.25     0.0058     0.1521     0.0001     0.0100 22999.8086     2.7040     2.1970     4.8268   458.2910     1.0000     1.0000     1.0000 -1407.4041   159.3598    76.0520     0.0001    16.0000
  1470.9161  7022.2646 7022264.5000    -999.25     8.9230     8.9230   115.8474     0.0000    -999.25   115.0296     2.1550     2.4090     0.5346     5.2610    -999.25     0.0083     0.1530     0.0001     0.0100 23038.9258     2.6690     2.1550     4.6440   458.1510     1.0000     1.0000     1.0000 -1407.5560   159.3680    76.4780     0.0001    17.0000
  1471.0681  6857.8081 6857808.0000    -999.25     8.9660     8.9660   116.1810     0.0000    -999.25   120.6294     1.9990     2.1970     0.5261     5.3050    -999.25     0.0100     0.1569     0.0001     0.0100 22499.3711     2.6140     1.9990     3.9960   458.0570     1.0000     1.0000     1.0000 -1407.7081   159.3762    78.4500     0.0001    17.0000
  1471.2200  6617.9824 6617982.5000    -999.25     8.9720     8.9720   119.2398     0.0000    -999.25   127.2021     1.9620     2.1300     0.5242     5.0560    -999.25     0.0097     0.1622     0.0001     0.0100 21712.5410     2.5890     1.9620     3.8494   457.9810     1.0000     1.0000     1.0000 -1407.8600   159.3844    81.0810     0.0001    17.0000
  1471.3720  6405.8013 6405801.5000    -999.25     8.9270     8.9270   122.4757     0.0000    -999.25   131.3780     2.0310     2.1860     0.5035     4.7230    -999.25     0.0089     0.1640     0.0001     0.0100 21016.4082     2.5740     2.0310     4.1250   457.8420     1.0000     1.0000     1.0000 -1408.0121   159.3926    81.9930     0.0001    17.0000
