~Version ---------------------------------------------------
VERS. 2.0 : CWLS log ASCII Standard -VERSION 2.0
WRAP.  NO : 
~Well ------------------------------------------------------
STRT.m                                                1235.3544 : 
STOP.m                                                1623.2124 : 
STEP.m                                                   0.1524 : 
NULL.                                                   -999.25 : 
COMP.                                                           : COMPANY
WELL.                                                   Well-20 : WELL
FLD .                                                           : FIELD
LOC .                                                           : LOCATION
SRVC.                                                           : SERVICE COMPANY
DATE. 2021-01-20 14:34:13   : Log Export Date {yyyy-MM-dd HH:mm : ss}
PROV.                                                           : PROVINCE
UWI .                                                   Well-20 : UNIQUE WELL ID
API .                                                           : API NUMBER
~Curve Information -----------------------------------------
DEPTH             .m        : DEPTH
ACOUSTICIMPEDANCE1.kPa.s/m  : ACOUSTICIMPEDANCE1
AI                .kPa.s/m  : AI
AVG_PIGN          .m3/m3    : AVG_PIGN
BIT               .m        : BIT
CALI              .in       : CALI
NPHI              .m3/m3    : NPHI
DT                .us/ft    : DT
DTDS              .us/ft    : DTDS
FACIES            ._        : FACIES
FLD1              ._        : FLD1
GR                .gAPI     : GR
M2R1              .ohm.m    : M2R1
LLD               .ohm.m    : LLD
NPHI_1            .m3/m3    : NPHI_1
PEF               .b/e      : PEF
PERF_INT          ._        : PERF_INT
PERMEABILITY      .mD       : PERMEABILITY
PHIT              .m3/m3    : PHIT
PIGN              .m3/m3    : PIGN
PIGN_MODELLING    .m3/m3    : PIGN_MODELLING
PIMP              .kPa.s/m  : PIMP
RHOB              .g/cm3    : RHOB
LLD_1             .ohm.m    : LLD_1
RT_MODELLING      .ohm.m    : RT_MODELLING
RT_POWER          .ohm.m    : RT_POWER
SP                .mV       : SP
SUWI              ._        : SUWI
SUWI_MODELLING    ._        : SUWI_MODELLING
TDVSS             .m        : TDVSS
TEMP              .K        : TEMP
TH                .kg/kg    : TH
U                 .kg/kg    : U
VCL               .%        : VCL
WATER_VOL         ._        : WATER_VOL
RHOB_1            .g/cm3    : RHOB_1
ZLT               ._        : ZLT
~Params ----------------------------------------------------
~Other -----------------------------------------------------
~ASCII -----------------------------------------------------
# ...
  1335.9384  5152.3062 5152307.5000    -999.25     0.2159     9.5721     0.5292   135.4126   135.4126     0.0000    -999.25    91.2169     1.2168     1.1640     0.5292     5.3937    -999.25    -999.25     0.7835     0.0379     0.0379 16903.8965     2.2890     1.0150     1.0150     1.0302   249.0097     1.0000     1.0000 -1255.4384   148.5928     0.0000     0.0000    82.9810     0.0379     2.2890     0.0000
  1336.0908  5103.0156 5103015.5000    -999.25     0.2159     9.5731     0.5038   136.5593   136.5593     0.0000    -999.25    87.6787     1.2338     1.1736     0.5038     5.3803    -999.25    -999.25     0.7945     0.0455     0.0455 16742.1777     2.2863     1.0234     1.0234     1.0473   249.0161     1.0000     1.0000 -1255.5908   148.6006     0.0000     0.0000    79.6470     0.0455     2.2863     0.0000
  1336.2432  5064.5215 5064526.5000    -999.25     0.2159     9.5734     0.4796   137.5371   137.5371     0.0000    -999.25    85.1354     1.2489     1.1826     0.4796     5.3764    -999.25    -999.25     0.8041     0.0487     0.0487 16615.8984     2.2853     1.0312     1.0312     1.0634   249.0348     1.0000     1.0000 -1255.7432   148.6085     0.0000     0.0000    78.2380     0.0487     2.2853     0.0000
  1336.3956  5052.2593 5052259.5000    -999.25     0.2159     9.5713     0.4700   137.9855   137.9855     0.0000    -999.25    86.2676     1.2616     1.1913     0.4700     5.3665    -999.25    -999.25     0.8091     0.0479     0.0479 16575.6543     2.2872     1.0388     1.0388     1.0791   249.0479     1.0000     1.0000 -1255.8956   148.6163     0.0000     0.0000    78.5750     0.0479     2.2872     0.0000
  1336.5480  5069.1221 5069122.0000    -999.25     0.2159     9.5637     0.4737   137.7670   137.7670     0.0000    -999.25    90.3767     1.2796     1.2062     0.4737     5.3463    -999.25    -999.25     0.8079     0.0442     0.0442 16630.9785     2.2912     1.0518     1.0518     1.1063   249.0023     1.0000     1.0000 -1256.0480   148.6241     0.0000     0.0000    80.1720     0.0442     2.2912     0.0000
  1336.7004  5174.7852 5174785.0000    -999.25     0.2159     9.5353     0.4933   135.6431   135.6431     0.0000    -999.25    92.3031     1.3218     1.2424     0.4933     5.3538    -999.25    -999.25     0.7894     0.0425     0.0425 16977.6406     2.3029     1.0834     1.0834     1.1737   248.8289     1.0000     1.0000 -1256.2004   148.6320     0.0000     0.0000    81.0790     0.0425     2.3029     0.0000
  1336.8528  5419.7305 5419730.5000    -999.25     0.2159     9.4821     0.5198   131.0199   131.0199     0.0000    -999.25    90.1271     1.4081     1.3169     0.5198     5.4391    -999.25    -999.25     0.7494     0.0388     0.0388 17781.2695     2.3297     1.1484     1.1484     1.3187   248.4637     1.0000     1.0000 -1256.3528   148.6398     0.0000     0.0000    79.9230     0.0388     2.3297     0.0000
  1337.0052  5737.9927 5737992.5000    -999.25     0.2159     9.4337     0.5255   125.7129   125.7129     0.0000    -999.25    88.8356     1.5369     1.4297     0.5255     5.5053    -999.25    -999.25     0.7050     0.0235     0.0235 18825.4355     2.3666     1.2467     1.2467     1.5543   247.8333     1.0000     1.0000 -1256.5052   148.6476     0.0000     0.0000    78.3890     0.0235     2.3666     0.0000
  1337.1576  6005.3721 6005372.0000    -999.25     0.2159     9.4132     0.5027   121.7551   121.7551     0.0000    -999.25    92.1888     1.6563     1.5387     0.5027     5.5378    -999.25    -999.25     0.6731     0.0158     0.0158 19702.6641     2.3989     1.3418     1.3418     1.8003   246.9008     1.0000     1.0000 -1256.6576   148.6554     0.0000     0.0000    77.9220     0.0158     2.3989     0.0000
  1337.3100  6077.4629 6077424.0000    -999.25     0.2159     9.4083     0.4839   120.9578   120.9578     0.0000    -999.25    95.7296     1.6790     1.5715     0.4839     5.6834    -999.25    -999.25     0.6683     0.0241     0.0241 19939.0566     2.4118     1.3703     1.3703     1.8778   245.9502     1.0000     1.0000 -1256.8101   148.6633     0.0000     0.0000    78.1590     0.0241     2.4118     0.0000
  1337.4624  5890.4595 5890459.5000    -999.25     0.2159     9.4104     0.4925   124.2390   124.2390     0.0000    -999.25    95.1633     1.5887     1.5073     0.4925     5.9383    -999.25    -999.25     0.6988     0.0342     0.0342 19325.6543     2.4010     1.3144     1.3144     1.7275   245.6295     1.0000     1.0000 -1256.9624   148.6711     0.0000     0.0000    80.4700     0.0342     2.4010     0.0000
  1337.6148  5699.1030 5699128.5000    -999.25     0.2159     9.4193     0.5232   127.4104   127.4104     0.0000    -999.25    93.2902     1.4830     1.4230     0.5232     6.0710    -999.25    -999.25     0.7261     0.0338     0.0338 18697.9277     2.3823     1.2408     1.2408     1.5397   246.2096     1.0000     1.0000 -1257.1147   148.6789     0.0000     0.0000    82.8940     0.0338     2.3823     0.0000
  1337.7672  5653.6074 5653607.0000    -999.25     0.2159     9.4267     0.5484   128.1931   128.1931     0.0000    -999.25    92.7682     1.4393     1.3903     0.5484     6.0121    -999.25    -999.25     0.7329     0.0296     0.0296 18548.5801     2.3778     1.2123     1.2123     1.4698   247.1261     1.0000     1.0000 -1257.2672   148.6867     0.0000     0.0000    83.3770     0.0296     2.3778     0.0000
  1337.9196  5683.1602 5683140.5000    -999.25     0.2159     9.4346     0.5576   127.9556   127.9556     0.0000    -999.25    91.9353     1.4356     1.3916     0.5576     5.9199    -999.25    -999.25     0.7325     0.0341     0.0341 18645.4746     2.3858     1.2135     1.2135     1.4725   247.6692     1.0000     1.0000 -1257.4196   148.6945     0.0000     0.0000    82.8500     0.0341     2.3858     0.0000
  1338.0720  5678.4888 5678488.5000    -999.25     0.2159     9.4653     0.5554   127.8300   127.8300     0.0000    -999.25    90.8701     1.4057     1.3659     0.5554     5.9097    -999.25    -999.25     0.7302     0.0337     0.0337 18630.2109     2.3815     1.1911     1.1911     1.4186   247.8305     1.0000     1.0000 -1257.5720   148.7024     0.0000     0.0000    84.7760     0.0337     2.3815     0.0000
  1338.2244  5522.2061 5522206.0000    -999.25     0.2159     9.5181     0.5508   130.1230   130.1230     0.0000    -999.25    91.1484     1.3374     1.3013     0.5508     6.0826    -999.25    -999.25     0.7473     0.0324     0.0324 18117.4746     2.3575     1.1347     1.1347     1.2876   248.0605     1.0000     1.0000 -1257.7244   148.7102     0.0000     0.0000    85.4260     0.0324     2.3575     0.0000
  1338.3768  5378.1377 5378137.5000    -999.25     0.2159     9.5500     0.5432   132.4979   132.4979     0.0000    -999.25    91.6851     1.2824     1.2475     0.5432     6.1931    -999.25    -999.25     0.7664     0.0389     0.0389 17644.8086     2.3379     1.0878     1.0878     1.1834   248.6284     1.0000     1.0000 -1257.8768   148.7180     0.0000     0.0000    82.5420     0.0389     2.3379     0.0000
  1338.5292  5378.8521 5378852.0000    -999.25     0.2159     9.5133     0.5217   132.3613   132.3613     0.0000    -999.25    91.9523     1.2829     1.2450     0.5217     6.1240    -999.25    -999.25     0.7645     0.0518     0.0518 17647.1523     2.3358     1.0856     1.0856     1.1786   249.2889     1.0000     1.0000 -1258.0292   148.7258     0.0000     0.0000    76.8150     0.0518     2.3358     0.0000
  1338.6816  5526.4824 5526482.5000    -999.25     0.2159     9.4223     0.4915   130.0554   130.0554     0.0000    -999.25    94.0899     1.3369     1.2927     0.4915     6.0804    -999.25    -999.25     0.7468     0.0342     0.0342 18131.5039     2.3581     1.1272     1.1272     1.2707   249.5352     1.0000     1.0000 -1258.1816   148.7337     0.0000     0.0000    76.4630     0.0342     2.3581     0.0000
  1338.8340  5809.1694 5809169.0000    -999.25     0.2159     9.3379     0.4739   126.2871   126.2871     0.0000    -999.25    98.0616     1.4096     1.3597     0.4739     6.0773    -999.25    -999.25     0.7210     0.0150     0.0150 19058.9531     2.4069     1.1857     1.1857     1.4058   249.1526     1.0000     1.0000 -1258.3340   148.7415     0.0000     0.0000    77.3900     0.0150     2.4069     0.0000
