~Version ---------------------------------------------------
VERS. 2.0 : CWLS log ASCII Standard -VERSION 2.0
WRAP.  NO : 
~Well ------------------------------------------------------
STRT.m                                                1235.3544 : 
STOP.m                                                1623.2124 : 
STEP.m                                                   0.1524 : 
NULL.                                                   -999.25 : 
COMP.                                                           : COMPANY
WELL.                                                   Well-20 : WELL
FLD .                                                           : FIELD
LOC .                                                           : LOCATION
SRVC.                                                           : SERVICE COMPANY
DATE. 2021-01-20 14:34:13   : Log Export Date {yyyy-MM-dd HH:mm : ss}
PROV.                                                           : PROVINCE
UWI .                                                   Well-20 : UNIQUE WELL ID
API .                                                           : API NUMBER
~Curve Information -----------------------------------------
DEPTH             .m        : DEPTH
ACOUSTICIMPEDANCE1.kPa.s/m  : ACOUSTICIMPEDANCE1
AI                .kPa.s/m  : AI
AVG_PIGN          .m3/m3    : AVG_PIGN
BIT               .m        : BIT
CALI              .in       : CALI
NPHI              .m3/m3    : NPHI
DT                .us/ft    : DT
DTDS              .us/ft    : DTDS
FACIES            ._        : FACIES
FLD1              ._        : FLD1
GR                .gAPI     : GR
M2R1              .ohm.m    : M2R1
LLD               .ohm.m    : LLD
NPHI_1            .m3/m3    : NPHI_1
PEF               .b/e      : PEF
PERF_INT          ._        : PERF_INT
PERMEABILITY      .mD       : PERMEABILITY
PHIT              .m3/m3    : PHIT
PIGN              .m3/m3    : PIGN
PIGN_MODELLING    .m3/m3    : PIGN_MODELLING
PIMP              .kPa.s/m  : PIMP
RHOB              .g/cm3    : RHOB
LLD_1             .ohm.m    : LLD_1
RT_MODELLING      .ohm.m    : RT_MODELLING
RT_POWER          .ohm.m    : RT_POWER
SP                .mV       : SP
SUWI              ._        : SUWI
SUWI_MODELLING    ._        : SUWI_MODELLING
TDVSS             .m        : TDVSS
TEMP              .K        : TEMP
TH                .kg/kg    : TH
U                 .kg/kg    : U
VCL               .%        : VCL
WATER_VOL         ._        : WATER_VOL
RHOB_1            .g/cm3    : RHOB_1
ZLT               ._        : ZLT
~Params ----------------------------------------------------
~Other -----------------------------------------------------
~ASCII -----------------------------------------------------
# ...
  1591.9704  2305.9412 2305938.2500    -999.25     0.2159     8.9074     0.6683   153.4481   153.4481     3.0000    -999.25    17.0138    57.7531   146.8850     0.6683     1.2507    -999.25    -999.25     0.6806     0.0001     0.0100  7565.4141     1.1609   128.0807   128.0807 16404.6699   203.6974     1.0000     1.0000 -1511.4705   161.7386     0.0000     0.0000     0.0000     0.0001     1.1609    21.0000
  1592.1228  2287.1760 2287176.0000    -999.25     0.2159     9.0245     0.7139   154.6671   154.6671     3.0000    -999.25    17.3493    41.8888   128.9153     0.7139     1.2608    -999.25    -999.25     0.6929     0.0001     0.0100  7503.8579     1.1606   112.4121   112.4121 12636.4756   203.7281     1.0000     1.0000 -1511.6228   161.7464     0.0000     0.0000     0.0000     0.0001     1.1606    21.0000
  1592.2752  2270.5496 2270553.0000    -999.25     0.2159     9.1964     0.7161   155.4641   155.4641     3.0000    -999.25    17.9607    35.7040   116.5557     0.7161     1.2679    -999.25    -999.25     0.7003     0.0001     0.0100  7449.3208     1.1581   101.6361   101.6361 10329.9062   203.7349     1.0000     1.0000 -1511.7751   161.7543     0.0000     0.0000     0.0000     0.0001     1.1581    21.0000
  1592.4276  2268.8711 2268871.2500    -999.25     0.2159     9.4016     0.6895   155.5925   155.5925     3.0000    -999.25    18.1271    36.2387   113.9971     0.6895     1.2730    -999.25    -999.25     0.7016     0.0001     0.0100  7443.8032     1.1582    99.4050    99.4050  9881.3584   203.7821     1.0000     1.0000 -1511.9276   161.7621     0.0000     0.0000     0.0000     0.0001     1.1582    21.0000
  1592.5800  2273.8389 2273832.0000    -999.25     0.2159     9.7587     0.6714   155.4805   155.4805     3.0000    -999.25    18.4981    38.2052   111.3054     0.6714     1.2793    -999.25    -999.25     0.7009     0.0001     0.0100  7460.0781     1.1599    97.0567    97.0567  9420.0127   203.9751     1.0000     1.0000 -1512.0800   161.7699     0.0000     0.0000     0.0000     0.0001     1.1599    21.0000
  1592.7324  2266.9807 2266980.7500    -999.25     0.2159    10.4496     0.6508   155.4399   155.4399     3.0000    -999.25    19.3627    37.8486   101.9787     0.6508     1.3548    -999.25    -999.25     0.6995     0.0001     0.0100  7437.6011     1.1561    88.9240    88.9240  7907.4785   204.2425     1.0000     1.0000 -1512.2324   161.7777     0.0000     0.0000     0.0000     0.0001     1.1561    21.0000
  1592.8848  2243.2563 2243248.0000    -999.25     0.2159    11.3326     0.6623   155.2359   155.2359     3.0000    -999.25    20.1288    36.9531    93.4280     0.6623     1.5582    -999.25    -999.25     0.6940     0.0001     0.0100  7359.7378     1.1425    81.4689    81.4689  6637.1885   204.3763     1.0000     1.0000 -1512.3848   161.7856     0.0000     0.0000     0.0000     0.0001     1.1425    21.0000
  1593.0372  2209.3574 2209357.2500    -999.25     0.2159    11.8753     0.7177   154.8586   154.8586     3.0000    -999.25    20.3384    37.9326    91.8007     0.7177     1.8435    -999.25    -999.25     0.6852     0.0001     0.0100  7248.5479     1.1225    80.0512    80.0512  6408.1934   204.3127     1.0000     1.0000 -1512.5372   161.7934     0.0000     0.0000     0.0000     0.0001     1.1225    21.0000
  1593.1896  2177.2456 2177245.5000    -999.25     0.2159    11.6950     0.7221   154.6507   154.6507     3.0000    -999.25    19.6680    41.1372    97.6607     0.7221     2.0767    -999.25    -999.25     0.6785     0.0001     0.0100  7143.1943     1.1047    85.1624    85.1624  7252.6328   204.2107     1.0000     1.0000 -1512.6896   161.8012     0.0000     0.0000     0.0000     0.0001     1.1047    21.0000
  1593.3420  2165.3518 2165351.7500    -999.25     0.2159    11.0342     0.6550   154.2896   154.2896     3.0000    -999.25    18.0685    46.5726   111.2536     0.6550     2.1833    -999.25    -999.25     0.6727     0.0001     0.0100  7104.1724     1.0961    97.0174    97.0174  9412.3721   204.1908     1.0000     1.0000 -1512.8420   161.8090     0.0000     0.0000     0.0000     0.0001     1.0961    21.0000
  1593.4944  2175.4961 2175496.0000    -999.25     0.2159    10.3522     0.6168   153.6262   153.6262     3.0000    -999.25    16.2290    55.5658   136.6794     0.6168     2.2126    -999.25    -999.25     0.6661     0.0001     0.0100  7137.4546     1.0965   119.1899   119.1899 14206.2256   204.1760     1.0000     1.0000 -1512.9944   161.8169     0.0000     0.0000     0.0000     0.0001     1.0965    21.0000
  1593.6468  2186.8794 2186877.5000    -999.25     0.2159     9.7983     0.6203   153.4816   153.4816     3.0000    -999.25    15.4395    65.8340   169.2861     0.6203     2.2297    -999.25    -999.25     0.6658     0.0001     0.0100  7174.7954     1.1012   147.6185   147.6185 21791.2168   204.1430     1.0000     1.0000 -1513.1469   161.8247     0.0000     0.0000     0.0000     0.0001     1.1012    21.0000
  1593.7992  2187.6064 2187606.5000    -999.25     0.2159     9.4332     0.6214   153.8904   153.8904     3.0000    -999.25    16.0391    61.5830   175.2834     0.6214     2.2548    -999.25    -999.25     0.6708     0.0001     0.0100  7177.1865     1.1045   152.8435   152.8435 23361.1289   204.3197     1.0000     1.0000 -1513.2992   161.8325     0.0000     0.0000     0.0000     0.0001     1.1045    21.0000
  1593.9516  2180.7957 2180791.0000    -999.25     0.2159     9.3921     0.6036   154.2592   154.2592     3.0000    -999.25    17.5100    47.4791   153.3985     0.6036     2.3027    -999.25    -999.25     0.6743     0.0001     0.0100  7154.8262     1.1037   133.7626   133.7626 17892.4297   204.8611     1.0000     1.0000 -1513.4517   161.8403     0.0000     0.0000     0.0000     0.0001     1.1037    21.0000
  1594.1040  2160.3379 2160338.0000    -999.25     0.2159     9.4999     0.5895   155.1133   155.1133     3.0000    -999.25    18.6983    42.1961   148.0510     0.5895     2.3800    -999.25    -999.25     0.6819     0.0001     0.0100  7087.7227     1.0994   129.1010   129.1010 16667.0605   205.6596     1.0000     1.0000 -1513.6040   161.8482     0.0000     0.0000     0.0000     0.0001     1.0994    21.0000
  1594.2564  2137.7334 2137734.2500    -999.25     0.2159     9.2458     0.6063   155.9408   155.9408     3.0000    -999.25    18.6304    41.0211   151.0625     0.6063     2.4606    -999.25    -999.25     0.6888     0.0001     0.0100  7013.5645     1.0937   131.7239   131.7239 17351.1797   206.6064     1.0000     1.0000 -1513.7563   161.8560     0.0000     0.0000     0.0000     0.0001     1.0937    21.0000
  1594.4088  2134.1484 2134148.5000    -999.25     0.2159     8.7651     0.6373   155.5029   155.5029     3.0000    -999.25    17.7721    35.2313   135.3323     0.6373     2.4975    -999.25    -999.25     0.6831     0.0001     0.0100  7001.7993     1.0888   118.0081   118.0081 13925.9082   207.6817     1.0000     1.0000 -1513.9088   161.8638     0.0000     0.0000     0.0000     0.0001     1.0888    21.0000
  1594.5612  2134.3474 2134350.2500    -999.25     0.2159     8.7177     0.6530   155.0171   155.0171     3.0000    -999.25    18.3106    32.4254   125.2925     0.6530     2.4911    -999.25    -999.25     0.6774     0.0001     0.0100  7002.4619     1.0855   109.2573   109.2573 11937.1611   208.7192     1.0000     1.0000 -1514.0612   161.8716     0.0000     0.0000     0.0000     0.0001     1.0855    21.0000
  1594.7136  2130.1992 2130199.2500    -999.25     0.2159     9.1855     0.6644   155.1616   155.1616     3.0000    -999.25    20.4452    37.1391   138.8457     0.6644     2.4703    -999.25    -999.25     0.6786     0.0001     0.0100  6988.8428     1.0844   121.0762   121.0762 14659.4473   209.6209     1.0000     1.0000 -1514.2136   161.8795     0.0000     0.0000     0.0000     0.0001     1.0844    21.0000
  1594.8660  2136.6799 2136684.2500    -999.25     0.2159     9.6629     0.6664   155.1903   155.1903     3.0000    -999.25    21.4588    43.3988   155.3086     0.6664     2.4252    -999.25    -999.25     0.6798     0.0001     0.0100  7010.1187     1.0879   135.4272   135.4272 18340.5215   210.5518     1.0000     1.0000 -1514.3660   161.8873     0.0000     0.0000     0.0000     0.0001     1.0879    21.0000
