~Version ---------------------------------------------------
VERS. 2.0 : CWLS log ASCII Standard -VERSION 2.0
WRAP.  NO : 
~Well ------------------------------------------------------
STRT.m                                                1235.3544 : 
STOP.m                                                1623.2124 : 
STEP.m                                                   0.1524 : 
NULL.                                                   -999.25 : 
COMP.                                                           : COMPANY
WELL.                                                   Well-20 : WELL
FLD .                                                           : FIELD
LOC .                                                           : LOCATION
SRVC.                                                           : SERVICE COMPANY
DATE. 2021-01-20 14:34:13   : Log Export Date {yyyy-MM-dd HH:mm : ss}
PROV.                                                           : PROVINCE
UWI .                                                   Well-20 : UNIQUE WELL ID
API .                                                           : API NUMBER
~Curve Information -----------------------------------------
DEPTH             .m        : DEPTH
ACOUSTICIMPEDANCE1.kPa.s/m  : ACOUSTICIMPEDANCE1
AI                .kPa.s/m  : AI
AVG_PIGN          .m3/m3    : AVG_PIGN
BIT               .m        : BIT
CALI              .in       : CALI
NPHI              .m3/m3    : NPHI
DT                .us/ft    : DT
DTDS              .us/ft    : DTDS
FACIES            ._        : FACIES
FLD1              ._        : FLD1
GR                .gAPI     : GR
M2R1              .ohm.m    : M2R1
LLD               .ohm.m    : LLD
NPHI_1            .m3/m3    : NPHI_1
PEF               .b/e      : PEF
PERF_INT          ._        : PERF_INT
PERMEABILITY      .mD       : PERMEABILITY
PHIT              .m3/m3    : PHIT
PIGN              .m3/m3    : PIGN
PIGN_MODELLING    .m3/m3    : PIGN_MODELLING
PIMP              .kPa.s/m  : PIMP
RHOB              .g/cm3    : RHOB
LLD_1             .ohm.m    : LLD_1
RT_MODELLING      .ohm.m    : RT_MODELLING
RT_POWER          .ohm.m    : RT_POWER
SP                .mV       : SP
SUWI              ._        : SUWI
SUWI_MODELLING    ._        : SUWI_MODELLING
TDVSS             .m        : TDVSS
TEMP              .K        : TEMP
TH                .kg/kg    : TH
U                 .kg/kg    : U
VCL               .%        : VCL
WATER_VOL         ._        : WATER_VOL
RHOB_1            .g/cm3    : RHOB_1
ZLT               ._        : ZLT
~Params ----------------------------------------------------
~Other -----------------------------------------------------
~ASCII -----------------------------------------------------
# ...
  1488.3384  5761.3687 5761369.0000    -999.25     0.2159     9.0101     0.5078   126.5466   126.5466     0.0000    -999.25   117.2003     1.5452     1.5213     0.5078     5.2737    -999.25     0.0111     0.7198     0.0147     0.0147 18902.1289     2.3920     1.3266     1.3266     1.7598   250.8624     1.0000     1.0000 -1407.8384   156.4177     0.0000     0.0000    90.4360     0.0147     2.3920    13.0000
  1488.4908  5696.7271 5696727.5000    -999.25     0.2159     9.0124     0.5446   129.3897   129.3897     0.0000    -999.25   119.9882     1.4878     1.4593     0.5446     5.4363    -999.25     0.0113     0.7553     0.0132     0.0132 18690.0508     2.4183     1.2725     1.2725     1.6193   251.0755     1.0000     1.0000 -1407.9908   156.4255     0.0000     0.0000    93.3600     0.0132     2.4183    13.0000
  1488.6432  5835.8315 5835831.5000    -999.25     0.2159     9.0145     0.5781   127.9403   127.9403     0.0000    -999.25   118.1608     1.4375     1.3984     0.5781     5.8780    -999.25     0.0112     0.7485     0.0122     0.0122 19146.4297     2.4496     1.2194     1.2194     1.4870   251.2553     1.0000     1.0000 -1408.1432   156.4333     0.0000     0.0000    88.3230     0.0122     2.4496    13.0000
  1488.7956  6382.6479 6382676.5000    -999.25     0.2159     9.0199     0.5715   120.6517   120.6517     0.0000    -999.25   113.3404     1.5160     1.4559     0.5715     6.7294    -999.25     0.0098     0.6941     0.0115     0.0115 20940.5391     2.5265     1.2696     1.2696     1.6118   251.4108     1.0000     1.0000 -1408.2957   156.4412     0.0000     0.0000    78.7870     0.0115     2.5265    13.0000
  1488.9480  6979.6113 6979611.0000    -999.25     0.2159     9.0276     0.5357   113.8784   113.8784     0.0000    -999.25   109.8967     1.7163     1.6250     0.5357     7.3925    -999.25     0.0063     0.6462     0.0102     0.0102 22898.9863     2.6077     1.4170     1.4170     2.0079   251.3783     1.0000     1.0000 -1408.4480   156.4490     0.0000     0.0000    73.8440     0.0102     2.6077    13.0000
  1489.1004  7025.6445 7025545.5000    -999.25     0.2159     9.0316     0.5126   111.6008   111.6008     0.0000    -999.25   111.0457     1.7371     1.6389     0.5126     6.9722    -999.25     0.0040     0.6142     0.0092     0.0100 23049.6895     2.5724     1.4291     1.4291     2.0423   251.2321     1.0000     1.0000 -1408.6003   156.4568     0.0000     0.0000    79.0270     0.0092     2.5724    13.0000
  1489.2528  6554.2534 6554253.5000    -999.25     0.2159     9.0472     0.5318   115.3954   115.3954     0.0000    -999.25   117.5353     1.4979     1.4252     0.5318     6.2536    -999.25     0.0092     0.6296     0.0121     0.0121 21503.4570     2.4814     1.2428     1.2428     1.5444   251.2232     1.0000     1.0000 -1408.7528   156.4646     0.0000     0.0000    92.2320     0.0121     2.4814    13.0000
  1489.4052  5972.3062 5972314.5000    -999.25     0.2159     9.0683     0.5856   123.8123   123.8123     0.0000    -999.25   127.3510     1.3046     1.2471     0.5856     5.9524    -999.25     0.0158     0.7008     0.0131     0.0131 19594.2051     2.4260     1.0875     1.0875     1.1826   251.3661     1.0000     1.0000 -1408.9052   156.4725     0.0000     0.0000    93.6370     0.0131     2.4260    13.0000
  1489.5576  5486.2881 5486288.5000    -999.25     0.2159     9.0648     0.6126   131.0860   131.0860     0.0000    -999.25   135.3742     1.2541     1.1958     0.6126     5.8662    -999.25     0.0182     0.7576     0.0132     0.0132 17999.6328     2.3595     1.0427     1.0427     1.0873   251.4930     1.0000     1.0000 -1409.0576   156.4803     0.0000     0.0000    93.5920     0.0132     2.3595    13.0000
  1489.7100  5413.8042 5413830.0000    -999.25     0.2159     9.0394     0.5888   132.7341   132.7341     0.0000    -999.25   137.9362     1.2707     1.2015     0.5888     5.8109    -999.25     0.0175     0.7738     0.0133     0.0133 17761.9102     2.3576     1.0477     1.0477     1.0977   251.5604     1.0000     1.0000 -1409.2100   156.4881     0.0000     0.0000    93.5550     0.0133     2.3576    13.0000
  1489.8624  5486.5200 5486520.0000    -999.25     0.2159     9.0180     0.5437   131.7971   131.7971     0.0000    -999.25   136.3409     1.2839     1.2000     0.5437     5.7526    -999.25     0.0139     0.7680     0.0132     0.0132 18000.3945     2.3724     1.0464     1.0464     1.0950   251.5986     1.0000     1.0000 -1409.3624   156.4959     0.0000     0.0000    93.5970     0.0132     2.3724    13.0000
  1490.0148  5511.4824 5511482.5000    -999.25     0.2159     8.9936     0.5083   131.7532   131.7532     0.0000    -999.25   136.2791     1.2933     1.1932     0.5083     5.7805    -999.25     0.0355     0.7701     0.0190     0.0190 18082.2910     2.3824     1.0405     1.0405     1.0826   251.5829     1.0000     1.0000 -1409.5148   156.5038     0.0000     0.0000    90.9970     0.0190     2.3824    13.0000
  1490.1672  5562.7480 5562748.0000    -999.25     0.2159     8.9587     0.4952   131.1198   131.1198     0.0000    -999.25   137.9934     1.3117     1.1962     0.4952     5.8143    -999.25     0.0252     0.7664     0.0170     0.0170 18250.4844     2.3930     1.0431     1.0431     1.0880   251.4891     1.0000     1.0000 -1409.6672   156.5116     0.0000     0.0000    91.8810     0.0170     2.3930    13.0000
  1490.3196  5666.5122 5666512.5000    -999.25     0.2159     8.9282     0.5074   129.4234   129.4234     0.0000    -999.25   136.9072     1.3230     1.1981     0.5074     5.7680    -999.25     0.0124     0.7525     0.0131     0.0131 18590.9199     2.4061     1.0447     1.0447     1.0915   251.3730     1.0000     1.0000 -1409.8196   156.5194     0.0000     0.0000    93.5770     0.0131     2.4061    14.0000
  1490.4720  5763.5586 5763558.5000    -999.25     0.2159     8.9164     0.5265   128.0533   128.0533     0.0000    -999.25   133.4715     1.3280     1.1998     0.5265     5.8496    -999.25     0.0120     0.7425     0.0127     0.0127 18909.3125     2.4214     1.0462     1.0462     1.0946   251.3084     1.0000     1.0000 -1409.9720   156.5273     0.0000     0.0000    93.7140     0.0127     2.4214    14.0000
  1490.6244  5809.6992 5809699.0000    -999.25     0.2159     8.9264     0.5384   127.6344   127.6344     0.0000    -999.25   131.1197     1.3669     1.2324     0.5384     5.9737    -999.25     0.0144     0.7412     0.0133     0.0133 19060.6934     2.4328     1.0747     1.0747     1.1549   251.3382     1.0000     1.0000 -1410.1244   156.5351     0.0000     0.0000    93.5570     0.0133     2.4328    14.0000
  1490.7768  5838.2979 5838278.0000    -999.25     0.2159     8.9464     0.5418   127.2076   127.2076     0.0000    -999.25   126.8740     1.4621     1.3131     0.5418     5.7142    -999.25     0.0206     0.7378     0.0153     0.0153 19154.4551     2.4366     1.1450     1.1450     1.3111   251.3549     1.0000     1.0000 -1410.2769   156.5429     0.0000     0.0000    92.9140     0.0153     2.4366    14.0000
  1490.9292  5857.8828 5857882.5000    -999.25     0.2159     8.9562     0.5452   126.3348   126.3348     0.0000    -999.25   117.3359     1.5769     1.4122     0.5452     5.3183    -999.25     0.0219     0.7268     0.0166     0.0166 19218.7754     2.4280     1.2314     1.2314     1.5165   251.2176     1.0000     1.0000 -1410.4292   156.5507     0.0000     0.0000    92.4810     0.0166     2.4280    14.0000
  1491.0816  5821.2368 5821240.5000    -999.25     0.2159     8.9550     0.5378   126.2505   126.2505     0.0000    -999.25   107.4910     1.6495     1.4798     0.5378     5.1887    -999.25     0.0163     0.7217     0.0166     0.0166 19098.5566     2.4112     1.2904     1.2904     1.6651   251.0496     1.0000     1.0000 -1410.5815   156.5585     0.0000     0.0000    92.4820     0.0166     2.4112    14.0000
  1491.2340  5763.9297 5763930.0000    -999.25     0.2159     8.9519     0.5220   126.7389   126.7389     0.0000    -999.25   103.4382     1.6718     1.5089     0.5220     5.3274    -999.25     0.0226     0.7230     0.0201     0.0201 18910.5312     2.3967     1.3158     1.3158     1.7312   251.0311     1.0000     1.0000 -1410.7340   156.5664     0.0000     0.0000    90.9100     0.0201     2.3967    14.0000
