~Version ---------------------------------------------------
VERS. 2.0 : CWLS log ASCII Standard -VERSION 2.0
WRAP.  NO : 
~Well ------------------------------------------------------
STRT.m                                                   1280.0 : 
STOP.m                                                 1564.988 : 
STEP.m                                                   0.1524 : 
NULL.                                                   -999.25 : 
COMP.                                                           : COMPANY
WELL.                                                   Well-11 : WELL
FLD .                                                           : FIELD
LOC .                                                           : LOCATION
SRVC.                                                           : SERVICE COMPANY
DATE. 2021-01-20 14:34:05   : Log Export Date {yyyy-MM-dd HH:mm : ss}
PROV.                                                           : PROVINCE
UWI .                                                   Well-11 : UNIQUE WELL ID
API .                                                           : API NUMBER
~Curve Information -----------------------------------------
DEPTH             .m        : DEPTH
ACOUSTICIMPEDANCE1.kPa.s/m  : ACOUSTICIMPEDANCE1
AI                .kPa.s/m  : AI
AVG_PIGN          .m3/m3    : AVG_PIGN
CALI              .in       : CALI
CALI[DERIVED]1    .in       : CALI[DERIVED]1
DFL               .ohm.m    : DFL
DT                .us/ft    : DT
DT1               .us/ft    : DT1
FACIES            ._        : FACIES
FLD1              ._        : FLD1
GR                .gAPI     : GR
HDRS              .ohm.m    : HDRS
HMRS              .ohm.m    : HMRS
DEPTH_1           .m        : DEPTH_1
NPHI              .m3/m3    : NPHI
PERF_INT          ._        : PERF_INT
PERMEABILITY      .mD       : PERMEABILITY
PIGN              .m3/m3    : PIGN
PIGN_MODELLING    .m3/m3    : PIGN_MODELLING
PIMP              .kPa.s/m  : PIMP
RHOB              .g/cm3    : RHOB
LLD               .ohm.m    : LLD
RT_MODELLING      .ohm.m    : RT_MODELLING
RT_POWER          .ohm.m    : RT_POWER
SP                .mV       : SP
SUWI              ._        : SUWI
SUWI_MODELLING    ._        : SUWI_MODELLING
SXWI              ._        : SXWI
TDVSS             .m        : TDVSS
VCL               .%        : VCL
WATER_VOL         ._        : WATER_VOL
ZLT               ._        : ZLT
~Params ----------------------------------------------------
~Other -----------------------------------------------------
~ASCII -----------------------------------------------------
# ...
  1373.8784  6970.5410 6973892.0000    -999.25    10.3328    10.3328     5.1930   103.9432   103.9428     0.0000    -999.25    60.0944     2.8851     2.8258  1373.8784     0.6263    -999.25     0.0090     0.0277     0.0277 22880.2227     2.3771     2.9063     2.9063     8.4466   139.9808     1.0000     1.0000     1.0000 -1293.7584    83.3790     0.0277     1.0000
  1373.8981  6944.1836 6944183.5000    -999.25    10.3144    10.3144     5.1148   103.8456   104.7514     0.0000    -999.25    60.1262     2.8016     2.7430  1373.8981     0.6298    -999.25     0.0082     0.0269     0.0269 22782.7539     2.3659     2.8073     2.8073     7.9470   140.0762     1.0000     1.0000     1.0000 -1293.7781    83.8603     0.0269     1.0000
  1374.0308  6335.0024 6360432.0000    -999.25    10.1908    10.1908     4.5887   110.1980   110.1980     0.0000    -999.25    60.3404     2.2391     2.1852  1374.0309     0.6537    -999.25     0.0024     0.0215     0.0215 20867.5586     2.2904     2.1405     2.1405     4.5817   140.7187     1.0000     1.0000     1.0000 -1293.9109    87.1020     0.0215     1.0000
  1374.0504  6274.2114 6274211.0000    -999.25    10.1814    10.1814     4.3451   111.1363   111.6016     0.0000    -999.25    60.7968     2.1593     2.1071  1374.0504     0.6511    -999.25     0.0026     0.0216     0.0216 20584.6816     2.2877     2.0635     2.0635     4.2981   140.7622     1.0000     1.0000     1.0000 -1293.9304    87.0508     0.0216     1.0000
  1374.1832  5711.9478 5730165.0000    -999.25    10.1178    10.1178     2.6945   121.1127   121.1117     0.0000    -999.25    63.8898     1.6187     1.5778  1374.1832     0.6335    -999.25     0.0040     0.0222     0.0222 18799.7539     2.2696     1.5416     1.5416     2.3765   141.0572     1.0000     1.0000     1.0000 -1294.0632    86.7040     0.0222     1.0000
  1374.2028  5649.8691 5649869.0000    -999.25    10.1138    10.1138     2.5726   122.5851   122.4849     0.0000    -999.25    64.4483     1.5806     1.5424  1374.2028     0.6270    -999.25     0.0063     0.0232     0.0232 18536.3164     2.2723     1.5092     1.5092     2.2849   141.0354     1.0000     1.0000     1.0000 -1294.0828    86.0571     0.0232     1.0000
  1374.3356  5296.3940 5301558.0000    -999.25    10.0866    10.0866     1.7468   131.7903   131.7894     0.0000    -999.25    68.2326     1.3224     1.3021  1374.3356     0.5832    -999.25     0.0219     0.0305     0.0305 17393.5625     2.2901     1.2900     1.2900     1.6641   140.8880     1.0000     1.0000     1.0000 -1294.2156    81.6740     0.0305     1.0000
  1374.3552  5250.1504 5250150.5000    -999.25    10.0763    10.0763     1.7025   133.1489   132.5803     0.0000    -999.25    68.6234     1.3091     1.2908  1374.3551     0.5763    -999.25     0.0312     0.0319     0.0319 17224.9023     2.2935     1.2796     1.2796     1.6380   140.8265     1.0000     1.0000     1.0000 -1294.2351    80.8449     0.0319     1.0000
  1374.4880  5118.8091 5120154.0000    -999.25    10.0063    10.0063     1.4021   137.9398   137.9393     0.0000    -999.25    71.2710     1.2192     1.2147  1374.4880     0.5295    -999.25     0.0944     0.0413     0.0413 16798.4043     2.3166     1.2088     1.2088     1.4612   140.4103     1.0000     1.0000     1.0000 -1294.3680    75.2270     0.0413     1.0000
  1374.5076  5100.9673 5100967.5000    -999.25     9.9684     9.9684     1.4000   138.6469   137.9016     0.0000    -999.25    71.4912     1.2213     1.2182  1374.5076     0.5242    -999.25     0.1135     0.0425     0.0425 16735.4570     2.3203     1.2127     1.2127     1.4707   140.2882     1.0000     1.0000     1.0000 -1294.3876    74.5194     0.0425     1.0000
  1374.6404  5194.4575 5196426.0000    -999.25     9.7119     9.7119     1.3864   137.6461   137.6462     0.0000    -999.25    72.9837     1.2351     1.2425  1374.6404     0.4883    -999.25     0.2432     0.0505     0.0505 17048.6426     2.3458     1.2390     1.2390     1.5351   139.4612     1.0000     1.0000     1.0000 -1294.5204    69.7250     0.0505     1.0000
  1374.6600  5210.5146 5210515.0000    -999.25     9.6744     9.6744     1.3965   137.4984   137.0570     0.0000    -999.25    73.1843     1.2485     1.2566  1374.6599     0.4849    -999.25     0.2669     0.0513     0.0513 17094.8652     2.3505     1.2538     1.2538     1.5734   139.2746     1.0000     1.0000     1.0000 -1294.5399    69.2282     0.0513     1.0000
  1374.7928  5457.4971 5457167.5000    -999.25     9.4207     9.4207     1.4652   133.0643   133.0648     0.0000    -999.25    74.5436     1.3391     1.3520  1374.7928     0.4620    -999.25     0.4276     0.0569     0.0569 17904.0938     2.3825     1.3539     1.3539     1.8330   138.0103     1.0000     1.0000     1.0000 -1294.6729    65.8620     0.0569     1.0000
  1374.8124  5493.5713 5493571.0000    -999.25     9.3992     9.3992     1.4956   132.4099   132.2326     0.0000    -999.25    74.7321     1.3642     1.3766  1374.8124     0.4607    -999.25     0.4442     0.0574     0.0574 18023.5273     2.3865     1.3805     1.3805     1.9104   137.7745     1.0000     1.0000     1.0000 -1294.6924    65.5821     0.0574     1.0000
  1374.9452  5810.4722 5807688.5000    -999.25     9.2538     9.2538     1.7012   126.5935   126.5940     0.0000    -999.25    76.0097     1.5338     1.5435  1374.9452     0.4520    -999.25     0.5565     0.0605     0.0605 19054.0977     2.4133     1.5604     1.5604     2.4348   136.1763     1.0000     1.0000     1.0000 -1294.8252    63.6860     0.0605     1.0000
  1374.9648  5854.0493 5854049.5000    -999.25     9.2420     9.2420     1.7617   125.7350   125.8199     0.0000    -999.25    76.1123     1.5631     1.5727  1374.9647     0.4519    -999.25     0.5651     0.0608     0.0608 19206.1992     2.4149     1.5900     1.5900     2.5342   135.8907     1.0000     1.0000     1.0000 -1294.8447    63.5125     0.0608     1.0000
  1375.0976  6132.2334 6129953.5000    -999.25     9.1621     9.1621     2.1717   120.5738   120.5744     0.0000    -999.25    76.8074     1.7612     1.7702  1375.0977     0.4508    -999.25     0.6230     0.0628     0.0628 20111.3965     2.4258     1.7909     1.7909     3.2073   133.9560     1.0000     1.0000     1.0000 -1294.9777    62.3370     0.0628     1.0000
  1375.1172  6170.6743 6170674.5000    -999.25     9.1472     9.1472     2.2420   119.8121   120.0739     0.0000    -999.25    76.7486     1.7833     1.7932  1375.1172     0.4508    -999.25     0.6287     0.0630     0.0630 20244.9941     2.4256     1.8118     1.8118     3.2856   133.6412     1.0000     1.0000     1.0000 -1294.9972    62.2018     0.0630     1.0000
  1375.2500  6332.2637 6334635.5000    -999.25     9.0462     9.0462     2.7183   116.6846   116.6829     0.0000    -999.25    76.3505     1.9325     1.9488  1375.2500     0.4509    -999.25     0.6671     0.0645     0.0645 20782.9238     2.4241     1.9534     1.9534     3.8158   131.5081     1.0000     1.0000     1.0000 -1295.1300    61.2860     0.0645     1.0000
  1375.2697  6358.9580 6358958.0000    -999.25     9.0379     9.0379     2.7606   116.2207   116.5059     0.0000    -999.25    76.0973     1.9402     1.9576  1375.2697     0.4505    -999.25     0.6748     0.0647     0.0647 20862.7227     2.4247     1.9592     1.9592     3.8387   131.1927     1.0000     1.0000     1.0000 -1295.1497    61.1739     0.0647     1.0000
  1375.4024  6418.5874 6419116.5000    -999.25     8.9821     8.9821     3.0455   115.3138   115.3139     0.0000    -999.25    74.3918     1.9925     2.0168  1375.4025     0.4478    -999.25     0.7266     0.0660     0.0660 21060.0918     2.4283     1.9983     1.9983     3.9932   129.0678     1.0000     1.0000     1.0000 -1295.2825    60.4190     0.0660     1.0000
  1375.4220  6428.0020 6428002.0000    -999.25     8.9811     8.9811     3.0416   115.1799   115.3875     0.0000    -999.25    73.9680     1.9889     2.0138  1375.4220     0.4468    -999.25     0.7410     0.0662     0.0662 21089.2441     2.4291     1.9933     1.9933     3.9733   128.7817     1.0000     1.0000     1.0000 -1295.3020    60.2624     0.0662     1.0000
