~Version ---------------------------------------------------
VERS. 2.0 : CWLS log ASCII Standard -VERSION 2.0
WRAP.  NO : 
~Well ------------------------------------------------------
STRT.m                                                 998.5724 : 
STOP.m                                                  1489.91 : 
STEP.m                                                   0.1524 : 
NULL.                                                   -999.25 : 
COMP.                                                           : COMPANY
WELL.                                                    Well-4 : WELL
FLD .                                                           : FIELD
LOC .                                                           : LOCATION
SRVC.                                                           : SERVICE COMPANY
DATE. 2021-01-20 14:34:00   : Log Export Date {yyyy-MM-dd HH:mm : ss}
PROV.                                                           : PROVINCE
UWI .                                                    Well-4 : UNIQUE WELL ID
API .                                                           : API NUMBER
~Curve Information -----------------------------------------
DEPTH             .m        : DEPTH
ACOUSTICIMPEDANCE1.kPa.s/m  : ACOUSTICIMPEDANCE1
AVG_PIGN          .m3/m3    : AVG_PIGN
CALI              .in       : CALI
CALI[DERIVED]1    .in       : CALI[DERIVED]1
DFL               .ohm.m    : DFL
DT                .us/ft    : DT
FACIES            ._        : FACIES
FLD1              ._        : FLD1
GR                .gAPI     : GR
HDRS              .ohm.m    : HDRS
HMRS              .ohm.m    : HMRS
NPHI              .m3/m3    : NPHI
PERF_INT          ._        : PERF_INT
PIGN              .m3/m3    : PIGN
PIGN_MODELLING    .m3/m3    : PIGN_MODELLING
RHOB              .g/cm3    : RHOB
SP                .mV       : SP
SUWI              ._        : SUWI
SUWI_MODELLING    ._        : SUWI_MODELLING
TDVSS             .m        : TDVSS
VCL               .%        : VCL
ZLT               ._        : ZLT
~Params ----------------------------------------------------
~Other -----------------------------------------------------
~ASCII -----------------------------------------------------
# ...
  1325.3180  5697.8062    -999.25     8.7974     8.7974     1.8149   126.3963     0.0000    -999.25    71.4012     1.4874     1.5085     0.5682    -999.25     0.0388     0.0388     2.3628   290.6250     1.0000     1.0000 -1246.6980    70.2570     0.0000
  1325.4704  5653.1782    -999.25     8.8275     8.8275     1.8953   125.9076     0.0000    -999.25    72.1487     1.4843     1.5290     0.5922    -999.25     0.0355     0.0355     2.3352   291.0117     1.0000     1.0000 -1246.8505    72.8150     0.0000
  1325.6228  5554.8530    -999.25     8.8601     8.8601     1.8758   126.7431     0.0000    -999.25    72.2492     1.4562     1.5094     0.6118    -999.25     0.0316     0.0316     2.3098   291.3537     1.0000     1.0000 -1247.0028    75.7320     0.0000
  1325.7752  5424.1021    -999.25     8.8837     8.8837     1.7702   128.6177     0.0000    -999.25    72.5059     1.3949     1.4204     0.6194    -999.25     0.0284     0.0284     2.2888   291.5362     1.0000     1.0000 -1247.1552    78.2260     0.0000
  1325.9276  5309.5210    -999.25     8.9037     8.9037     1.6110   130.4185     0.0000    -999.25    73.3785     1.3313     1.3247     0.6182    -999.25     0.0262     0.0262     2.2719   291.4969     1.0000     1.0000 -1247.3076    79.8930     0.0000
  1326.0800  5232.8633    -999.25     8.9454     8.9454     1.5165   131.6913     0.0000    -999.25    75.3206     1.2988     1.3040     0.6174    -999.25     0.0245     0.0245     2.2609   291.3001     1.0000     1.0000 -1247.4600    81.2110     0.0000
  1326.2324  5163.2007    -999.25     9.0262     9.0262     1.4785   132.6859     0.0000    -999.25    77.4644     1.2884     1.3215     0.6215    -999.25     0.0227     0.0227     2.2476   291.3023     1.0000     1.0000 -1247.6124    82.5750     0.0000
  1326.3848  5092.7451    -999.25     9.0988     9.0988     1.4839   133.6848     0.0000    -999.25    78.1579     1.2654     1.2855     0.6219    -999.25     0.0216     0.0216     2.2337   291.3708     1.0000     1.0000 -1247.7648    83.4660     0.0000
  1326.5372  5065.3647    -999.25     9.0969     9.0969     1.4291   135.0152     0.0000    -999.25    77.2758     1.2312     1.2369     0.6131    -999.25     0.0217     0.0217     2.2438   291.3008     1.0000     1.0000 -1247.9172    83.3890     0.0000
  1326.6896  5085.7539    -999.25     9.0073     9.0073     1.3763   136.1921     0.0000    -999.25    75.7473     1.2224     1.2294     0.5980    -999.25     0.0231     0.0231     2.2724   291.0537     1.0000     1.0000 -1248.0696    82.3200     0.0000
  1326.8420  5148.4253    -999.25     8.9053     8.9053     1.3749   135.8888     0.0000    -999.25    74.6303     1.2538     1.2521     0.5857    -999.25     0.0255     0.0255     2.2953   290.6178     1.0000     1.0000 -1248.2220    80.4490     0.0000
  1326.9944  5241.7485    -999.25     8.8775     8.8775     1.4504   134.0335     0.0000    -999.25    74.0265     1.3067     1.3250     0.5823    -999.25     0.0279     0.0279     2.3050   290.4814     1.0000     1.0000 -1248.3744    78.5690     0.0000
  1327.1468  5287.7725    -999.25     8.9004     8.9004     1.5829   131.9683     0.0000    -999.25    73.4116     1.3355     1.3802     0.5909    -999.25     0.0287     0.0287     2.2894   290.8497     1.0000     1.0000 -1248.5269    77.9700     0.0000
  1327.2992  5268.0200    -999.25     8.9515     8.9515     1.6129   130.9657     0.0000    -999.25    72.7857     1.3136     1.3290     0.6115    -999.25     0.0268     0.0268     2.2636   291.2920     1.0000     1.0000 -1248.6792    79.4690     0.0000
  1327.4516  5257.9976    -999.25     8.9624     8.9624     1.5606   131.2548     0.0000    -999.25    72.1883     1.2797     1.2781     0.6319    -999.25     0.0234     0.0234     2.2642   291.6232     1.0000     1.0000 -1248.8317    82.0580     0.0000
  1327.6040  5262.8618    -999.25     8.9443     8.9443     1.4928   132.3972     0.0000    -999.25    72.7441     1.2750     1.2905     0.6350    -999.25     0.0215     0.0215     2.2861   291.7998     1.0000     1.0000 -1248.9840    83.5390     0.0000
  1327.7564  5249.1621    -999.25     8.9004     8.9004     1.5426   133.4105     0.0000    -999.25    74.9253     1.2905     1.3013     0.6201    -999.25     0.0222     0.0222     2.2975   291.9377     1.0000     1.0000 -1249.1364    83.0220     0.0000
  1327.9088  5262.5815    -999.25     8.8756     8.8756     1.5240   133.6037     0.0000    -999.25    77.8559     1.2949     1.2898     0.6035    -999.25     0.0238     0.0238     2.3068   292.2170     1.0000     1.0000 -1249.2888    81.7170     0.0000
  1328.0612  5295.2642    -999.25     8.8786     8.8786     1.5212   133.0773     0.0000    -999.25    80.7792     1.2877     1.2882     0.5967    -999.25     0.0247     0.0247     2.3119   292.4601     1.0000     1.0000 -1249.4412    81.0460     0.0000
  1328.2136  5270.7231    -999.25     8.9007     8.9007     1.4878   132.4981     0.0000    -999.25    81.9071     1.2868     1.3141     0.6017    -999.25     0.0245     0.0245     2.2912   292.6437     1.0000     1.0000 -1249.5936    81.2440     0.0000
  1328.3660  5220.7295    -999.25     8.9299     8.9299     1.5273   132.4364     0.0000    -999.25    81.2477     1.2746     1.3196     0.6099    -999.25     0.0236     0.0236     2.2684   292.8290     1.0000     1.0000 -1249.7460    81.9320     0.0000
  1328.5184  5203.0063    -999.25     8.9452     8.9452     1.4599   132.7024     0.0000    -999.25    80.5117     1.2245     1.2307     0.6128    -999.25     0.0228     0.0228     2.2653   292.7479     1.0000     1.0000 -1249.8984    82.5150     0.0000
  1328.6708  5225.1133    -999.25     8.9010     8.9010     1.3696   132.9348     0.0000    -999.25    80.0212     1.1826     1.1624     0.6070    -999.25     0.0232     0.0232     2.2789   292.5146     1.0000     1.0000 -1250.0508    82.2520     0.0000
  1328.8232  5273.9932    -999.25     8.8272     8.8272     1.3472   132.7968     0.0000    -999.25    80.4514     1.2127     1.2147     0.5960    -999.25     0.0251     0.0251     2.2978   292.3058     1.0000     1.0000 -1250.2032    80.7550     0.0000
  1328.9756  5314.0693    -999.25     8.7762     8.7762     1.4401   131.7202     0.0000    -999.25    81.5456     1.2855     1.2913     0.5835    -999.25     0.0283     0.0283     2.2965   292.1209     1.0000     1.0000 -1250.3556    78.2680     0.0000
  1329.1280  5370.9902    -999.25     8.8232     8.8232     1.5153   130.1500     0.0000    -999.25    82.2171     1.3037     1.3240     0.5713    -999.25     0.0318     0.0318     2.2934   292.1508     1.0000     1.0000 -1250.5081    75.6260     0.0000
  1329.2804  5391.4009    -999.25     8.9582     8.9582     1.5742   129.4617     0.0000    -999.25    82.0130     1.2747     1.3113     0.5573    -999.25     0.0345     0.0345     2.2900   292.2163     1.0000     1.0000 -1250.6604    73.5810     0.0000
  1329.4328  5400.4854    -999.25     9.0740     9.0740     1.5290   129.9477     0.0000    -999.25    80.5739     1.2436     1.2497     0.5437    -999.25     0.0361     0.0361     2.3024   292.1635     1.0000     1.0000 -1250.8129    72.3550     0.0000
  1329.5852  5441.1143    -999.25     9.0405     9.0405     1.4676   130.6865     0.0000    -999.25    78.7159     1.2045     1.1969     0.5346    -999.25     0.0367     0.0367     2.3329   292.1325     1.0000     1.0000 -1250.9652    71.8840     0.0000
  1329.7376  5448.3696    -999.25     8.9447     8.9447     1.4039   130.7525     0.0000    -999.25    76.8447     1.1908     1.1893     0.5337    -999.25     0.0370     0.0370     2.3372   292.0248     1.0000     1.0000 -1251.1176    71.6190     0.0000
  1329.8900  5435.2134    -999.25     8.9770     8.9770     1.4347   130.2603     0.0000    -999.25    74.8112     1.2226     1.2335     0.5379    -999.25     0.0375     0.0375     2.3228   291.9686     1.0000     1.0000 -1251.2700    71.2410     0.0000
  1330.0424  5391.4478    -999.25     9.0773     9.0773     1.5212   130.3662     0.0000    -999.25    73.0125     1.2530     1.2794     0.5430    -999.25     0.0375     0.0375     2.3060   292.1035     1.0000     1.0000 -1251.4224    71.2920     0.0000
