~Version ---------------------------------------------------
VERS. 2.0 : CWLS log ASCII Standard -VERSION 2.0
WRAP.  NO : 
~Well ------------------------------------------------------
STRT.m                                                1333.6522 : 
STOP.m                                                1778.5078 : 
STEP.m                                                   0.1524 : 
NULL.                                                   -999.25 : 
COMP.                                                           : COMPANY
WELL.                                                   Well-15 : WELL
FLD .                                                           : FIELD
LOC .                                                           : LOCATION
SRVC.                                                           : SERVICE COMPANY
DATE. 2021-01-20 14:34:07   : Log Export Date {yyyy-MM-dd HH:mm : ss}
PROV.                                                           : PROVINCE
UWI .                                                   Well-15 : UNIQUE WELL ID
API .                                                           : API NUMBER
~Curve Information -----------------------------------------
DEPTH             .m        : DEPTH
ACOUSTICIMPEDANCE1.kPa.s/m  : ACOUSTICIMPEDANCE1
AI                .kPa.s/m  : AI
BS                .in       : BS
CALI              .in       : CALI
CALI[DERIVED]1    .in       : CALI[DERIVED]1
DRES              .ohm.m    : DRES
DT                .us/ft    : DT
DT2               .us/ft    : DT2
DT4P              .us/ft    : DT4P
FACIES            ._        : FACIES
FLD1              ._        : FLD1
GR                .gAPI     : GR
GR_EDTC           .gAPI     : GR_EDTC
LLD               .ohm.m    : LLD
LLS               .ohm.m    : LLS
M2R2              .ohm.m    : M2R2
LLS_1             .ohm.m    : LLS_1
LLD_1             .ohm.m    : LLD_1
DEPTH_1           .m        : DEPTH_1
MSFL              .ohm.m    : MSFL
NPHI              .m3/m3    : NPHI
PERF_INT          ._        : PERF_INT
PIMP              .kPa.s/m  : PIMP
PR                ._        : PR
RHOB              .g/cm3    : RHOB
RT_MODELLING      .ohm.m    : RT_MODELLING
RT_POWER          .ohm.m    : RT_POWER
SP                .mV       : SP
TDVSS             .m        : TDVSS
TENS              .t        : TENS
VPVS              ._        : VPVS
ZLT               ._        : ZLT
~Params ----------------------------------------------------
~Other -----------------------------------------------------
~ASCII -----------------------------------------------------
# ...
  1414.2718  5705.0322 5705104.5000     8.5000    10.9999    10.9999     2.3669   123.5702   273.9272   123.5702     0.0000    -999.25    60.8065    96.8198     2.3669     2.1827    -999.25    -999.25    -999.25  1414.2717     1.7516     0.4396    -999.25 18717.5352     0.3723     2.3129     2.3669     5.6022   -69.1602 -1236.2344  1847.1561     2.2168     0.0000
  1414.4242  5854.2563 5854292.5000     8.5000    11.0448    11.0448     2.3045   121.7585   274.0552   121.7585     0.0000    -999.25    58.3144    98.0360     2.3045     2.1280    -999.25    -999.25    -999.25  1414.4242     1.8023     0.4294    -999.25 19206.9961     0.3770     2.3386     2.3045     5.3107   -68.9096 -1236.3414  1608.3136     2.2509     0.0000
  1414.5766  6057.8975 6057860.5000     8.5000    11.0412    11.0412     2.3157   119.4667   268.4894   119.4667     0.0000    -999.25    50.8300    93.2525     2.3157     2.1309    -999.25    -999.25    -999.25  1414.5765     2.2474     0.4116    -999.25 19874.8691     0.3766     2.3744     2.3157     5.3625   -68.8887 -1236.4485  1464.1890     2.2474     0.0000
  1414.7290  6167.0195 6166956.0000     8.5000    10.9672    10.9672     2.4147   118.4995   257.9695   118.4995     0.0000    -999.25    48.8558    93.2368     2.4147     2.2076    -999.25    -999.25    -999.25  1414.7290     2.4534     0.4038    -999.25 20232.7949     0.3663     2.3976     2.4147     5.8308   -68.9722 -1236.5555  1237.2979     2.1770     0.0000
  1414.8814  6096.9980 6096957.5000     8.5000    10.9419    10.9419     2.5377   120.0603   250.3525   120.0603     0.0000    -999.25    50.6935    92.8617     2.5377     2.3119    -999.25    -999.25    -999.25  1414.8813     2.5712     0.4092    -999.25 20003.1426     0.3506     2.4016     2.5377     6.4399   -68.9448 -1236.6626  1288.9318     2.0852     0.0000
  1415.0338  6095.5195 6095520.5000     8.5000    10.9684    10.9684     2.6157   119.6594   236.0822   119.6594     0.0000    -999.25    51.7623    98.6093     2.6157     2.3841    -999.25    -999.25    -999.25  1415.0338     2.6257     0.4160    -999.25 19998.4258     0.3271     2.3930     2.6157     6.8419   -68.8055 -1236.7697  2296.6758     1.9729     0.0000
  1415.1862  6095.3027 6095312.5000     8.5000    10.9900    10.9900     2.6407   119.2486   237.7186   119.2486     0.0000    -999.25    52.3159   101.3543     2.6407     2.4083    -999.25    -999.25    -999.25  1415.1862     2.4749     0.4167    -999.25 19997.7441     0.3319     2.3847     2.6407     6.9733   -68.7086 -1236.8767  1844.5958     1.9935     0.0000
  1415.3386  6000.9712 6000985.5000     8.5000    11.0184    11.0184     2.6109   120.8438   233.2352   120.8438     0.0000    -999.25    52.5640    98.4558     2.6109     2.3820    -999.25    -999.25    -999.25  1415.3385     2.2890     0.4179    -999.25 19688.2734     0.3165     2.3792     2.6109     6.8168   -68.5765 -1236.9838  1854.9856     1.9301     0.0000
  1415.4910  5898.7803 5898802.5000     8.5000    11.0450    11.0450     2.5677   122.8495   232.8817   122.8495     0.0000    -999.25    52.3947    96.8851     2.5677     2.3410    -999.25    -999.25    -999.25  1415.4910     2.1635     0.4229    -999.25 19353.0254     0.3072     2.3775     2.5677     6.5931   -68.5205 -1237.0908  1833.0289     1.8956     0.0000
  1415.6434  5966.1362 5966152.0000     8.5000    11.0449    11.0449     2.5530   121.6924   238.1551   121.6924     0.0000    -999.25    52.0974    98.9308     2.5530     2.3233    -999.25    -999.25    -999.25  1415.6433     2.2248     0.4245    -999.25 19573.9883     0.3233     2.3820     2.5530     6.5178   -68.7148 -1237.1979  1848.9790     1.9570     0.0000
  1415.7958  5888.1938 5888177.0000     8.5000    11.0330    11.0330     2.5311   123.7640   244.9281   123.7640     0.0000    -999.25    52.1987    97.7614     2.5311     2.3015    -999.25    -999.25    -999.25  1415.7958     2.5298     0.4221    -999.25 19318.1641     0.3286     2.3909     2.5311     6.4065   -68.9102 -1237.3049  1847.0027     1.9790     0.0000
  1415.9482  5869.0981 5869077.0000     8.5000    11.0282    11.0282     2.5139   124.3277   252.8150   124.3277     0.0000    -999.25    53.2210    96.3670     2.5139     2.2824    -999.25    -999.25    -999.25  1415.9481     2.5279     0.4143    -999.25 19255.5020     0.3405     2.3940     2.5139     6.3197   -68.8194 -1237.4120  1835.0157     2.0334     0.0000
  1416.1006  5808.8989 5808897.5000     8.5000    11.0455    11.0455     2.5079   125.4324   256.0337   125.4324     0.0000    -999.25    53.5208    91.2740     2.5079     2.2722    -999.25    -999.25    -999.25  1416.1006     2.1764     0.4180    -999.25 19058.0625     0.3421     2.3905     2.5079     6.2896   -68.7086 -1237.5190  1861.9646     2.0412     0.0000
  1416.2530  5845.0942 5845093.5000     8.5000    11.0710    11.0710     2.4759   124.4367   256.2722   124.4367     0.0000    -999.25    52.8239    98.2354     2.4759     2.2458    -999.25    -999.25    -999.25  1416.2529     2.1778     0.4245    -999.25 19176.8164     0.3457     2.3863     2.4759     6.1301   -68.4937 -1237.6261  1847.0197     2.0595     0.0000
  1416.4054  5850.8818 5850873.5000     8.5000    11.0963    11.0963     2.4406   124.0740   253.3499   124.0740     0.0000    -999.25    51.4328    97.3511     2.4406     2.2179    -999.25    -999.25    -999.25  1416.4054     2.3177     0.4298    -999.25 19195.7773     0.3422     2.3817     2.4406     5.9565   -68.1597 -1237.7332  1850.9948     2.0419     0.0000
  1416.5578  5739.1387 5739109.0000     8.5000    11.0985    11.0985     2.4444   126.1020   262.5343   126.1020     0.0000    -999.25    49.6497    99.8709     2.4444     2.2215    -999.25    -999.25    -999.25  1416.5577     2.3118     0.4290    -999.25 18829.0977     0.3501     2.3744     2.4444     5.9751   -67.8896 -1237.8402  1839.0157     2.0819     0.0000
  1416.7102  5628.4800 5628446.5000     8.5000    10.9949    10.9949     2.4444   127.6336   264.9859   127.6336     0.0000    -999.25    49.3881    90.6139     2.4444     2.2211    -999.25    -999.25    -999.25  1416.7102     2.3973     0.4341    -999.25 18466.0332     0.3490     2.3569     2.4444     5.9751   -67.5900 -1237.9473  1827.0157     2.0761     0.0000
  1416.8626  5494.0479 5494049.5000     8.5000    10.7448    10.7448     2.3981   129.1644   282.8460   129.1644     0.0000    -999.25    52.3326    92.9523     2.3981     2.1786    -999.25    -999.25    -999.25  1416.8625     2.4481     0.4484    -999.25 18025.0957     0.3683     2.3282     2.3981     5.7509   -67.5486 -1238.0543  1834.9895     2.1899     0.0000
  1417.0150  5411.9780 5412014.0000     8.5000    10.5530    10.5530     2.3336   129.4955   290.7516   129.4955     0.0000    -999.25    53.2612    94.1158     2.3336     2.1168    -999.25    -999.25    -999.25  1417.0150     1.7563     0.4630    -999.25 17755.9512     0.3763     2.2993     2.3336     5.4457   -67.6802 -1238.1614  1823.0157     2.2452     0.0000
  1417.1674  5340.3096 5340362.0000     8.5000    10.4315    10.4315     2.2470   130.2402   305.4347   130.2402     0.0000    -999.25    53.5474    97.1033     2.2470     2.0340    -999.25    -999.25    -999.25  1417.1674     1.4121     0.4668    -999.25 17520.8730     0.3889     2.2819     2.2470     5.0490   -67.9372 -1238.2684  1835.9829     2.3452     0.0000
  1417.3198  5401.3838 5401438.5000     8.5000    10.4360    10.4360     2.1658   128.7394   304.4905   128.7394     0.0000    -999.25    53.3156    93.9717     2.1658     1.9565    -999.25    -999.25    -999.25  1417.3197     1.5562     0.4675    -999.25 17721.2539     0.3912     2.2814     2.1658     4.6907   -68.2497 -1238.3756  1836.0000     2.3652     0.0000
  1417.4722  5530.7910 5530813.5000     8.5000    10.5963    10.5963     2.1473   126.6585   297.8882   126.6585     0.0000    -999.25    52.3072    91.6160     2.1473     1.9344    -999.25    -999.25    -999.25  1417.4722     1.5995     0.4667    -999.25 18145.7148     0.3897     2.2983     2.1473     4.6109   -68.4931 -1238.4827  1849.9816     2.3519     0.0000
