~Version ---------------------------------------------------
VERS. 2.0 : CWLS log ASCII Standard -VERSION 2.0
WRAP.  NO : 
~Well ------------------------------------------------------
STRT.m                                                 998.5724 : 
STOP.m                                                  1489.91 : 
STEP.m                                                   0.1524 : 
NULL.                                                   -999.25 : 
COMP.                                                           : COMPANY
WELL.                                                    Well-4 : WELL
FLD .                                                           : FIELD
LOC .                                                           : LOCATION
SRVC.                                                           : SERVICE COMPANY
DATE. 2021-01-20 14:34:00   : Log Export Date {yyyy-MM-dd HH:mm : ss}
PROV.                                                           : PROVINCE
UWI .                                                    Well-4 : UNIQUE WELL ID
API .                                                           : API NUMBER
~Curve Information -----------------------------------------
DEPTH             .m        : DEPTH
ACOUSTICIMPEDANCE1.kPa.s/m  : ACOUSTICIMPEDANCE1
AVG_PIGN          .m3/m3    : AVG_PIGN
CALI              .in       : CALI
CALI[DERIVED]1    .in       : CALI[DERIVED]1
DFL               .ohm.m    : DFL
DT                .us/ft    : DT
FACIES            ._        : FACIES
FLD1              ._        : FLD1
GR                .gAPI     : GR
HDRS              .ohm.m    : HDRS
HMRS              .ohm.m    : HMRS
NPHI              .m3/m3    : NPHI
PERF_INT          ._        : PERF_INT
PIGN              .m3/m3    : PIGN
PIGN_MODELLING    .m3/m3    : PIGN_MODELLING
RHOB              .g/cm3    : RHOB
SP                .mV       : SP
SUWI              ._        : SUWI
SUWI_MODELLING    ._        : SUWI_MODELLING
TDVSS             .m        : TDVSS
VCL               .%        : VCL
ZLT               ._        : ZLT
~Params ----------------------------------------------------
~Other -----------------------------------------------------
~ASCII -----------------------------------------------------
# ...
  1159.5068  5151.6284    -999.25     8.6736     8.6736     1.4958   133.0324    -999.25    -999.25    51.6052     1.4309     1.4184     0.5273    -999.25     0.0455     0.0455     2.2485   277.8058     1.0000     1.0000 -1080.8868    65.1000    -999.25
  1159.6592  5304.4683    -999.25     8.6704     8.6704     1.6340   129.5969    -999.25    -999.25    49.4608     1.5446     1.5333     0.5145    -999.25     0.0517     0.0517     2.2554   278.1369     1.0000     1.0000 -1081.0392    60.3500    -999.25
  1159.8116  5455.4814    -999.25     8.6660     8.6660     1.7767   125.9353    -999.25    -999.25    48.0486     1.6338     1.6445     0.5203    -999.25     0.0552     0.0552     2.2541   278.4321     1.0000     1.0000 -1081.1916    57.6480    -999.25
  1159.9640  5596.5757    -999.25     8.6514     8.6514     1.9209   122.2958    -999.25    -999.25    47.2587     1.7434     1.7552     0.5427    -999.25     0.0563     0.0563     2.2455   278.6202     1.0000     1.0000 -1081.3440    56.8470    -999.25
  1160.1164  5662.5757    -999.25     8.6632     8.6632     2.0807   119.9155    -999.25    -999.25    47.1315     1.8653     1.8779     0.5715    -999.25     0.0556     0.0556     2.2278   278.6466     1.0000     1.0000 -1081.4965    57.4000    -999.25
  1160.2688  5622.2896    -999.25     8.7016     8.7016     2.2255   119.6026    -999.25    -999.25    48.0763     1.9272     1.9317     0.5901    -999.25     0.0537     0.0537     2.2062   278.3011     1.0000     1.0000 -1081.6488    58.8050    -999.25
  1160.4212  5461.1138    -999.25     8.7495     8.7495     2.2105   121.8164    -999.25    -999.25    49.2978     1.8225     1.8370     0.5877    -999.25     0.0514     0.0514     2.1826   277.3639     1.0000     1.0000 -1081.8011    60.6040    -999.25
  1160.5736  5262.1904    -999.25     8.7606     8.7606     2.0454   125.3655    -999.25    -999.25    49.8678     1.6450     1.6793     0.5735    -999.25     0.0487     0.0487     2.1644   276.1866     1.0000     1.0000 -1081.9536    62.6340    -999.25
  1160.7260  5083.0708    -999.25     8.7356     8.7356     1.8300   129.1523    -999.25    -999.25    50.2137     1.4994     1.5656     0.5628    -999.25     0.0455     0.0455     2.1538   275.3999     1.0000     1.0000 -1082.1060    65.1300    -999.25
  1160.8784  4948.8618    -999.25     8.7061     8.7061     1.6855   132.4922    -999.25    -999.25    50.5458     1.4210     1.4961     0.5672    -999.25     0.0412     0.0412     2.1512   275.1331     1.0000     1.0000 -1082.2584    68.4260    -999.25
  1161.0308  4882.6069    -999.25     8.6834     8.6834     1.6436   134.6135    -999.25    -999.25    50.5079     1.4368     1.4347     0.5879    -999.25     0.0362     0.0362     2.1564   275.0489     1.0000     1.0000 -1082.4108    72.2370    -999.25
  1161.1832  4871.7954    -999.25     8.6895     8.6895     1.6134   135.3095    -999.25    -999.25    50.4471     1.4258     1.3856     0.6144    -999.25     0.0313     0.0313     2.1627   274.9816     1.0000     1.0000 -1082.5632    75.9790    -999.25
  1161.3356  4843.5107    -999.25     8.7568     8.7568     1.5755   134.8662    -999.25    -999.25    51.2181     1.3525     1.3595     0.6348    -999.25     0.0276     0.0276     2.1431   274.8784     1.0000     1.0000 -1082.7156    78.8140    -999.25
  1161.4880  4802.9556    -999.25     8.8544     8.8544     1.5217   134.3867    -999.25    -999.25    53.3032     1.3125     1.3391     0.6424    -999.25     0.0259     0.0259     2.1176   274.7571     1.0000     1.0000 -1082.8680    80.1480    -999.25
  1161.6404  4766.4521    -999.25     8.8779     8.8779     1.4824   135.1621    -999.25    -999.25    56.3810     1.2818     1.3132     0.6354    -999.25     0.0252     0.0252     2.1137   274.7169     1.0000     1.0000 -1083.0204    80.7080    -999.25
  1161.7928  4715.4717    -999.25     8.8387     8.8387     1.4255   137.8508    -999.25    -999.25    59.2278     1.2361     1.2757     0.6191    -999.25     0.0240     0.0240     2.1326   274.7313     1.0000     1.0000 -1083.1729    81.5800    -999.25
  1161.9452  4648.9448    -999.25     8.8500     8.8500     1.3683   141.6756    -999.25    -999.25    60.5810     1.1861     1.2079     0.6023    -999.25     0.0224     0.0224     2.1609   274.6873     1.0000     1.0000 -1083.3252    82.8250    -999.25
  1162.0976  4612.3809    -999.25     8.9326     8.9326     1.2935   144.4284    -999.25    -999.25    59.7446     1.1427     1.1448     0.5888    -999.25     0.0218     0.0218     2.1856   274.5812     1.0000     1.0000 -1083.4777    83.2760    -999.25
  1162.2500  4635.8237    -999.25     8.9459     8.9459     1.2477   144.5330    -999.25    -999.25    57.3282     1.1597     1.1587     0.5779    -999.25     0.0243     0.0243     2.1983   274.5469     1.0000     1.0000 -1083.6300    81.3890    -999.25
  1162.4024  4727.3237    -999.25     8.8887     8.8887     1.3123   141.8032    -999.25    -999.25    54.4613     1.2570     1.2657     0.5645    -999.25     0.0302     0.0302     2.1993   274.6102     1.0000     1.0000 -1083.7823    76.8300    -999.25
  1162.5548  4873.0166    -999.25     8.8183     8.8183     1.4708   137.6274    -999.25    -999.25    52.1632     1.3638     1.3940     0.5527    -999.25     0.0372     0.0372     2.2003   274.7538     1.0000     1.0000 -1083.9348    71.4890    -999.25
  1162.7072  5034.8940    -999.25     8.7835     8.7835     1.6310   134.1687    -999.25    -999.25    51.7584     1.4174     1.4518     0.5437    -999.25     0.0421     0.0421     2.2163   274.9831     1.0000     1.0000 -1084.0872    67.7090    -999.25
  1162.8596  5149.7344    -999.25     8.7494     8.7494     1.6647   132.4664    -999.25    -999.25    52.4424     1.4187     1.4335     0.5357    -999.25     0.0441     0.0441     2.2381   275.0602     1.0000     1.0000 -1084.2396    66.1910    -999.25
  1163.0120  5211.4175    -999.25     8.7306     8.7306     1.6175   131.6466    -999.25    -999.25    52.8657     1.3778     1.3951     0.5296    -999.25     0.0442     0.0442     2.2509   274.7957     1.0000     1.0000 -1084.3920    66.1060    -999.25
  1163.1644  5270.2231    -999.25     8.7495     8.7495     1.5690   130.1666    -999.25    -999.25    53.7337     1.3498     1.3932     0.5341    -999.25     0.0448     0.0448     2.2507   274.4361     1.0000     1.0000 -1084.5444    65.6240    -999.25
  1163.3168  5298.3643    -999.25     8.7889     8.7889     1.6135   127.8622    -999.25    -999.25    54.6371     1.4516     1.4801     0.5533    -999.25     0.0459     0.0459     2.2226   274.2554     1.0000     1.0000 -1084.6968    64.7990    -999.25
  1163.4692  5268.1860    -999.25     8.8112     8.8112     1.7768   126.1039    -999.25    -999.25    54.6085     1.6307     1.6245     0.5794    -999.25     0.0455     0.0455     2.1796   274.1788     1.0000     1.0000 -1084.8492    65.1180    -999.25
  1163.6216  5183.9575    -999.25     8.8048     8.8048     1.9158   126.5066    -999.25    -999.25    53.9976     1.6355     1.6560     0.6015    -999.25     0.0426     0.0426     2.1516   274.0929     1.0000     1.0000 -1085.0016    67.3450    -999.25
  1163.7740  5051.3472    -999.25     8.8039     8.8039     1.8636   129.1772    -999.25    -999.25    53.1950     1.5063     1.5466     0.6122    -999.25     0.0379     0.0379     2.1408   274.0255     1.0000     1.0000 -1085.1541    70.9240    -999.25
  1163.9264  4929.9014    -999.25     8.8014     8.8014     1.6783   133.0067    -999.25    -999.25    52.7380     1.3939     1.4227     0.6051    -999.25     0.0344     0.0344     2.1513   273.9944     1.0000     1.0000 -1085.3064    73.6210    -999.25
  1164.0788  4898.7021    -999.25     8.7370     8.7370     1.4966   135.9874    -999.25    -999.25    52.4520     1.3248     1.3397     0.5868    -999.25     0.0336     0.0336     2.1856   274.0602     1.0000     1.0000 -1085.4589    74.2140    -999.25
  1164.2312  4956.4844    -999.25     8.6602     8.6602     1.4200   136.6214    -999.25    -999.25    52.1946     1.3199     1.3249     0.5664    -999.25     0.0358     0.0358     2.2217   274.3295     1.0000     1.0000 -1085.6112    72.5600    -999.25
