~Version ---------------------------------------------------
VERS. 2.0 : CWLS log ASCII Standard -VERSION 2.0
WRAP.  NO : 
~Well ------------------------------------------------------
STRT.m                                                1333.6522 : 
STOP.m                                                1778.5078 : 
STEP.m                                                   0.1524 : 
NULL.                                                   -999.25 : 
COMP.                                                           : COMPANY
WELL.                                                   Well-15 : WELL
FLD .                                                           : FIELD
LOC .                                                           : LOCATION
SRVC.                                                           : SERVICE COMPANY
DATE. 2021-01-20 14:34:07   : Log Export Date {yyyy-MM-dd HH:mm : ss}
PROV.                                                           : PROVINCE
UWI .                                                   Well-15 : UNIQUE WELL ID
API .                                                           : API NUMBER
~Curve Information -----------------------------------------
DEPTH             .m        : DEPTH
ACOUSTICIMPEDANCE1.kPa.s/m  : ACOUSTICIMPEDANCE1
AI                .kPa.s/m  : AI
BS                .in       : BS
CALI              .in       : CALI
CALI[DERIVED]1    .in       : CALI[DERIVED]1
DRES              .ohm.m    : DRES
DT                .us/ft    : DT
DT2               .us/ft    : DT2
DT4P              .us/ft    : DT4P
FACIES            ._        : FACIES
FLD1              ._        : FLD1
GR                .gAPI     : GR
GR_EDTC           .gAPI     : GR_EDTC
LLD               .ohm.m    : LLD
LLS               .ohm.m    : LLS
M2R2              .ohm.m    : M2R2
LLS_1             .ohm.m    : LLS_1
LLD_1             .ohm.m    : LLD_1
DEPTH_1           .m        : DEPTH_1
MSFL              .ohm.m    : MSFL
NPHI              .m3/m3    : NPHI
PERF_INT          ._        : PERF_INT
PIMP              .kPa.s/m  : PIMP
PR                ._        : PR
RHOB              .g/cm3    : RHOB
RT_MODELLING      .ohm.m    : RT_MODELLING
RT_POWER          .ohm.m    : RT_POWER
SP                .mV       : SP
TDVSS             .m        : TDVSS
TENS              .t        : TENS
VPVS              ._        : VPVS
ZLT               ._        : ZLT
~Params ----------------------------------------------------
~Other -----------------------------------------------------
~ASCII -----------------------------------------------------
# ...
  1776.3743  5259.0522 5259052.5000     8.5000     9.1463     9.1463     9.9760   134.3738   461.9800   134.3738    -999.25    -999.25    20.7615    19.5049     9.9760     7.7604    -999.25    -999.25    -999.25  1776.3743     4.7760     0.5361    -999.25 17254.1094     0.4538     2.3185     9.9760    99.5206   -92.3750 -1393.4580  2194.9619     3.4380    22.0000
  1776.5266  5259.0522 5259052.5000     8.5000     9.1463     9.1463     9.9760   134.3738   461.9800   134.3738    -999.25    -999.25    20.7615    19.5049     9.9760     7.7604    -999.25    -999.25    -999.25  1776.5266     4.7760     0.5361    -999.25 17254.1094     0.4538     2.3185     9.9760    99.5206   -92.3750 -1393.5167  2253.9226     3.4380    22.0000
  1776.6790  5259.0522 5259052.5000     8.5000     9.1463     9.1463     9.9760   134.3738   461.9800   134.3738    -999.25    -999.25    20.7615    19.5049     9.9760     7.7604    -999.25    -999.25    -999.25  1776.6790     4.7760     0.5361    -999.25 17254.1094     0.4538     2.3185     9.9760    99.5206   -92.3750 -1393.5754  2259.9922     3.4380    22.0000
  1776.8314  5259.0522 5259052.5000     8.5000     9.1463     9.1463     9.9760   134.3738   461.4519   134.3738    -999.25    -999.25    20.7615    19.5049     9.9760     7.7604    -999.25    -999.25    -999.25  1776.8313     4.7760     0.5361    -999.25 17254.1094     0.4537     2.3185     9.9760    99.5206   -92.3750 -1393.6343  2291.9580     3.4341    22.0000
  1776.9838  5259.0522 5259052.5000     8.5000     9.1463     9.1463     9.9760   134.3738   461.9793   134.3738    -999.25    -999.25    20.7615    19.5049     9.9760     7.7604    -999.25    -999.25    -999.25  1776.9838     4.7760     0.5361    -999.25 17254.1094     0.4538     2.3185     9.9760    99.5206   -92.3750 -1393.6931  2304.9829     3.4380    22.0000
  1777.1362  5259.0522 5259052.5000     8.5000     9.1463     9.1463     9.9760   134.3738   461.9800   134.3738    -999.25    -999.25    20.7615    19.5049     9.9760     7.7604    -999.25    -999.25    -999.25  1777.1361     4.7760     0.5361    -999.25 17254.1094     0.4538     2.3185     9.9760    99.5206   -92.3750 -1393.7520  2336.9580     3.4380    22.0000
  1777.2886  5259.0522 5259052.5000     8.5000     9.1463     9.1463     9.9760   134.3738   461.4519   134.3738    -999.25    -999.25    20.7615    19.5049     9.9760     7.7604    -999.25    -999.25    -999.25  1777.2886     4.7760     0.5361    -999.25 17254.1094     0.4537     2.3185     9.9760    99.5206   -92.3750 -1393.8108  2290.0618     3.4341    22.0000
  1777.4410  5259.0522 5259052.5000     8.5000     9.1463     9.1463     9.9760   134.3738   461.9793   134.3738    -999.25    -999.25    20.7614    19.5049     9.9760     7.7604    -999.25    -999.25    -999.25  1777.4409     4.7760     0.5361    -999.25 17254.1094     0.4538     2.3185     9.9760    99.5206   -92.3750 -1393.8695  2274.0210     3.4380    22.0000
  1777.5934  5259.0522 5259052.5000     8.5000     9.1463     9.1463     9.9760   134.3738   461.4519   134.3738    -999.25    -999.25    20.7614    19.5049     9.9760     7.7604    -999.25    -999.25    -999.25  1777.5934     4.7760     0.5361    -999.25 17254.1094     0.4537     2.3185     9.9760    99.5206   -92.3750 -1393.9283  2260.0183     3.4341    22.0000
  1777.7458  5259.0522 5259052.5000     8.5000     9.1463     9.1463     9.9760   134.3738   461.9793   134.3738    -999.25    -999.25    20.7614    19.5049     9.9760     7.7604    -999.25    -999.25    -999.25  1777.7457     4.7760     0.5361    -999.25 17254.1094     0.4538     2.3185     9.9760    99.5206   -92.3750 -1393.9872  2158.1338     3.4380    22.0000
  1777.8982  5259.0522 5259052.5000     8.5000     9.1463     9.1463     9.9760   134.3738   461.4519   134.3738    -999.25    -999.25    20.7614    19.5049     9.9760     7.7604    -999.25    -999.25    -999.25  1777.8982     4.7760     0.5361    -999.25 17254.1094     0.4537     2.3185     9.9760    99.5206   -92.3750 -1394.0460  2174.9778     3.4341    22.0000
  1778.0507  5259.0522 5259052.5000     8.5000     9.1463     9.1463     9.9760   134.3738   461.9797   134.3738    -999.25    -999.25    20.7614    19.5049     9.9760     7.7604    -999.25    -999.25    -999.25  1778.0507     4.7760     0.5361    -999.25 17254.1094     0.4538     2.3185     9.9760    99.5206   -92.3750 -1394.1050  2174.0007     3.4380    22.0000
  1778.2030  5259.0522 5259052.5000     8.5000     9.1463     9.1463     9.9760   134.3738   461.9800   134.3738    -999.25    -999.25    20.7614    19.5049     9.9760     7.7604    -999.25    -999.25    -999.25  1778.2030     4.7760     0.5361    -999.25 17254.1094     0.4538     2.3185     9.9760    99.5206   -92.3750 -1394.1636  2245.9055     3.4380    22.0000
  1778.3555  5259.0522 5259052.5000     8.5000     9.1463     9.1463     9.9760   134.3738   463.0369   134.3738    -999.25    -999.25    20.7614    19.5049     9.9760     7.7604    -999.25    -999.25    -999.25  1778.3555     4.7760     0.5361    -999.25 17254.1094     0.4540     2.3185     9.9760    99.5206   -92.3750 -1394.2225  2271.9829     3.4459    22.0000
  1778.5078  5259.0522    -999.25     8.5000     9.1463     9.1463     9.9760   134.3738   463.0376   134.3738    -999.25    -999.25    20.7614    19.5049     9.9760     7.7604    -999.25    -999.25    -999.25  1778.5078     4.7760     0.5361    -999.25    -999.25     0.4540     2.3185     9.9760    99.5206   -92.3750 -1394.2812  2216.0735     3.4459    22.0000
