~Version ---------------------------------------------------
VERS. 2.0 : CWLS log ASCII Standard -VERSION 2.0
WRAP.  NO : 
~Well ------------------------------------------------------
STRT.m                                                   1250.0 : 
STOP.m                                                1661.9372 : 
STEP.m                                                   0.1524 : 
NULL.                                                   -999.25 : 
COMP.                                                           : COMPANY
WELL.                                                    Well-7 : WELL
FLD .                                                           : FIELD
LOC .                                                           : LOCATION
SRVC.                                                           : SERVICE COMPANY
DATE. 2021-01-20 14:34:01   : Log Export Date {yyyy-MM-dd HH:mm : ss}
PROV.                                                           : PROVINCE
UWI .                                                    Well-7 : UNIQUE WELL ID
API .                                                           : API NUMBER
~Curve Information -----------------------------------------
DEPTH             .m        : DEPTH
ACOUSTICIMPEDANCE1.kPa.s/m  : ACOUSTICIMPEDANCE1
AI                .kPa.s/m  : AI
AVG_PIGN          .m3/m3    : AVG_PIGN
CALI              .in       : CALI
CALI[DERIVED]1    .in       : CALI[DERIVED]1
DEVI              .deg      : DEVI
DFL               .ohm.m    : DFL
DT                .us/ft    : DT
FACIES            ._        : FACIES
FLD1              ._        : FLD1
GR                .gAPI     : GR
HDRS              .ohm.m    : HDRS
HMRS              .ohm.m    : HMRS
DEPTH_1           .m        : DEPTH_1
NPHI              .m3/m3    : NPHI
PEF               .b/e      : PEF
PERF_INT          ._        : PERF_INT
PERMEABILITY      .mD       : PERMEABILITY
PIGN              .m3/m3    : PIGN
PIGN_MODELLING    .m3/m3    : PIGN_MODELLING
PIMP              .kPa.s/m  : PIMP
RHOB              .g/cm3    : RHOB
LLD               .ohm.m    : LLD
RT_MODELLING      .ohm.m    : RT_MODELLING
RT_POWER          .ohm.m    : RT_POWER
SP                .mV       : SP
SUWI              ._        : SUWI
SUWI_MODELLING    ._        : SUWI_MODELLING
SXWI              ._        : SXWI
TDVSS             .m        : TDVSS
VCL               .%        : VCL
WATER_VOL         ._        : WATER_VOL
ZLT               ._        : ZLT
~Params ----------------------------------------------------
~Other -----------------------------------------------------
~ASCII -----------------------------------------------------
# ...
  1605.3968  2548.6777 2559245.7500    -999.25     8.7882     8.7882     2.2850    29.6770   151.2341     3.0000    -999.25    18.8255    14.1009    15.1096  1605.3969     0.8767     0.4788    -999.25     0.0887     0.0001     0.0100  8396.4756     1.2646    17.0253    17.0253   289.8595  -197.9671     1.0000     1.0000     1.0000 -1518.0267     0.0010     0.0001    21.0000
  1605.4208  2528.3062 2528306.2500    -999.25     8.7881     8.7881     2.2014    51.9886   151.3392     3.0000    -999.25    18.2716    14.6272    15.6441  1605.4208     0.8762     0.3984    -999.25     0.0911     0.0001     0.0100  8294.9678     1.2554    18.1321    18.1321   335.3276  -197.9688     1.0000     1.0000     1.0000 -1518.0508     0.0010     0.0001    21.0000
  1605.5492  2420.3438 2429906.5000    -999.25     8.7880     8.7880     2.1379   171.3555   151.8671     3.0000    -999.25    15.3083    17.4431    18.5035  1605.5492     0.8731     0.1800    -999.25     0.1035     0.0001     0.0100  7972.1343     1.2059    24.0537    24.0537   578.5819  -197.9475     1.0000     1.0000     1.0000 -1518.1792     0.0010     0.0001    21.0000
  1605.5732  2411.5142 2411514.0000    -999.25     8.7881     8.7881     2.1260   408.9521   151.9657     3.0000    -999.25    15.1366    18.8093    19.9766  1605.5732     0.8748     0.1392    -999.25     0.1059     0.0001     0.0100  7911.7915     1.2023    26.8992    26.8992   766.8820  -197.9435     1.0000     1.0000     1.0000 -1518.2031     0.0010     0.0001    21.0000
  1605.7016  2365.4893 2370386.5000    -999.25     8.7888     8.7888     2.0505  1680.0936   152.4277     3.0000    -999.25    14.2184    26.1189    27.8579  1605.7015     0.8836     0.0881    -999.25     0.1183     0.0001     0.0100  7776.8584     1.1830    42.1223    42.1223  1774.2875  -197.9296     1.0000     1.0000     1.0000 -1518.3315     0.0010     0.0001    21.0000
  1605.7256  2362.6990 2362699.0000    -999.25     8.7889     8.7889     2.0364  1616.4596   152.5141     3.0000    -999.25    14.2554    28.7836    30.7236  1605.7256     0.8854     0.0785    -999.25     0.1207     0.0001     0.0100  7751.6372     1.1822    57.2832    57.2832  4511.0669  -197.9270     1.0000     1.0000     1.0000 -1518.3556     0.0010     0.0001    21.0000
  1605.8540  2350.7437 2351945.2500    -999.25     8.7890     8.7890     1.9124  1276.0177   152.7861     3.0000    -999.25    14.4536    43.0392    46.0547  1605.8540     0.8954     0.0863    -999.25     0.1331     0.0001     0.0100  7716.3555     1.1783   138.3938   138.3938 19152.8359  -197.9310     1.0000     1.0000     1.0000 -1518.4840     0.0010     0.0001    21.0000
  1605.8781  2349.9268 2349926.7500    -999.25     8.7890     8.7890     1.8891  1211.0848   152.8372     3.0000    -999.25    14.5583    56.1271    59.1659  1605.8781     0.8900     0.0878    -999.25     0.1355     0.0001     0.0100  7709.7334     1.1783   225.8458   225.8458 91720.8672  -197.9317     1.0000     1.0000     1.0000 -1518.5081     0.0010     0.0001    21.0000
  1606.0064  2346.6162 2346989.2500    -999.25     8.7890     8.7890     2.0562   865.4050   153.0419     3.0000    -999.25    15.1158   125.8028   128.9655  1606.0063     0.8612     0.1048    -999.25     0.1479     0.0001     0.0100  7700.0962     1.1782   691.4100   691.4100 478047.7500  -197.9369     1.0000     1.0000     1.0000 -1518.6364     0.0010     0.0001    21.0000
  1606.0304  2346.4399 2346439.7500    -999.25     8.7890     8.7890     2.0874   840.0420   153.0802     3.0000    -999.25    15.1941   240.7523   184.4539  1606.0304     0.8500     0.1080    -999.25     0.1502     0.0001     0.0100  7698.2935     1.1785   954.9174   954.9174 1283350.7500  -197.9379     1.0000     1.0000     1.0000 -1518.6604     0.0010     0.0001    21.0000
  1606.1588  2346.0632 2345825.0000    -999.25     8.7890     8.7890     2.0296   704.3497   153.2482     3.0000    -999.25    15.6130   855.7319   481.3171  1606.1588     0.7899     0.1226    -999.25     0.1627     0.0001     0.0100  7696.2764     1.1796  2364.6821  2364.6821 5591721.5000  -197.9338     1.0000     1.0000     1.0000 -1518.7888     0.0010     0.0001    21.0000
  1606.1829  2345.7097 2345709.7500    -999.25     8.7890     8.7890     2.0188   688.5079   153.2797     3.0000    -999.25    15.6057  1131.0739   488.6486  1606.1829     0.7873     0.1253    -999.25     0.1650     0.0001     0.0100  7695.8979     1.1796  3132.0764  3132.0764 12944970.0000  -197.9330     1.0000     1.0000     1.0000 -1518.8129     0.0010     0.0001    21.0000
  1606.3112  2345.0825 2344982.5000    -999.25     8.7890     8.7890     1.9229   604.1718   153.3655     3.0000    -999.25    15.5666  2596.8984   527.6785  1606.3112     0.7738     0.1270    -999.25     0.1775     0.0001     0.0100  7693.5122     1.1800  7217.4165  7217.4165 52091100.0000  -197.9410     1.0000     1.0000     1.0000 -1518.9412     0.0010     0.0001    21.0000
  1606.3352  2344.8464 2344846.5000    -999.25     8.7890     8.7890     1.9050   593.8091   153.3816     3.0000    -999.25    15.5250  3587.1213   522.9837  1606.3352     0.7756     0.1273    -999.25     0.1798     0.0001     0.0100  7693.0659     1.1800  8505.2891  8505.2891 81213536.0000  -197.9425     1.0000     1.0000     1.0000 -1518.9652     0.0010     0.0001    21.0000
  1606.4636  2344.1863 2344088.5000    -999.25     8.7890     8.7890     1.8718   538.3686   153.4281     3.0000    -999.25    15.3025  8884.8135   497.8662  1606.4636     0.7855     0.1211    -999.25     0.1923     0.0001     0.0100  7690.5791     1.1800 15395.4072 15395.4072 237018560.0000  -197.9507     1.0000     1.0000     1.0000 -1519.0936     0.0010     0.0001    21.0000
  1606.4877  2343.9463 2343946.2500    -999.25     8.7890     8.7890     1.8656   537.9841   153.4368     3.0000    -999.25    15.2294 10393.4482   504.1849  1606.4877     0.7881     0.1199    -999.25     0.1946     0.0001     0.0100  7690.1123     1.1799 16123.5615 16123.5615 262791872.0000  -197.9523     1.0000     1.0000     1.0000 -1519.1177     0.0010     0.0001    21.0000
  1606.6160  2344.1023 2344242.0000    -999.25     8.7890     8.7890     1.8203   535.9371   153.3894     3.0000    -999.25    14.8402 18424.8926   537.8234  1606.6160     0.8016     0.1026    -999.25     0.2071     0.0001     0.0100  7691.0825     1.1797 20000.0000 20000.0000 400000000.0000  -197.9564     1.0000     1.0000     1.0000 -1519.2460     0.0010     0.0001    21.0000
  1606.6400  2344.2974 2344297.2500    -999.25     8.7885     8.7885     1.8118   535.1028   153.3805     3.0000    -999.25    14.7459 18672.9414   557.3639  1606.6400     0.8033     0.0994    -999.25     0.2094     0.0001     0.0100  7691.2642     1.1797 20000.0000 20000.0000 400000000.0000  -197.9572     1.0000     1.0000     1.0000 -1519.2700     0.0010     0.0001    21.0000
  1606.7684  2346.8274 2347458.5000    -999.25     8.7859     8.7859     1.8954   530.6396   153.2359     3.0000    -999.25    14.2413 20000.0000   661.9056  1606.7684     0.8122     0.0884    -999.25     0.2219     0.0001     0.0100  7701.6362     1.1798 20000.0000 20000.0000 400000000.0000  -197.9489     1.0000     1.0000     1.0000 -1519.3984     0.0010     0.0001    21.0000
  1606.7924  2348.0496 2348049.5000    -999.25     8.7844     8.7844     1.9110   522.3372   153.2089     3.0000    -999.25    14.2000 20000.0000   661.6927  1606.7924     0.8218     0.0864    -999.25     0.2242     0.0001     0.0100  7703.5747     1.1803 19862.0098 19862.0098 394601312.0000  -197.9474     1.0000     1.0000     1.0000 -1519.4224     0.0010     0.0001    21.0000
  1606.9208  2354.2722 2354405.2500    -999.25     8.7766     8.7766     2.0455   477.9194   153.0854     3.0000    -999.25    13.9787 20000.0000   660.5532  1606.9208     0.8734     0.0984    -999.25     0.2366     0.0001     0.0100  7724.4268     1.1824 19123.7617 19123.7617 365718272.0000  -197.9412     1.0000     1.0000     1.0000 -1519.5508     0.0010     0.0001    21.0000
  1606.9448  2355.5933 2355593.2500    -999.25     8.7764     8.7764     2.0706   468.9286   153.0623     3.0000    -999.25    14.0080 20000.0000   648.3411  1606.9448     0.8704     0.1006    -999.25     0.2390     0.0001     0.0100  7728.3242     1.1829 17721.5781 17721.5781 324573056.0000  -197.9400     1.0000     1.0000     1.0000 -1519.5748     0.0010     0.0001    21.0000
