~Version ---------------------------------------------------
VERS. 2.0 : CWLS log ASCII Standard -VERSION 2.0
WRAP.  NO : 
~Well ------------------------------------------------------
STRT.m                                                 998.5724 : 
STOP.m                                                  1489.91 : 
STEP.m                                                   0.1524 : 
NULL.                                                   -999.25 : 
COMP.                                                           : COMPANY
WELL.                                                    Well-4 : WELL
FLD .                                                           : FIELD
LOC .                                                           : LOCATION
SRVC.                                                           : SERVICE COMPANY
DATE. 2021-01-20 14:34:00   : Log Export Date {yyyy-MM-dd HH:mm : ss}
PROV.                                                           : PROVINCE
UWI .                                                    Well-4 : UNIQUE WELL ID
API .                                                           : API NUMBER
~Curve Information -----------------------------------------
DEPTH             .m        : DEPTH
ACOUSTICIMPEDANCE1.kPa.s/m  : ACOUSTICIMPEDANCE1
AVG_PIGN          .m3/m3    : AVG_PIGN
CALI              .in       : CALI
CALI[DERIVED]1    .in       : CALI[DERIVED]1
DFL               .ohm.m    : DFL
DT                .us/ft    : DT
FACIES            ._        : FACIES
FLD1              ._        : FLD1
GR                .gAPI     : GR
HDRS              .ohm.m    : HDRS
HMRS              .ohm.m    : HMRS
NPHI              .m3/m3    : NPHI
PERF_INT          ._        : PERF_INT
PIGN              .m3/m3    : PIGN
PIGN_MODELLING    .m3/m3    : PIGN_MODELLING
RHOB              .g/cm3    : RHOB
SP                .mV       : SP
SUWI              ._        : SUWI
SUWI_MODELLING    ._        : SUWI_MODELLING
TDVSS             .m        : TDVSS
VCL               .%        : VCL
ZLT               ._        : ZLT
~Params ----------------------------------------------------
~Other -----------------------------------------------------
~ASCII -----------------------------------------------------
# ...
  1422.8540  6777.4219    -999.25     8.8572     8.8572     2.4927   112.5504     0.0000     0.0000    64.2010     1.7796     1.8688     0.5172    -999.25     0.0295     0.0295     2.5026   309.9868     1.0000     1.0000 -1344.2340    65.6150     8.0000
  1423.0064  7063.3940    -999.25     8.8908     8.8908     2.1277   112.6959     0.0000     0.0000    62.2078     1.8278     1.9240     0.4801    -999.25     0.0218     0.0218     2.6116   310.1266     1.0000     1.0000 -1344.3864    65.2470     8.0000
  1423.1588  7750.1616    -999.25     8.9547     8.9547     2.5988   106.3966     0.0000     0.0000    58.3679     2.5518     2.7178     0.4544    -999.25     0.0259     0.0259     2.7054   310.7077     1.0000     1.0000 -1344.5388    57.3680     8.0000
  1423.3112  8283.5547    -999.25     8.9769     8.9769     4.8592    98.3548     0.0000     0.0000    56.3694     4.4353     4.4595     0.4569    -999.25     0.0437     0.0437     2.6730   312.1054     1.0000     1.0000 -1344.6912    45.6640     8.0000
  1423.4636  8268.7178    -999.25     8.8583     8.8583     7.3313    94.7246     0.0000     0.0000    57.8137     4.5041     4.4781     0.4832    -999.25     0.0578     0.0578     2.5697   313.7286     1.0000     1.0000 -1344.8436    41.3430     8.0000
  1423.6160  7625.8574    -999.25     8.6790     8.6790     5.5805    98.5435     0.0000     0.0000    62.4775     2.7974     2.8786     0.5164    -999.25     0.0558     0.0558     2.4655   314.9235     1.0000     1.0000 -1344.9960    48.9550     8.0000
  1423.7684  6881.2393    -999.25     8.6244     8.6244     2.9667   106.2130     0.0000     0.0000    68.1203     1.8290     1.8867     0.5422    -999.25     0.0456     0.0456     2.3979   315.1468     1.0000     1.0000 -1345.1484    60.3030     8.0000
  1423.9208  6484.3579    -999.25     8.6854     8.6854     2.0493   112.6659     0.0000     0.0000    72.1345     1.6793     1.7174     0.5504    -999.25     0.0360     0.0360     2.3969   314.1746     1.0000     1.0000 -1345.3008    67.9060     8.0000
  1424.0732  6441.0303    -999.25     8.7279     8.7279     2.0330   115.3076     0.0000     0.0000    73.4497     1.7994     1.8423     0.5478    -999.25     0.0280     0.0280     2.4367   312.7546     1.0000     1.0000 -1345.4532    71.3610     8.0000
  1424.2256  6653.5996    -999.25     8.7468     8.7468     2.3146   114.5996     0.0000     0.0000    72.5026     1.9145     1.9683     0.5406    -999.25     0.0209     0.0209     2.5016   311.3333     1.0000     1.0000 -1345.6056    72.7740     8.0000
  1424.3780  6868.0757    -999.25     8.7664     8.7664     2.5602   113.6304     0.0000     0.0000    70.2074     1.9499     2.0064     0.5335    -999.25     0.0154     0.0154     2.5604   310.2404     1.0000     1.0000 -1345.7581    73.4110     8.0000
  1424.5304  6925.8955    -999.25     8.7720     8.7720     2.9021   113.5232     0.0000     0.0000    67.5538     2.0755     2.1445     0.5325    -999.25     0.0145     0.0145     2.5796   309.6026     1.0000     1.0000 -1345.9104    72.7170     8.0000
  1424.6828  6994.3428    -999.25     8.7604     8.7604     3.3785   111.8719     0.0000     0.0000    66.3039     2.3271     2.3975     0.5378    -999.25     0.0196     0.0196     2.5672   309.1205     1.0000     1.0000 -1346.0629    70.0130     8.0000
  1424.8352  7072.0669    -999.25     8.7401     8.7401     3.7160   108.2267     0.0000     0.0000    67.3568     2.3015     2.3776     0.5454    -999.25     0.0293     0.0293     2.5111   308.6474     1.0000     1.0000 -1346.2152    66.0450     8.0000
  1424.9876  6961.8091    -999.25     8.7091     8.7091     3.2401   106.8020     0.0000     0.0000    70.1564     2.0576     2.1386     0.5399    -999.25     0.0399     0.0399     2.4394   307.5634     1.0000     1.0000 -1346.3676    62.2080     8.0000
  1425.1400  6693.4277    -999.25     8.6733     8.6733     2.6515   109.4132     0.0000     0.0000    73.6722     1.9734     2.0476     0.5144    -999.25     0.0470     0.0470     2.4027   305.4017     1.0000     1.0000 -1346.5200    59.4550     8.0000
  1425.2924  6530.5742    -999.25     8.6452     8.6452     2.4021   112.3577     0.0000     0.0000    75.8877     2.1208     2.1999     0.4741    -999.25     0.0492     0.0492     2.4074   302.7662     1.0000     1.0000 -1346.6724    58.0690     8.0000
  1425.4448  6601.7520    -999.25     8.6316     8.6316     2.6408   112.5171     0.0000     0.0000    74.6804     2.3844     2.4806     0.4344    -999.25     0.0505     0.0505     2.4370   300.6129     1.0000     1.0000 -1346.8248    56.1700     8.0000
  1425.5972  6766.8169    -999.25     8.6645     8.6645     3.1219   110.3553     0.0000     0.0000    70.8282     2.7337     2.8832     0.4087    -999.25     0.0565     0.0565     2.4500   300.0202     1.0000     1.0000 -1346.9772    51.0470     8.0000
  1425.7496  6916.4731    -999.25     8.7179     8.7179     4.0131   107.9313     0.0000     0.0000    67.1057     3.3847     3.6149     0.4020    -999.25     0.0662     0.0662     2.4492   301.1851     1.0000     1.0000 -1347.1296    43.8090     8.0000
  1425.9020  6984.4385    -999.25     8.7506     8.7506     5.4676   107.0425     0.0000     0.0000    64.0387     3.9558     4.1042     0.4118    -999.25     0.0724     0.0724     2.4529   303.0350     1.0000     1.0000 -1347.2820    39.1710     8.0000
  1426.0544  6878.5674    -999.25     8.7564     8.7564     5.7945   108.0267     0.0000     0.0000    61.7912     3.3790     3.5189     0.4283    -999.25     0.0707     0.0707     2.4379   304.4608     1.0000     1.0000 -1347.4344    40.8040     8.0000
  1426.2068  6704.2217    -999.25     8.7516     8.7516     4.3811   110.2518     0.0000     0.0000    62.2821     2.6006     2.7592     0.4437    -999.25     0.0627     0.0627     2.4250   305.0020     1.0000     1.0000 -1347.5868    47.0260     8.0000
  1426.3592  6620.7725    -999.25     8.7468     8.7468     3.2171   112.6496     0.0000     0.0000    64.3157     2.2861     2.4032     0.4542    -999.25     0.0523     0.0523     2.4469   305.1494     1.0000     1.0000 -1347.7393    53.3640     8.0000
  1426.5116  6672.1572    -999.25     8.7203     8.7203     2.9056   113.9684     0.0000     0.0000    64.8879     2.2184     2.3148     0.4614    -999.25     0.0423     0.0423     2.4948   305.9314     1.0000     1.0000 -1347.8916    57.6930     8.0000
  1426.6640  6826.5293    -999.25     8.6959     8.6959     2.9435   113.9067     0.0000     0.0000    63.7542     2.2056     2.3027     0.4678    -999.25     0.0343     0.0343     2.5511   307.2877     1.0000     1.0000 -1348.0441    60.1220     8.0000
  1426.8164  7000.0181    -999.25     8.7022     8.7022     2.9510   112.7448     0.0000     0.0000    60.9392     2.2673     2.3702     0.4785    -999.25     0.0304     0.0304     2.5893   308.4314     1.0000     1.0000 -1348.1964    60.8130     8.0000
  1426.9688  7045.3120    -999.25     8.7036     8.7036     2.9614   111.3775     0.0000     0.0000    57.3495     2.4800     2.5571     0.4942    -999.25     0.0344     0.0344     2.5744   309.0712     1.0000     1.0000 -1348.3488    58.9900     8.0000
  1427.1212  6852.4888    -999.25     8.6907     8.6907     3.3794   111.0163     0.0000     0.0000    56.1874     2.9557     2.9235     0.5110    -999.25     0.0466     0.0466     2.4959   308.9064     1.0000     1.0000 -1348.5012    54.6600     8.0000
  1427.2736  6524.7588    -999.25     8.6728     8.6728     4.0675   112.0795     0.0000     0.0000    58.6047     3.0886     3.0081     0.5174    -999.25     0.0591     0.0591     2.3993   308.0349     1.0000     1.0000 -1348.6536    51.0290     8.0000
  1427.4260  6125.5947    -999.25     8.6702     8.6702     3.8881   114.6454     0.0000     0.0000    63.5839     2.5913     2.5966     0.4967    -999.25     0.0624     0.0624     2.3040   306.4401     1.0000     1.0000 -1348.8060    51.6700     8.0000
  1427.5784  5779.9316    -999.25     8.6708     8.6708     3.4609   118.1214     0.0000     0.0000    68.9082     2.4058     2.4574     0.4551    -999.25     0.0584     0.0584     2.2399   304.3808     1.0000     1.0000 -1348.9584    55.2440     8.0000
