~Version ---------------------------------------------------
VERS. 2.0 : CWLS log ASCII Standard -VERSION 2.0
WRAP.  NO : 
~Well ------------------------------------------------------
STRT.m                                                   1250.0 : 
STOP.m                                                1661.9372 : 
STEP.m                                                   0.1524 : 
NULL.                                                   -999.25 : 
COMP.                                                           : COMPANY
WELL.                                                    Well-7 : WELL
FLD .                                                           : FIELD
LOC .                                                           : LOCATION
SRVC.                                                           : SERVICE COMPANY
DATE. 2021-01-20 14:34:01   : Log Export Date {yyyy-MM-dd HH:mm : ss}
PROV.                                                           : PROVINCE
UWI .                                                    Well-7 : UNIQUE WELL ID
API .                                                           : API NUMBER
~Curve Information -----------------------------------------
DEPTH             .m        : DEPTH
ACOUSTICIMPEDANCE1.kPa.s/m  : ACOUSTICIMPEDANCE1
AI                .kPa.s/m  : AI
AVG_PIGN          .m3/m3    : AVG_PIGN
CALI              .in       : CALI
CALI[DERIVED]1    .in       : CALI[DERIVED]1
DEVI              .deg      : DEVI
DFL               .ohm.m    : DFL
DT                .us/ft    : DT
FACIES            ._        : FACIES
FLD1              ._        : FLD1
GR                .gAPI     : GR
HDRS              .ohm.m    : HDRS
HMRS              .ohm.m    : HMRS
DEPTH_1           .m        : DEPTH_1
NPHI              .m3/m3    : NPHI
PEF               .b/e      : PEF
PERF_INT          ._        : PERF_INT
PERMEABILITY      .mD       : PERMEABILITY
PIGN              .m3/m3    : PIGN
PIGN_MODELLING    .m3/m3    : PIGN_MODELLING
PIMP              .kPa.s/m  : PIMP
RHOB              .g/cm3    : RHOB
LLD               .ohm.m    : LLD
RT_MODELLING      .ohm.m    : RT_MODELLING
RT_POWER          .ohm.m    : RT_POWER
SP                .mV       : SP
SUWI              ._        : SUWI
SUWI_MODELLING    ._        : SUWI_MODELLING
SXWI              ._        : SXWI
TDVSS             .m        : TDVSS
VCL               .%        : VCL
WATER_VOL         ._        : WATER_VOL
ZLT               ._        : ZLT
~Params ----------------------------------------------------
~Other -----------------------------------------------------
~ASCII -----------------------------------------------------
# ...
  1358.9660  6157.6216 6159646.0000    -999.25     9.1962     9.1962     0.4779     2.3884   120.2331     0.0000    -999.25    72.7678     1.7693     1.7816  1358.9659     0.5183     5.7898    -999.25    -999.25     0.0362     0.0362 20208.8125     2.4290     1.7207     1.7207     2.9608  -197.9564     1.0000     1.0000     1.0000 -1271.5959    72.2310     0.0362     0.0000
  1358.9900  6146.9219 6146922.0000    -999.25     9.1847     9.1847     0.4768     2.3679   120.4456     0.0000    -999.25    72.9107     1.7586     1.7676  1358.9900     0.5163     5.7829    -999.25    -999.25     0.0366     0.0366 20167.0664     2.4290     1.7078     1.7078     2.9174  -197.9593     1.0000     1.0000     1.0000 -1271.6200    71.9242     0.0366     0.0000
  1359.1184  6109.2798 6108554.0000    -999.25     9.1233     9.1233     0.4782     2.2577   121.2050     0.0000    -999.25    73.6750     1.7015     1.6922  1359.1184     0.5058     5.7418    -999.25    -999.25     0.0388     0.0388 20041.1875     2.4294     1.6387     1.6387     2.6855  -197.9553     1.0000     1.0000     1.0000 -1271.7484    70.2830     0.0388     0.0000
  1359.1425  6101.3525 6101352.5000    -999.25     9.1185     9.1185     0.4785     2.2236   121.3475     0.0000    -999.25    73.8216     1.6876     1.6790  1359.1425     0.5025     5.7341    -999.25    -999.25     0.0391     0.0391 20017.5605     2.4291     1.6286     1.6286     2.6529  -197.9545     1.0000     1.0000     1.0000 -1271.7725    70.0289     0.0391     0.0000
  1359.2708  6088.6406 6089927.5000    -999.25     9.0928     9.0928     0.4900     2.0418   121.5212     0.0000    -999.25    74.6015     1.6139     1.6083  1359.2708     0.4849     5.6980    -999.25    -999.25     0.0409     0.0409 19980.0781     2.4275     1.5747     1.5747     2.4796  -197.9426     1.0000     1.0000     1.0000 -1271.9008    68.6760     0.0409     0.0000
  1359.2948  6087.7905 6087790.5000    -999.25     9.0929     9.0929     0.4922     2.0080   121.5537     0.0000    -999.25    74.6820     1.6056     1.6024  1359.2948     0.4826     5.6912    -999.25    -999.25     0.0407     0.0407 19973.0664     2.4278     1.5708     1.5708     2.4675  -197.9404     1.0000     1.0000     1.0000 -1271.9248    68.7713     0.0407     0.0000
  1359.4232  6101.3394 6100858.5000    -999.25     9.0934     9.0934     0.5156     1.8267   121.3667     0.0000    -999.25    75.1125     1.5611     1.5708  1359.4232     0.4704     5.6843    -999.25    -999.25     0.0401     0.0401 20015.9395     2.4295     1.5503     1.5503     2.4033  -197.9460     1.0000     1.0000     1.0000 -1272.0532    69.2810     0.0401     0.0000
  1359.4473  6103.3110 6103311.0000    -999.25     9.0939     9.0939     0.5200     1.8179   121.3316     0.0000    -999.25    75.0570     1.5589     1.5702  1359.4473     0.4724     5.6830    -999.25    -999.25     0.0398     0.0398 20023.9863     2.4295     1.5508     1.5508     2.4051  -197.9470     1.0000     1.0000     1.0000 -1272.0773    69.4548     0.0398     0.0000
  1359.5756  6112.7847 6112199.5000    -999.25     9.0965     9.0965     0.5523     1.7711   121.1654     0.0000    -999.25    74.7614     1.5472     1.5669  1359.5756     0.4832     5.6838    -999.25    -999.25     0.0386     0.0386 20053.1465     2.4300     1.5538     1.5538     2.4144  -197.9580     1.0000     1.0000     1.0000 -1272.2056    70.3800     0.0386     0.0000
  1359.5996  6113.8618 6113862.0000    -999.25     9.0974     9.0974     0.5584     1.7792   121.1343     0.0000    -999.25    74.5758     1.5487     1.5678  1359.5996     0.4840     5.6840    -999.25    -999.25     0.0388     0.0388 20058.6016     2.4298     1.5564     1.5564     2.4225  -197.9600     1.0000     1.0000     1.0000 -1272.2296    70.2154     0.0388     0.0000
  1359.7280  6110.0303 6110448.0000    -999.25     9.1022     9.1022     0.5653     1.8221   121.1581     0.0000    -999.25    73.5829     1.5567     1.5726  1359.7280     0.4879     5.6758    -999.25    -999.25     0.0400     0.0400 20047.4004     2.4287     1.5704     1.5704     2.4662  -197.9741     1.0000     1.0000     1.0000 -1272.3580    69.3350     0.0400     0.0000
  1359.7520  6109.8096 6109810.0000    -999.25     9.1030     9.1030     0.5666     1.8223   121.1626     0.0000    -999.25    73.4438     1.5597     1.5736  1359.7520     0.4863     5.6743    -999.25    -999.25     0.0404     0.0404 20045.3066     2.4287     1.5735     1.5735     2.4759  -197.9767     1.0000     1.0000     1.0000 -1272.3820    69.0660     0.0404     0.0000
  1359.8804  6105.4497 6102992.5000    -999.25     9.1071     9.1071     0.6610     1.8232   121.2495     0.0000    -999.25    72.6994     1.5755     1.5794  1359.8804     0.4774     5.6580    -999.25    -999.25     0.0422     0.0422 20022.9395     2.4288     1.5900     1.5900     2.5282  -197.9851     1.0000     1.0000     1.0000 -1272.5104    67.6270     0.0422     0.0000
  1359.9044  6101.7178 6101718.0000    -999.25     9.1214     9.1214     0.6786     1.8203   121.2658     0.0000    -999.25    72.6443     1.5786     1.5819  1359.9044     0.4758     5.6549    -999.25    -999.25     0.0423     0.0423 20018.7598     2.4276     1.5927     1.5927     2.5367  -197.9867     1.0000     1.0000     1.0000 -1272.5344    67.6001     0.0423     0.0000
  1360.0328  6095.3252 6094615.0000    -999.25     9.1981     9.1981     0.5445     1.8046   121.0829     0.0000    -999.25    72.3498     1.5953     1.5952  1360.0328     0.4673     5.6251    -999.25    -999.25     0.0424     0.0424 19995.4551     2.4214     1.6069     1.6069     2.5822  -197.9810     1.0000     1.0000     1.0000 -1272.6628    67.4560     0.0424     0.0000
  1360.0568  6093.2876 6093287.5000    -999.25     9.2048     9.2048     0.5194     1.8087   121.0487     0.0000    -999.25    72.1753     1.5978     1.5985  1360.0568     0.4685     5.6195    -999.25    -999.25     0.0423     0.0423 19991.0996     2.4199     1.6085     1.6085     2.5874  -197.9800     1.0000     1.0000     1.0000 -1272.6868    67.6094     0.0423     0.0000
  1360.1852  6098.2788 6097564.0000    -999.25     9.2406     9.2406     0.5341     1.8307   120.5504     0.0000    -999.25    71.2418     1.6112     1.6158  1360.1852     0.4749     5.6053    -999.25    -999.25     0.0413     0.0413 20005.1309     2.4119     1.6172     1.6172     2.6155  -197.9875     1.0000     1.0000     1.0000 -1272.8152    68.4300     0.0413     0.0000
  1360.2092  6098.3633 6098363.5000    -999.25     9.2367     9.2367     0.5368     1.8408   120.4573     0.0000    -999.25    70.9354     1.6125     1.6182  1360.2092     0.4765     5.6027    -999.25    -999.25     0.0416     0.0416 20007.7539     2.4101     1.6179     1.6179     2.6175  -197.9889     1.0000     1.0000     1.0000 -1272.8392    68.4064     0.0416     0.0000
  1360.3376  6086.3369 6085780.5000    -999.25     9.2156     9.2156     0.4992     1.8950   120.2050     0.0000    -999.25    69.2962     1.6192     1.6314  1360.3376     0.4853     5.6174    -999.25    -999.25     0.0433     0.0433 19966.4707     2.4003     1.6212     1.6212     2.6284  -198.0109     1.0000     1.0000     1.0000 -1272.9677    68.2800     0.0433     0.0000
  1360.3616  6083.4282 6083428.5000    -999.25     9.2161     9.2161     0.4922     1.9016   120.1579     0.0000    -999.25    68.9791     1.6196     1.6322  1360.3616     0.4857     5.6201    -999.25    -999.25     0.0445     0.0445 19958.7539     2.3982     1.6215     1.6215     2.6294  -198.0150     1.0000     1.0000     1.0000 -1272.9916    67.9524     0.0445     0.0000
  1360.4900  6032.6025 6032725.0000    -999.25     9.2191     9.2191     0.5180     1.9368   120.6058     0.0000    -999.25    67.2827     1.6217     1.6362  1360.4900     0.4881     5.6613    -999.25    -999.25     0.0505     0.0505 19792.4043     2.3870     1.6231     1.6231     2.6346  -198.0302     1.0000     1.0000     1.0000 -1273.1200    66.2000     0.0505     0.0000
  1360.5140  6023.2476 6023247.5000    -999.25     9.2223     9.2223     0.5228     1.9444   120.6895     0.0000    -999.25    67.0418     1.6219     1.6357  1360.5140     0.4867     5.6690    -999.25    -999.25     0.0519     0.0519 19761.3105     2.3850     1.6241     1.6241     2.6377  -198.0330     1.0000     1.0000     1.0000 -1273.1440    65.7591     0.0519     0.0000
