~Version ---------------------------------------------------
VERS. 2.0 : CWLS log ASCII Standard -VERSION 2.0
WRAP.  NO : 
~Well ------------------------------------------------------
STRT.m                                                   1300.0 : 
STOP.m                                                 1514.884 : 
STEP.m                                                   0.1524 : 
NULL.                                                   -999.25 : 
COMP.                                                           : COMPANY
WELL.                                                    Well-2 : WELL
FLD .                                                           : FIELD
LOC .                                                           : LOCATION
SRVC.                                                           : SERVICE COMPANY
DATE. 2021-01-20 14:33:59   : Log Export Date {yyyy-MM-dd HH:mm : ss}
PROV.                                                           : PROVINCE
UWI .                                                    Well-2 : UNIQUE WELL ID
API .                                                           : API NUMBER
~Curve Information -----------------------------------------
DEPTH             .m        : DEPTH
ACOUSTICIMPEDANCE1.kPa.s/m  : ACOUSTICIMPEDANCE1
AI                .kPa.s/m  : AI
AVG_PIGN          .m3/m3    : AVG_PIGN
CALI              .in       : CALI
CALI[DERIVED]1    .in       : CALI[DERIVED]1
DT                .us/ft    : DT
FACIES            ._        : FACIES
FLD1              ._        : FLD1
GR                .gAPI     : GR
LLD               .ohm.m    : LLD
LLS               .ohm.m    : LLS
LL3               .ohm.m    : LL3
DEPTH_1           .m        : DEPTH_1
NPHI              .m3/m3    : NPHI
PERF_INT          ._        : PERF_INT
PERMEABILITY      .mD       : PERMEABILITY
PIGN              .m3/m3    : PIGN
PIGN_MODELLING    .m3/m3    : PIGN_MODELLING
PIMP              .kPa.s/m  : PIMP
RHOB              .g/cm3    : RHOB
RT_MODELLING      .ohm.m    : RT_MODELLING
RT_POWER          .ohm.m    : RT_POWER
SP                .mV       : SP
SUWI              ._        : SUWI
SUWI_MODELLING    ._        : SUWI_MODELLING
TDVSS             .m        : TDVSS
VCL               .%        : VCL
WATER_VOL         ._        : WATER_VOL
ZLT               ._        : ZLT
~Params ----------------------------------------------------
~Other -----------------------------------------------------
~ASCII -----------------------------------------------------
# ...
  1456.2100  5940.7412 5943245.0000    -999.25     9.3732     9.3732   112.0914     4.0000    -999.25    65.8293     2.2004     2.3439     2.8375  1456.2100     0.3951    -999.25     0.0167     0.1861     0.1861 19498.8340     2.1847     2.2004     4.8415    24.8980     0.9851     0.9851 -1380.2100    33.5240     0.1833    12.0000
  1456.3345  5906.6768 5906676.5000    -999.25     9.3647     9.3647   112.2530     4.0000    -999.25    60.8948     2.1658     2.3017     2.8299  1456.3345     0.3992    -999.25     0.0524     0.1907     0.1907 19378.8594     2.1753     2.1658     4.6908    24.7278     0.9940     0.9940 -1380.3345    32.3329     0.1895    12.0000
  1456.3624  5902.1157 5903717.5000    -999.25     9.3628     9.3628   112.2310     4.0000    -999.25    59.7890     2.1580     2.2923     2.8282  1456.3623     0.4001    -999.25     0.0604     0.1917     0.1917 19369.1504     2.1732     2.1580     4.6571    24.6897     0.9959     0.9959 -1380.3623    32.0660     0.1909    12.0000
  1456.4868  5890.5229 5890523.0000    -999.25     9.3561     9.3561   112.1330     4.0000    -999.25    58.2028     2.1372     2.2619     2.8240  1456.4868     0.3965    -999.25     0.2430     0.1974     0.1974 19325.8633     2.1671     2.1372     4.5677    24.6298     0.9993     0.9993 -1380.4868    30.6938     0.1973    12.0000
  1456.5148  5886.8877 5888730.0000    -999.25     9.3546     9.3546   112.1304     4.0000    -999.25    57.8458     2.1325     2.2550     2.8230  1456.5148     0.3957    -999.25     0.2841     0.1987     0.1987 19319.9805     2.1657     2.1325     4.5476    24.6164     1.0000     1.0000 -1380.5148    30.3850     0.1987    12.0000
  1456.6392  5880.7642 5880764.0000    -999.25     9.3521     9.3521   112.1190     4.0000    -999.25    58.9102     2.1291     2.2378     2.8056  1456.6392     0.3856    -999.25     0.4973     0.2045     0.2045 19293.8457     2.1632     2.1291     4.5330    24.6815     1.0000     1.0000 -1380.6392    28.9329     0.2045    12.0000
  1456.6672  5877.9214 5881137.0000    -999.25     9.3515     9.3515   112.1443     4.0000    -999.25    59.1498     2.1283     2.2339     2.8017  1456.6671     0.3834    -999.25     0.5453     0.2058     0.2058 19295.0703     2.1626     2.1283     4.5297    24.6962     1.0000     1.0000 -1380.6671    28.6060     0.2058    12.0000
  1456.7916  5882.7949 5882794.5000    -999.25     9.3485     9.3485   112.2570     4.0000    -999.25    62.0639     2.1427     2.2329     2.7921  1456.7916     0.3705    -999.25     0.5899     0.2088     0.2088 19300.5078     2.1666     2.1427     4.5910    24.9211     1.0000     1.0000 -1380.7916    27.5457     0.2088    12.0000
  1456.8196  5885.2480 5889393.0000    -999.25     9.3478     9.3478   112.2565     4.0000    -999.25    62.7198     2.1459     2.2327     2.7900  1456.8196     0.3676    -999.25     0.6000     0.2095     0.2095 19322.1562     2.1675     2.1459     4.6048    24.9717     1.0000     1.0000 -1380.8196    27.3070     0.2095    12.0000
  1456.9440  5918.7104 5918710.5000    -999.25     9.3436     9.3436   112.2540     4.0000    -999.25    66.8520     2.1745     2.2509     2.8026  1456.9440     0.3573    -999.25     0.3895     0.2199     0.2199 19418.3418     2.1798     2.1745     4.7286    25.3544     0.9992     0.9992 -1380.9440    24.1341     0.2197    12.0000
  1456.9720  5930.8931 5934493.5000    -999.25     9.3427     9.3427   112.1654     4.0000    -999.25    67.7821     2.1809     2.2550     2.8055  1456.9719     0.3549    -999.25     0.3421     0.2222     0.2222 19470.1230     2.1825     2.1809     4.7564    25.4405     0.9990     0.9990 -1380.9719    23.4200     0.2220    12.0000
  1457.0964  6004.6147 6004614.5000    -999.25     9.3436     9.3436   111.7720     4.0000    -999.25    72.0995     2.2183     2.2916     2.8440  1457.0964     0.3530    -999.25     0.0629     0.2632     0.2632 19700.1797     2.2019     2.2183     4.9213    26.0131     0.9957     0.9957 -1381.0964    12.9717     0.2621    12.0000
  1457.1244  6025.9487 6028173.0000    -999.25     9.3438     9.3438   111.5969     4.0000    -999.25    73.0713     2.2267     2.2998     2.8526  1457.1244     0.3525    -999.25     0.0000     0.2724     0.2724 19777.4707     2.2063     2.2267     4.9584    26.1419     0.9950     0.9950 -1381.1244    10.6200     0.2711    12.0000
  1457.2488  6132.8398 6132840.0000    -999.25     9.3494     9.3494   110.8190     4.0000    -999.25    76.4938     2.2684     2.3493     2.9140  1457.2488     0.3612    -999.25     0.7846     0.2535     0.2535 20120.8652     2.2298     2.2684     5.1461    26.9716     0.9882     0.9882 -1381.2488    15.0262     0.2506    12.0000
  1457.2768  6155.8999 6156916.0000    -999.25     9.3507     9.3507   110.6656     4.0000    -999.25    77.2641     2.2778     2.3604     2.9278  1457.2767     0.3632    -999.25     0.9611     0.2493     0.2493 20199.8555     2.2351     2.2778     5.1883    27.1583     0.9867     0.9867 -1381.2767    16.0180     0.2460    12.0000
  1457.4012  6263.8813 6263881.5000    -999.25     9.3595     9.3595   109.9840     4.0000    -999.25    79.0936     2.3221     2.4154     2.9842  1457.4012     0.3811    -999.25     2.7630     0.2291     0.2291 20550.7930     2.2603     2.3221     5.3926    28.2538     0.9629     0.9629 -1381.4012    21.9335     0.2207    12.0000
  1457.4292  6281.8867 6282711.5000    -999.25     9.3615     9.3615   109.9439     4.0000    -999.25    79.5054     2.3321     2.4278     2.9969  1457.4292     0.3852    -999.25     3.1686     0.2245     0.2245 20612.5723     2.2659     2.3321     5.4386    28.5003     0.9576     0.9576 -1381.4292    23.2650     0.2150    12.0000
  1457.5536  6366.3711 6366371.0000    -999.25     9.3767     9.3767   109.7660     4.0000    -999.25    79.9479     2.3781     2.4827     3.0152  1457.5536     0.4085    -999.25     4.8477     0.2037     0.2037 20887.0449     2.2927     2.3781     5.6558    29.7947     0.9253     0.9253 -1381.5536    30.0156     0.1886    12.0000
  1457.5816  6359.3198 6361031.0000    -999.25     9.3801     9.3801   110.1764     4.0000    -999.25    80.0475     2.3884     2.4951     3.0193  1457.5815     0.4138    -999.25     5.2256     0.1990     0.1990 20869.5254     2.2987     2.3884     5.7046    30.0861     0.9181     0.9181 -1381.5815    31.5350     0.1827    12.0000
  1457.7061  6337.2876 6337287.5000    -999.25     9.3992     9.3992   112.0010     4.0000    -999.25    80.1832     2.4313     2.5474     2.9880  1457.7062     0.4358    -999.25     5.8959     0.1770     0.1770 20791.6270     2.3287     2.4313     5.9114    31.5165     0.8954     0.8954 -1381.7062    38.2371     0.1586    12.0000
  1457.7340  6311.5693 6314456.0000    -999.25     9.4034     9.4034   112.7818     4.0000    -999.25    80.2137     2.4409     2.5592     2.9810  1457.7340     0.4408    -999.25     6.0462     0.1721     0.1721 20716.7207     2.3354     2.4409     5.9577    31.8370     0.8904     0.8904 -1381.7340    39.7390     0.1532    12.0000
  1457.8584  6212.6548 6212655.0000    -999.25     9.4153     9.4153   116.2630     4.0000    -999.25    80.3179     2.4693     2.6056     2.9269  1457.8584     0.4569    -999.25     5.4565     0.1494     0.1494 20382.7266     2.3698     2.4693     6.0977    33.3538     0.8872     0.8872 -1381.8584    45.6602     0.1326    12.0000
  1457.8864  6194.6387 6196179.0000    -999.25     9.4179     9.4179   116.9816     4.0000    -999.25    80.3413     2.4757     2.6160     2.9147  1457.8864     0.4605    -999.25     5.3238     0.1443     0.1443 20328.6719     2.3775     2.4757     6.1292    33.6951     0.8865     0.8865 -1381.8864    46.9930     0.1280    12.0000
  1458.0109  6122.9199 6122920.0000    -999.25     9.4242     9.4242   120.1770     4.0000    -999.25    80.1860     2.4743     2.6442     2.8646  1458.0109     0.4714    -999.25     4.1346     0.1230     0.1230 20088.3203     2.4142     2.4743     6.1220    35.2096     0.8994     0.8994 -1382.0109    51.9926     0.1106    12.0000
  1458.0388  6132.5029 6130822.5000    -999.25     9.4256     9.4256   120.3976     4.0000    -999.25    80.1512     2.4739     2.6505     2.8534  1458.0387     0.4739    -999.25     3.8681     0.1182     0.1182 20114.2461     2.4224     2.4739     6.1204    35.5490     0.9022     0.9022 -1382.0387    53.1130     0.1067    12.0000
