~Version ---------------------------------------------------
VERS. 2.0 : CWLS log ASCII Standard -VERSION 2.0
WRAP.  NO : 
~Well ------------------------------------------------------
STRT.m                                                 998.5724 : 
STOP.m                                                  1489.91 : 
STEP.m                                                   0.1524 : 
NULL.                                                   -999.25 : 
COMP.                                                           : COMPANY
WELL.                                                    Well-4 : WELL
FLD .                                                           : FIELD
LOC .                                                           : LOCATION
SRVC.                                                           : SERVICE COMPANY
DATE. 2021-01-20 14:34:00   : Log Export Date {yyyy-MM-dd HH:mm : ss}
PROV.                                                           : PROVINCE
UWI .                                                    Well-4 : UNIQUE WELL ID
API .                                                           : API NUMBER
~Curve Information -----------------------------------------
DEPTH             .m        : DEPTH
ACOUSTICIMPEDANCE1.kPa.s/m  : ACOUSTICIMPEDANCE1
AVG_PIGN          .m3/m3    : AVG_PIGN
CALI              .in       : CALI
CALI[DERIVED]1    .in       : CALI[DERIVED]1
DFL               .ohm.m    : DFL
DT                .us/ft    : DT
FACIES            ._        : FACIES
FLD1              ._        : FLD1
GR                .gAPI     : GR
HDRS              .ohm.m    : HDRS
HMRS              .ohm.m    : HMRS
NPHI              .m3/m3    : NPHI
PERF_INT          ._        : PERF_INT
PIGN              .m3/m3    : PIGN
PIGN_MODELLING    .m3/m3    : PIGN_MODELLING
RHOB              .g/cm3    : RHOB
SP                .mV       : SP
SUWI              ._        : SUWI
SUWI_MODELLING    ._        : SUWI_MODELLING
TDVSS             .m        : TDVSS
VCL               .%        : VCL
ZLT               ._        : ZLT
~Params ----------------------------------------------------
~Other -----------------------------------------------------
~ASCII -----------------------------------------------------
   998.5724  4397.5830    -999.25     8.0912     8.0912     1.6024   145.9568    -999.25    -999.25    58.6026     1.7290     1.7118     0.6350    -999.25    -999.25    -999.25     2.1058   269.1632    -999.25    -999.25  -919.9524    -999.25    -999.25
   998.7248  4415.0493    -999.25     8.0673     8.0673     1.7137   145.6762    -999.25    -999.25    58.4966     1.8492     1.8436     0.6460    -999.25    -999.25    -999.25     2.1101   269.4328    -999.25    -999.25  -920.1048    -999.25    -999.25
   998.8772  4388.4624    -999.25     8.0408     8.0408     1.9275   146.6504    -999.25    -999.25    59.4589     1.8718     1.8829     0.6458    -999.25    -999.25    -999.25     2.1114   269.6759    -999.25    -999.25  -920.2572    -999.25    -999.25
   999.0296  4338.9722    -999.25     8.0530     8.0530     1.9289   148.5037    -999.25    -999.25    60.1992     1.7917     1.7911     0.6462    -999.25    -999.25    -999.25     2.1140   269.7225    -999.25    -999.25  -920.4096    -999.25    -999.25
   999.1820  4284.3320    -999.25     8.1254     8.1254     1.8020   150.6181    -999.25    -999.25    61.1269     1.7230     1.7051     0.6493    -999.25    -999.25    -999.25     2.1171   269.8082    -999.25    -999.25  -920.5620    -999.25    -999.25
   999.3344  4234.5776    -999.25     8.2639     8.2639     1.7218   152.9702    -999.25    -999.25    63.3943     1.6598     1.6486     0.6471    -999.25    -999.25    -999.25     2.1252   269.8013    -999.25    -999.25  -920.7144    -999.25    -999.25
   999.4868  4183.6816    -999.25     8.4141     8.4141     1.6550   155.3185    -999.25    -999.25    65.2262     1.5940     1.5867     0.6385    -999.25    -999.25    -999.25     2.1319   269.4475    -999.25    -999.25  -920.8668    -999.25    -999.25
   999.6392  4146.0298    -999.25     8.5127     8.5127     1.5617   156.8878    -999.25    -999.25    66.3195     1.5442     1.5337     0.6285    -999.25    -999.25    -999.25     2.1341   268.9449    -999.25    -999.25  -921.0192    -999.25    -999.25
   999.7916  4153.1030    -999.25     8.5467     8.5467     1.4539   156.8672    -999.25    -999.25    68.3635     1.4919     1.4842     0.6219    -999.25    -999.25    -999.25     2.1374   268.5175    -999.25    -999.25  -921.1716    -999.25    -999.25
   999.9440  4216.4937    -999.25     8.5492     8.5492     1.3248   155.1638    -999.25    -999.25    70.7385     1.4404     1.4308     0.6284    -999.25    -999.25    -999.25     2.1465   268.0116    -999.25    -999.25  -921.3240    -999.25    -999.25
  1000.0964  4309.3120    -999.25     8.5093     8.5093     1.2699   152.7964    -999.25    -999.25    71.9296     1.4467     1.4396     0.6504    -999.25    -999.25    -999.25     2.1603   267.3735    -999.25    -999.25  -921.4764    -999.25    -999.25
  1000.2488  4391.0552    -999.25     8.4295     8.4295     1.3506   150.6204    -999.25    -999.25    71.8903     1.5699     1.5874     0.6810    -999.25     0.0120     0.0120     2.1699   266.9612    -999.25    -999.25  -921.6288    -999.25    -999.25
  1000.4012  4441.0474    -999.25     8.3550     8.3550     1.6768   148.8247    -999.25    -999.25    70.7739     1.7976     1.8007     0.7042    -999.25     0.0101     0.0101     2.1684   267.0225    -999.25    -999.25  -921.7812    -999.25    -999.25
  1000.5536  4454.0967    -999.25     8.2877     8.2877     1.9740   147.4395    -999.25    -999.25    68.5364     1.9334     1.9072     0.7150    -999.25     0.0121     0.0121     2.1546   267.1217     1.0000     1.0000  -921.9336    87.9950    -999.25
  1000.7060  4438.3657    -999.25     8.2127     8.2127     2.0753   146.5921    -999.25    -999.25    66.2057     1.9243     1.9093     0.7103    -999.25     0.0170     0.0170     2.1346   266.9302     1.0000     1.0000  -922.0860    85.7630    -999.25
  1000.8584  4411.4043    -999.25     8.1566     8.1566     2.0229   146.6091    -999.25    -999.25    64.9421     1.8943     1.8832     0.6871    -999.25     0.0222     0.0222     2.1219   266.8098     1.0000     1.0000  -922.2384    82.7490    -999.25
  1001.0108  4364.2065    -999.25     8.1599     8.1599     1.9358   147.8441    -999.25    -999.25    64.0179     1.8516     1.8378     0.6580    -999.25     0.0257     0.0257     2.1169   267.0800     1.0000     1.0000  -922.3908    80.2770    -999.25
  1001.1632  4292.5615    -999.25     8.2150     8.2150     1.8552   149.7308    -999.25    -999.25    62.7569     1.7783     1.7639     0.6342    -999.25     0.0273     0.0273     2.1087   267.3016     1.0000     1.0000  -922.5432    79.0340    -999.25
  1001.3156  4236.6343    -999.25     8.3453     8.3453     1.7398   151.2484    -999.25    -999.25    61.4775     1.7059     1.6951     0.6211    -999.25     0.0279     0.0279     2.1023   266.9370     1.0000     1.0000  -922.6956    78.6240    -999.25
  1001.4680  4212.5010    -999.25     8.5152     8.5152     1.6665   151.9543    -999.25    -999.25    60.0774     1.6801     1.6739     0.6112    -999.25     0.0284     0.0284     2.1001   266.2470     1.0000     1.0000  -922.8480    78.1880    -999.25
  1001.6204  4218.5957    -999.25     8.6710     8.6710     1.6734   151.5902    -999.25    -999.25    59.3537     1.7252     1.7146     0.6014    -999.25     0.0296     0.0296     2.0981   265.6780     1.0000     1.0000  -923.0004    77.3400    -999.25
  1001.7728  4239.1826    -999.25     8.7564     8.7564     1.7304   150.3594    -999.25    -999.25    59.9745     1.8045     1.7823     0.5975    -999.25     0.0311     0.0311     2.0912   265.2873     1.0000     1.0000  -923.1528    76.1680    -999.25
  1001.9252  4263.6475    -999.25     8.7776     8.7776     1.8068   148.5201    -999.25    -999.25    61.3727     1.8540     1.8357     0.6025    -999.25     0.0322     0.0322     2.0775   265.1151     1.0000     1.0000  -923.3052    75.3510    -999.25
  1002.0776  4298.2139    -999.25     8.7721     8.7721     1.8571   146.5024    -999.25    -999.25    63.4752     1.8670     1.8658     0.6116    -999.25     0.0322     0.0322     2.0659   265.3319     1.0000     1.0000  -923.4576    75.3520    -999.25
  1002.2300  4318.8984    -999.25     8.7993     8.7993     1.8786   144.7887    -999.25    -999.25    66.3091     1.8755     1.8822     0.6176    -999.25     0.0320     0.0320     2.0516   265.8337     1.0000     1.0000  -923.6100    75.4550    -999.25
  1002.3824  4329.3003    -999.25     8.8592     8.8592     1.8883   143.6361    -999.25    -999.25    68.7814     1.8859     1.8984     0.6148    -999.25     0.0327     0.0327     2.0402   266.1928     1.0000     1.0000  -923.7624    74.9210    -999.25
  1002.5348  4338.3184    -999.25     8.9383     8.9383     1.8819   143.1345    -999.25    -999.25    71.3458     1.8804     1.8916     0.6026    -999.25     0.0339     0.0339     2.0373   266.3189     1.0000     1.0000  -923.9148    73.9930    -999.25
  1002.6872  4344.1372    -999.25     8.9925     8.9925     1.8622   143.1490    -999.25    -999.25    74.1426     1.8401     1.8398     0.5859    -999.25     0.0340     0.0340     2.0402   266.5006     1.0000     1.0000  -924.0672    73.9320    -999.25
  1002.8396  4367.0083    -999.25     8.9345     8.9345     1.8231   143.4784    -999.25    -999.25    75.0260     1.7879     1.7847     0.5703    -999.25     0.0333     0.0333     2.0557   266.7607     1.0000     1.0000  -924.2196    74.5000    -999.25
  1002.9920  4405.5088    -999.25     8.7584     8.7584     1.7925   143.8469    -999.25    -999.25    73.0513     1.7651     1.7737     0.5619    -999.25     0.0336     0.0336     2.0791   266.8873     1.0000     1.0000  -924.3720    74.2090    -999.25
  1003.1444  4439.9067    -999.25     8.4645     8.4645     1.7542   144.1192    -999.25    -999.25    69.1182     1.7565     1.7755     0.5570    -999.25     0.0350     0.0350     2.0993   267.0641     1.0000     1.0000  -924.5244    73.1430    -999.25
  1003.2968  4466.5518    -999.25     8.1519     8.1519     1.7356   144.4004    -999.25    -999.25    64.4543     1.7372     1.7564     0.5577    -999.25     0.0364     0.0364     2.1161   267.6618     1.0000     1.0000  -924.6768    72.0690    -999.25
