~Version ---------------------------------------------------
VERS. 2.0 : CWLS log ASCII Standard -VERSION 2.0
WRAP.  NO : 
~Well ------------------------------------------------------
STRT.m                                                   1280.0 : 
STOP.m                                                 1564.988 : 
STEP.m                                                   0.1524 : 
NULL.                                                   -999.25 : 
COMP.                                                           : COMPANY
WELL.                                                   Well-11 : WELL
FLD .                                                           : FIELD
LOC .                                                           : LOCATION
SRVC.                                                           : SERVICE COMPANY
DATE. 2021-01-20 14:34:05   : Log Export Date {yyyy-MM-dd HH:mm : ss}
PROV.                                                           : PROVINCE
UWI .                                                   Well-11 : UNIQUE WELL ID
API .                                                           : API NUMBER
~Curve Information -----------------------------------------
DEPTH             .m        : DEPTH
ACOUSTICIMPEDANCE1.kPa.s/m  : ACOUSTICIMPEDANCE1
AI                .kPa.s/m  : AI
AVG_PIGN          .m3/m3    : AVG_PIGN
CALI              .in       : CALI
CALI[DERIVED]1    .in       : CALI[DERIVED]1
DFL               .ohm.m    : DFL
DT                .us/ft    : DT
DT1               .us/ft    : DT1
FACIES            ._        : FACIES
FLD1              ._        : FLD1
GR                .gAPI     : GR
HDRS              .ohm.m    : HDRS
HMRS              .ohm.m    : HMRS
DEPTH_1           .m        : DEPTH_1
NPHI              .m3/m3    : NPHI
PERF_INT          ._        : PERF_INT
PERMEABILITY      .mD       : PERMEABILITY
PIGN              .m3/m3    : PIGN
PIGN_MODELLING    .m3/m3    : PIGN_MODELLING
PIMP              .kPa.s/m  : PIMP
RHOB              .g/cm3    : RHOB
LLD               .ohm.m    : LLD
RT_MODELLING      .ohm.m    : RT_MODELLING
RT_POWER          .ohm.m    : RT_POWER
SP                .mV       : SP
SUWI              ._        : SUWI
SUWI_MODELLING    ._        : SUWI_MODELLING
SXWI              ._        : SXWI
TDVSS             .m        : TDVSS
VCL               .%        : VCL
WATER_VOL         ._        : WATER_VOL
ZLT               ._        : ZLT
~Params ----------------------------------------------------
~Other -----------------------------------------------------
~ASCII -----------------------------------------------------
# ...
  1298.4404  4705.2075 4710152.0000    -999.25     9.6520     9.6520     1.1056   147.6605   147.6605     0.0000    -999.25    44.3797     0.8110     0.8206  1298.4404     0.6418    -999.25    -999.25     0.0218     0.0218 15453.2559     2.2794     0.8115     0.8115     0.6585   146.4901     1.0000     1.0000     1.0000 -1218.3204    86.9090     0.0218    -999.25
  1298.4600  4706.6611 4706661.0000    -999.25     9.6579     9.6579     1.1080   147.6228   147.4882     0.0000    -999.25    44.2937     0.8105     0.8198  1298.4600     0.6420    -999.25    -999.25     0.0211     0.0211 15441.8018     2.2796     0.8109     0.8109     0.6575   146.4879     1.0000     1.0000     1.0000 -1218.3400    87.0141     0.0211    -999.25
  1298.5928  4750.2842 4751583.0000    -999.25     9.6980     9.6980     1.1243   146.3203   146.3204     0.0000    -999.25    43.7104     0.8072     0.8145  1298.5928     0.6428    -999.25    -999.25     0.0162     0.0162 15589.1836     2.2804     0.8066     0.8066     0.6506   146.4729     1.0000     1.0000     1.0000 -1218.4728    87.7260     0.0162    -999.25
  1298.6124  4758.2134 4758213.0000    -999.25     9.6940     9.6940     1.1173   146.1280   146.2044     0.0000    -999.25    43.5689     0.8067     0.8137  1298.6123     0.6440    -999.25    -999.25     0.0160     0.0160 15610.9355     2.2812     0.8061     0.8061     0.6498   146.4644     1.0000     1.0000     1.0000 -1218.4923    87.9507     0.0160    -999.25
  1298.7452  4792.8682 4791026.5000    -999.25     9.6666     9.6666     1.0695   145.4183   145.4184     0.0000    -999.25    42.6102     0.8030     0.8080  1298.7452     0.6521    -999.25    -999.25     0.0150     0.0150 15718.5918     2.2866     0.8025     0.8025     0.6440   146.4069     1.0000     1.0000     1.0000 -1218.6252    89.4730     0.0150    -999.25
  1298.7648  4795.8696 4795869.5000    -999.25     9.6629     9.6629     1.0651   145.3136   145.4315     0.0000    -999.25    42.5956     0.8033     0.8082  1298.7648     0.6533    -999.25    -999.25     0.0150     0.0150 15734.4805     2.2864     0.8029     0.8029     0.6446   146.3915     1.0000     1.0000     1.0000 -1218.6448    89.6314     0.0150    -999.25
  1298.8976  4785.9883 4781881.0000    -999.25     9.6381     9.6381     1.0353   145.5204   145.5204     0.0000    -999.25    42.4963     0.8050     0.8092  1298.8976     0.6620    -999.25    -999.25     0.0150     0.0150 15688.5859     2.2850     0.8054     0.8054     0.6487   146.2873     1.0000     1.0000     1.0000 -1218.7776    90.7050     0.0150    -999.25
  1298.9172  4779.8164 4779816.5000    -999.25     9.6395     9.6395     1.0388   145.5509   145.6513     0.0000    -999.25    42.6364     0.8055     0.8098  1298.9171     0.6618    -999.25    -999.25     0.0153     0.0153 15681.8125     2.2825     0.8058     0.8058     0.6494   146.2796     1.0000     1.0000     1.0000 -1218.7971    90.5505     0.0153    -999.25
  1299.0500  4712.8228 4711497.0000    -999.25     9.6486     9.6486     1.0623   146.5385   146.5384     0.0000    -999.25    43.5855     0.8084     0.8139  1299.0500     0.6602    -999.25    -999.25     0.0175     0.0175 15457.6670     2.2658     0.8088     0.8088     0.6542   146.2274     1.0000     1.0000     1.0000 -1218.9301    89.5040     0.0175    -999.25
  1299.0696  4701.4136 4701413.5000    -999.25     9.6450     9.6450     1.0690   146.6842   146.6340     0.0000    -999.25    43.7051     0.8078     0.8134  1299.0696     0.6587    -999.25    -999.25     0.0179     0.0179 15424.5850     2.2625     0.8080     0.8080     0.6529   146.2182     1.0000     1.0000     1.0000 -1218.9496    89.2389     0.0179    -999.25
  1299.2024  4636.9395 4638853.5000    -999.25     9.6206     9.6206     1.1140   147.2821   147.2820     0.0000    -999.25    44.5155     0.8037     0.8102  1299.2024     0.6489    -999.25    -999.25     0.0209     0.0209 15219.3340     2.2406     0.8029     0.8029     0.6446   146.1555     1.0000     1.0000     1.0000 -1219.0824    87.4430     0.0209    -999.25
  1299.2220  4629.6196 4629620.0000    -999.25     9.6135     9.6135     1.1110   147.3703   147.2636     0.0000    -999.25    44.4456     0.8020     0.8087  1299.2219     0.6469    -999.25    -999.25     0.0215     0.0215 15189.0410     2.2384     0.8011     0.8011     0.6418   146.1334     1.0000     1.0000     1.0000 -1219.1019    87.0888     0.0215    -999.25
  1299.3548  4606.0625 4606052.5000    -999.25     9.5661     9.5661     1.0908   147.1391   147.1391     0.0000    -999.25    43.9718     0.7909     0.7987  1299.3549     0.6334    -999.25    -999.25     0.0255     0.0255 15111.7207     2.2235     0.7891     0.7891     0.6227   145.9839     1.0000     1.0000     1.0000 -1219.2349    84.6890     0.0255    -999.25
  1299.3744  4602.5742 4602574.0000    -999.25     9.5716     9.5716     1.0853   147.1050   147.0434     0.0000    -999.25    43.7656     0.7899     0.7979  1299.3744     0.6326    -999.25    -999.25     0.0257     0.0257 15100.3086     2.2213     0.7882     0.7882     0.6212   145.9751     1.0000     1.0000     1.0000 -1219.2544    84.5911     0.0257    -999.25
  1299.5072  4593.8970 4593781.0000    -999.25     9.6091     9.6091     1.0474   146.3942   146.3943     0.0000    -999.25    42.3687     0.7829     0.7921  1299.5072     0.6276    -999.25    -999.25     0.0268     0.0268 15071.4590     2.2064     0.7820     0.7820     0.6115   145.9152     1.0000     1.0000     1.0000 -1219.3872    83.9280     0.0268    -999.25
  1299.5268  4592.4829 4592483.0000    -999.25     9.6200     9.6200     1.0489   146.2893   146.3227     0.0000    -999.25    42.1361     0.7832     0.7926  1299.5267     0.6288    -999.25    -999.25     0.0264     0.0264 15067.2012     2.2042     0.7824     0.7824     0.6122   145.9154     1.0000     1.0000     1.0000 -1219.4067    84.1738     0.0264    -999.25
  1299.6596  4574.7012 4575750.0000    -999.25     9.6939     9.6939     1.0590   145.8378   145.8379     0.0000    -999.25    40.5602     0.7849     0.7956  1299.6597     0.6370    -999.25    -999.25     0.0236     0.0236 15012.3037     2.1889     0.7853     0.7853     0.6167   145.9169     1.0000     1.0000     1.0000 -1219.5397    85.8390     0.0236    -999.25
  1299.6792  4573.2803 4573280.5000    -999.25     9.6905     9.6905     1.0615   145.7712   145.9066     0.0000    -999.25    40.4194     0.7854     0.7963  1299.6792     0.6395    -999.25    -999.25     0.0229     0.0229 15004.2012     2.1872     0.7858     0.7858     0.6175   145.9156     1.0000     1.0000     1.0000 -1219.5592    86.2823     0.0229    -999.25
  1299.8120  4530.7969 4533943.5000    -999.25     9.6678     9.6678     1.0783   146.3725   146.3724     0.0000    -999.25    39.4656     0.7889     0.8009  1299.8120     0.6563    -999.25    -999.25     0.0179     0.0179 14875.1416     2.1758     0.7894     0.7894     0.6232   145.9070     1.0000     1.0000     1.0000 -1219.6920    89.2860     0.0179    -999.25
  1299.8316  4528.1377 4528137.5000    -999.25     9.6561     9.6561     1.0784   146.4612   146.5946     0.0000    -999.25    39.4721     0.7892     0.8009  1299.8315     0.6578    -999.25    -999.25     0.0175     0.0175 14856.0938     2.1758     0.7897     0.7897     0.6236   145.9129     1.0000     1.0000     1.0000 -1219.7115    89.5176     0.0175    -999.25
  1299.9644  4478.5884 4481971.0000    -999.25     9.5770     9.5770     1.0792   148.1005   148.1004     0.0000    -999.25    39.5167     0.7913     0.8012  1299.9645     0.6681    -999.25    -999.25     0.0150     0.0150 14704.6299     2.1761     0.7916     0.7916     0.6266   145.9525     1.0000     1.0000     1.0000 -1219.8445    91.0870     0.0150    -999.25
  1299.9840  4475.1577 4475157.5000    -999.25     9.5642     9.5642     1.0782   148.3425   148.4151     0.0000    -999.25    39.7007     0.7915     0.8008  1299.9840     0.6678    -999.25    -999.25     0.0151     0.0151 14682.2754     2.1780     0.7918     0.7918     0.6270   145.9604     1.0000     1.0000     1.0000 -1219.8640    90.9866     0.0151    -999.25
