~Version ---------------------------------------------------
VERS. 2.0 : CWLS log ASCII Standard -VERSION 2.0
WRAP.  NO : 
~Well ------------------------------------------------------
STRT.m                                                   1250.0 : 
STOP.m                                                1661.9372 : 
STEP.m                                                   0.1524 : 
NULL.                                                   -999.25 : 
COMP.                                                           : COMPANY
WELL.                                                    Well-7 : WELL
FLD .                                                           : FIELD
LOC .                                                           : LOCATION
SRVC.                                                           : SERVICE COMPANY
DATE. 2021-01-20 14:34:01   : Log Export Date {yyyy-MM-dd HH:mm : ss}
PROV.                                                           : PROVINCE
UWI .                                                    Well-7 : UNIQUE WELL ID
API .                                                           : API NUMBER
~Curve Information -----------------------------------------
DEPTH             .m        : DEPTH
ACOUSTICIMPEDANCE1.kPa.s/m  : ACOUSTICIMPEDANCE1
AI                .kPa.s/m  : AI
AVG_PIGN          .m3/m3    : AVG_PIGN
CALI              .in       : CALI
CALI[DERIVED]1    .in       : CALI[DERIVED]1
DEVI              .deg      : DEVI
DFL               .ohm.m    : DFL
DT                .us/ft    : DT
FACIES            ._        : FACIES
FLD1              ._        : FLD1
GR                .gAPI     : GR
HDRS              .ohm.m    : HDRS
HMRS              .ohm.m    : HMRS
DEPTH_1           .m        : DEPTH_1
NPHI              .m3/m3    : NPHI
PEF               .b/e      : PEF
PERF_INT          ._        : PERF_INT
PERMEABILITY      .mD       : PERMEABILITY
PIGN              .m3/m3    : PIGN
PIGN_MODELLING    .m3/m3    : PIGN_MODELLING
PIMP              .kPa.s/m  : PIMP
RHOB              .g/cm3    : RHOB
LLD               .ohm.m    : LLD
RT_MODELLING      .ohm.m    : RT_MODELLING
RT_POWER          .ohm.m    : RT_POWER
SP                .mV       : SP
SUWI              ._        : SUWI
SUWI_MODELLING    ._        : SUWI_MODELLING
SXWI              ._        : SXWI
TDVSS             .m        : TDVSS
VCL               .%        : VCL
WATER_VOL         ._        : WATER_VOL
ZLT               ._        : ZLT
~Params ----------------------------------------------------
~Other -----------------------------------------------------
~ASCII -----------------------------------------------------
# ...
  1469.6084  5275.5732 5256241.0000    -999.25     9.0464     9.0464     0.5396     2.6956   133.8097     3.0000    -999.25    92.3460     2.2294     2.3346  1469.6084     0.5307     5.1412    -999.25     0.0017     0.0081     0.0100 17244.8867     2.3160     2.1725     2.1725     4.7195  -197.9851     1.0000     1.0000     1.0000 -1382.2384    86.1140     0.0081     9.0000
  1469.6324  5265.2114 5265211.5000    -999.25     9.0730     9.0730     0.5466     2.7220   134.7904     3.0000    -999.25    92.6221     2.2191     2.3226  1469.6323     0.5332     5.2129    -999.25     0.0038     0.0092     0.0108 17274.3164     2.3284     2.1632     2.1632     4.6800  -197.9847     1.0000     1.0000     1.0000 -1382.2623    86.9649     0.0092     9.0000
  1469.7608  5069.9453 5061934.5000    -999.25     9.2149     9.2149     0.4918     2.8634   143.9676     0.0000    -999.25    94.0990     2.1643     2.2580  1469.7607     0.5468     5.4491    -999.25     0.0149     0.0150     0.0150 16607.3984     2.3947     2.1139     2.1139     4.4685  -197.9857     1.0000     1.0000     1.0000 -1382.3907    91.5170     0.0150    10.0000
  1469.7848  5023.9390 5023939.0000    -999.25     9.2389     9.2389     0.4815     2.9176   145.6829     0.0000    -999.25    94.1191     2.1537     2.2458  1469.7848     0.5513     5.4933    -999.25     0.0155     0.0150     0.0150 16482.7402     2.4013     2.0995     2.0995     4.4091  -197.9859     1.0000     1.0000     1.0000 -1382.4148    92.2538     0.0150    10.0000
  1469.9132  4961.2183 4960573.0000    -999.25     9.3670     9.3670     0.4200     3.2077   149.6753     0.0000    -999.25    94.2268     2.0970     2.1805  1469.9132     0.5752     5.7136    -999.25     0.0189     0.0150     0.0150 16274.8457     2.4363     2.0226     2.0226     4.0910  -197.9825     1.0000     1.0000     1.0000 -1382.5432    96.1960     0.0150    10.0000
  1469.9373  4948.6797 4948679.5000    -999.25     9.3788     9.3788     0.4085     3.2273   150.4247     0.0000    -999.25    94.1173     2.0811     2.1634  1469.9373     0.5737     5.7550    -999.25     0.0189     0.0150     0.0150 16235.8252     2.4423     2.0047     2.0047     4.0204  -197.9818     1.0000     1.0000     1.0000 -1382.5673    95.8301     0.0150    10.0000
  1470.0656  5200.2212 5206753.0000    -999.25     9.4416     9.4416     0.4083     3.3316   145.0235     0.0000    -999.25    93.5343     1.9965     2.0728  1470.0656     0.5653     6.0536    -999.25     0.0190     0.0150     0.0150 17082.5234     2.4743     1.9091     1.9091     3.6446  -197.9698     1.0000     1.0000     1.0000 -1382.6956    93.8820     0.0150    10.0000
  1470.0896  5255.0288 5255028.5000    -999.25     9.4462     9.4462     0.4083     3.2925   144.0132     0.0000    -999.25    93.4016     1.9778     2.0532  1470.0896     0.5638     6.1094    -999.25     0.0191     0.0150     0.0150 17240.9082     2.4829     1.8916     1.8916     3.5798  -197.9676     1.0000     1.0000     1.0000 -1382.7196    92.9930     0.0150    10.0000
  1470.2180  5794.7847 5806383.5000    -999.25     9.4709     9.4709     0.3730     3.0831   133.0355     0.0000    -999.25    92.6913     1.8776     1.9486  1470.2180     0.5556     6.4702    -999.25     0.0198     0.0150     0.0150 19049.8145     2.5292     1.7982     1.7982     3.2335  -197.9577     1.0000     1.0000     1.0000 -1382.8480    88.2370     0.0150    10.0000
  1470.2421  5909.8696 5909870.0000    -999.25     9.4573     9.4573     0.3664     3.0462   130.9751     0.0000    -999.25    92.3921     1.8601     1.9308  1470.2421     0.5551     6.5379    -999.25     0.0201     0.0150     0.0150 19389.3359     2.5395     1.7879     1.7879     3.1970  -197.9559     1.0000     1.0000     1.0000 -1382.8721    87.8513     0.0150    10.0000
  1470.3704  6297.3545 6295918.5000    -999.25     9.3849     9.3849     0.4324     2.8500   125.5650     0.0000    -999.25    90.7996     1.7668     1.8360  1470.3704     0.5526     6.8648    -999.25     0.0217     0.0151     0.0151 20655.9004     2.5942     1.7329     1.7329     3.0029  -197.9649     1.0000     1.0000     1.0000 -1383.0004    85.7980     0.0151    10.0000
  1470.3944  6368.1338 6368133.5000    -999.25     9.4421     9.4421     0.4448     2.8151   124.5530     0.0000    -999.25    90.3279     1.7597     1.8293  1470.3944     0.5493     6.9259    -999.25     0.0221     0.0152     0.0152 20892.8262     2.6023     1.7331     1.7331     3.0036  -197.9666     1.0000     1.0000     1.0000 -1383.0244    85.3156     0.0152    10.0000
  1470.5228  6291.4556 6285159.5000    -999.25     9.7480     9.7480     0.3843     2.6289   128.1482     0.0000    -999.25    87.8046     1.7212     1.7931  1470.5228     0.5317     7.0750    -999.25     0.0241     0.0159     0.0159 20620.6035     2.6451     1.7342     1.7342     3.0076  -197.9642     1.0000     1.0000     1.0000 -1383.1528    82.7350     0.0159    10.0000
  1470.5469  6269.5859 6269586.0000    -999.25     9.8212     9.8212     0.3730     2.6293   128.8230     0.0000    -999.25    87.5454     1.7242     1.7973  1470.5469     0.5297     7.1030    -999.25     0.0240     0.0159     0.0159 20569.5078     2.6498     1.7405     1.7405     3.0294  -197.9637     1.0000     1.0000     1.0000 -1383.1769    82.8000     0.0159    10.0000
  1470.6752  6029.3511 6013361.0000    -999.25    10.2109    10.2109     0.4374     2.6317   135.2169     0.0000    -999.25    86.1655     1.7402     1.8199  1470.6752     0.5195     7.0228    -999.25     0.0234     0.0158     0.0158 19728.8730     2.6748     1.7736     1.7736     3.1456  -197.9547     1.0000     1.0000     1.0000 -1383.3052    83.1460     0.0158    10.0000
  1470.6992  5965.4307 5965431.0000    -999.25    10.1931    10.1931     0.4494     2.6336   136.4129     0.0000    -999.25    86.3234     1.7485     1.8284  1470.6992     0.5209     7.0078    -999.25     0.0228     0.0157     0.0157 19571.6230     2.6698     1.7743     1.7743     3.1482  -197.9530     1.0000     1.0000     1.0000 -1383.3292    83.9321     0.0157    10.0000
  1470.8276  5648.1250 5638047.5000    -999.25    10.0976    10.0976     0.5542     2.6437   142.6479     0.0000    -999.25    87.1679     1.7924     1.8742  1470.8276     0.5287     6.6562    -999.25     0.0199     0.0150     0.0150 18497.5312     2.6434     1.7783     1.7783     3.1623  -197.9530     1.0000     1.0000     1.0000 -1383.4576    88.1380     0.0150    10.0000
  1470.8516  5576.8545 5576854.5000    -999.25    10.0383    10.0383     0.5738     2.6475   143.8133     0.0000    -999.25    87.5836     1.7892     1.8688  1470.8516     0.5340     6.5905    -999.25     0.0203     0.0151     0.0151 18296.7676     2.6313     1.7692     1.7692     3.1306  -197.9530     1.0000     1.0000     1.0000 -1383.4816    88.8046     0.0151    10.0000
  1470.9800  5366.1943 5367057.0000    -999.25     9.7211     9.7211     0.5675     2.6675   145.8028     0.0000    -999.25    89.8076     1.7718     1.8398  1470.9800     0.5625     6.1465    -999.25     0.0223     0.0154     0.0154 17608.4551     2.5669     1.7207     1.7207     2.9608  -197.9589     1.0000     1.0000     1.0000 -1383.6100    92.3710     0.0154    10.0000
  1471.0040  5327.8428 5327842.5000    -999.25     9.6560     9.6560     0.5663     2.5993   146.1747     0.0000    -999.25    90.5429     1.7597     1.8245  1471.0040     0.5646     6.0635    -999.25     0.0260     0.0161     0.0161 17479.7988     2.5551     1.7158     1.7158     2.9440  -197.9600     1.0000     1.0000     1.0000 -1383.6340    91.9003     0.0161    10.0000
  1471.1324  5415.4644 5420810.5000    -999.25     9.3080     9.3080     0.6675     2.2343   140.2427     0.0000    -999.25    94.4769     1.6948     1.7422  1471.1324     0.5757     5.6236    -999.25     0.0457     0.0198     0.0198 17784.8105     2.4917     1.6895     1.6895     2.8544  -197.9600     1.0000     1.0000     1.0000 -1383.7625    89.3820     0.0198    10.0000
  1471.1564  5438.1875 5438187.5000    -999.25     9.2858     9.2858     0.6864     2.1734   139.1339     0.0000    -999.25    95.4816     1.6932     1.7374  1471.1564     0.5712     5.5414    -999.25     0.0616     0.0215     0.0215 17841.8223     2.4824     1.7011     1.7011     2.8945  -197.9600     1.0000     1.0000     1.0000 -1383.7864    88.1440     0.0215    10.0000
