~Version ---------------------------------------------------
VERS. 2.0 : CWLS log ASCII Standard -VERSION 2.0
WRAP.  NO : 
~Well ------------------------------------------------------
STRT.m                                                   1300.0 : 
STOP.m                                                1481.9656 : 
STEP.m                                                   0.1524 : 
NULL.                                                   -999.25 : 
COMP.                                                           : COMPANY
WELL.                                                    Well-3 : WELL
FLD .                                                           : FIELD
LOC .                                                           : LOCATION
SRVC.                                                           : SERVICE COMPANY
DATE. 2021-01-20 14:34:00   : Log Export Date {yyyy-MM-dd HH:mm : ss}
PROV.                                                           : PROVINCE
UWI .                                                    Well-3 : UNIQUE WELL ID
API .                                                           : API NUMBER
~Curve Information -----------------------------------------
DEPTH             .m        : DEPTH
ACOUSTICIMPEDANCE1.kPa.s/m  : ACOUSTICIMPEDANCE1
AI                .kPa.s/m  : AI
AVG_PIGN          .m3/m3    : AVG_PIGN
BS                .in       : BS
CALI              .in       : CALI
CALI[DERIVED]1    .in       : CALI[DERIVED]1
CALI1             .in       : CALI1
DEVI              .deg      : DEVI
DFL               .ohm.m    : DFL
DT                .us/ft    : DT
DT1               .us/ft    : DT1
FACIES            ._        : FACIES
FLD1              ._        : FLD1
GR                .gAPI     : GR
HDRS              .ohm.m    : HDRS
HMRS              .ohm.m    : HMRS
DEPTH_1           .m        : DEPTH_1
NPHI              .m3/m3    : NPHI
PERF_INT          ._        : PERF_INT
PERMEABILITY      .mD       : PERMEABILITY
PIGN              .m3/m3    : PIGN
PIGN_MODELLING    .m3/m3    : PIGN_MODELLING
PIMP              .kPa.s/m  : PIMP
RHOB              .g/cm3    : RHOB
RT_MODELLING      .ohm.m    : RT_MODELLING
RT_POWER          .ohm.m    : RT_POWER
SP                .mV       : SP
SUWI              ._        : SUWI
SUWI_MODELLING    ._        : SUWI_MODELLING
TDVSS             .m        : TDVSS
VCL               .%        : VCL
WATER_VOL         ._        : WATER_VOL
ZLT               ._        : ZLT
~Params ----------------------------------------------------
~Other -----------------------------------------------------
~ASCII -----------------------------------------------------
# ...
  1397.2312  6653.5156 6679232.5000    -999.25     8.5000     8.9197     8.9197     8.9197     0.2530     3.8804   107.1880   107.1882     0.0000    -999.25    74.3617     1.9528     1.9759  1397.2312     0.4918    -999.25     0.0343     0.0271     0.0271 21913.4922     2.3398     3.8804    15.0576   314.4572     1.0000     1.0000 -1321.0712    70.1940     0.0271     2.0000
  1397.2578  6559.1680 6559168.0000    -999.25     8.5000     8.9067     8.9067     8.9092     0.2968     3.5710   108.5376   108.0390     0.0000    -999.25    74.8115     1.9157     1.9309  1397.2578     0.4921    -999.25     0.0339     0.0270     0.0270 21519.5801     2.3357     3.5710    13.2047   314.4597     1.0000     1.0000 -1321.0978    70.1717     0.0270     2.0000
  1397.3836  6299.6138 6336204.0000    -999.25     8.5000     8.8592     8.8592     8.8592     0.2791     2.1076   112.0630   112.0626     0.0000    -999.25    76.9389     1.7401     1.7180  1397.3835     0.4932    -999.25     0.0321     0.0267     0.0267 20788.0723     2.3161     2.1076     4.4418   314.4715     1.0000     1.0000 -1321.2235    70.0660     0.0267     2.0000
  1397.4102  6289.0591 6289059.0000    -999.25     8.5000     8.8492     8.8492     8.8434     0.2754     2.0440   112.8084   111.7311     0.0000    -999.25    76.8237     1.7523     1.7313  1397.4102     0.4913    -999.25     0.0304     0.0260     0.0260 20633.3965     2.3276     2.0440     4.1970   314.4136     1.0000     1.0000 -1321.2501    70.2679     0.0260     2.0000
  1397.5360  6590.5737 6613661.0000    -999.25     8.5000     8.7683     8.7683     8.7683     0.2540     1.7433   110.1629   110.1632     0.0000    -999.25    76.2793     1.8096     1.7946  1397.5360     0.4821    -999.25     0.0222     0.0225     0.0225 21698.3613     2.3820     1.7433     3.0391   314.1402     1.0000     1.0000 -1321.3760    71.2230     0.0225     2.0000
  1397.5626  6682.2969 6682297.0000    -999.25     8.5000     8.7512     8.7512     8.7501     0.2495     1.8744   109.6035   109.3206     0.0000    -999.25    75.9328     1.8546     1.8473  1397.5626     0.4805    -999.25     0.0195     0.0210     0.0210 21923.5449     2.4029     1.8744     3.5948   314.1217     1.0000     1.0000 -1321.4026    71.9644     0.0210     2.0000
  1397.6884  7238.8916 7229968.0000    -999.25     8.5000     8.6640     8.6640     8.6640     0.2417     2.4946   105.3355   105.3359     0.0000    -999.25    74.2938     2.0675     2.0966  1397.6884     0.4730    -999.25     0.0068     0.0143     0.0143 23720.3691     2.5017     2.4946     6.2231   314.0341     1.0000     1.0000 -1321.5283    75.4710     0.0143     2.0000
  1397.7150  7345.7715 7345771.5000    -999.25     8.5000     8.6456     8.6456     8.6564     0.2400     2.7167   104.4330   105.1084     0.0000    -999.25    74.1145     2.0892     2.1202  1397.7150     0.4744    -999.25     0.0061     0.0137     0.0137 24100.3008     2.5169     2.7167     7.6135   314.2101     1.0000     1.0000 -1321.5549    76.1130     0.0137     2.0000
  1397.8408  7584.4902 7547516.0000    -999.25     8.5000     8.6203     8.6203     8.6203     0.2348     3.7668   104.0324   104.0324     0.0000    -999.25    73.2667     2.1915     2.2314  1397.8407     0.4807    -999.25     0.0031     0.0109     0.0109 24762.1914     2.5887     3.7668    14.1892   315.0422     1.0000     1.0000 -1321.6808    79.1490     0.0109     2.0000
  1397.8674  7590.1738 7590174.0000    -999.25     8.5000     8.6150     8.6150     8.6293     0.2337     3.7796   103.9477   104.5940     0.0000    -999.25    73.4743     2.1590     2.2004  1397.8673     0.4846    -999.25     0.0038     0.0116     0.0116 24902.1465     2.5885     3.7796    14.2863   315.2068     1.0000     1.0000 -1321.7074    79.3307     0.0116     2.0000
  1397.9932  7354.1670 7322238.0000    -999.25     8.5000     8.6715     8.6715     8.6715     0.1841     3.8400   107.2504   107.2500     0.0000    -999.25    74.4563     2.0056     2.0538  1397.9932     0.5031    -999.25     0.0073     0.0151     0.0151 24023.0898     2.5877     3.8400    14.7459   315.9855     1.0000     1.0000 -1321.8331    80.1900     0.0151     2.0000
  1398.0198  7265.5840 7265584.0000    -999.25     8.5000     8.6834     8.6834     8.6815     0.1736     3.6284   107.9487   108.1451     0.0000    -999.25    75.2123     1.9531     1.9976  1398.0198     0.5071    -999.25     0.0079     0.0158     0.0158 23837.2168     2.5732     3.6284    13.3773   315.8590     1.0000     1.0000 -1321.8597    80.0471     0.0158     2.0000
  1398.1456  6792.8818 6794615.5000    -999.25     8.5000     8.7289     8.7289     8.7289     0.1312     2.6277   112.3786   112.3781     0.0000    -999.25    78.7881     1.7047     1.7318  1398.1455     0.5259    -999.25     0.0110     0.0188     0.0188 22292.0449     2.5045     2.6277     6.9046   315.2606     1.0000     1.0000 -1321.9856    79.3710     0.0188     2.0000
  1398.1722  6695.0308 6695030.5000    -999.25     8.5000     8.7385     8.7385     8.7341     0.1222     2.4750   113.3153   112.9342     0.0000    -999.25    79.7193     1.6856     1.7088  1398.1721     0.5270    -999.25     0.0117     0.0193     0.0193 21965.3242     2.4890     2.4750     6.2357   314.8161     1.0000     1.0000 -1322.0122    78.8132     0.0193     2.0000
  1398.2980  6371.3530 6392207.0000    -999.25     8.5000     8.7587     8.7587     8.7587     0.0788     1.7527   115.5645   115.5643     0.0000    -999.25    84.1236     1.5950     1.6003  1398.2980     0.5322    -999.25     0.0147     0.0217     0.0217 20971.8086     2.4157     1.7527     3.0719   312.7141     1.0000     1.0000 -1322.1379    76.1750     0.0217     2.0000
  1398.3246  6328.1763 6328176.0000    -999.25     8.5000     8.7630     8.7630     8.7605     0.0696     1.7504   116.0401   115.2308     0.0000    -999.25    84.5777     1.6123     1.6197  1398.3246     0.5293    -999.25     0.0168     0.0224     0.0224 20761.7324     2.4092     1.7504     3.0640   312.1055     1.0000     1.0000 -1322.1646    75.3419     0.0224     2.0000
  1398.4504  6378.5806 6390298.5000    -999.25     8.5000     8.7689     8.7689     8.7689     0.0689     1.7397   113.6550   113.6537     0.0000    -999.25    86.7248     1.6944     1.7114  1398.4503     0.5159    -999.25     0.0272     0.0260     0.0260 20965.5469     2.3785     1.7397     3.0267   309.2273     1.0000     1.0000 -1322.2904    71.4020     0.0260     2.0000
  1398.4771  6403.4839 6403483.5000    -999.25     8.5000     8.7702     8.7702     8.7698     0.0688     1.8399   113.1488   112.7416     0.0000    -999.25    86.6394     1.7318     1.7562  1398.4771     0.5110    -999.25     0.0305     0.0266     0.0266 21008.8047     2.3771     1.8399     3.4325   308.7680     1.0000     1.0000 -1322.3171    70.7681     0.0266     2.0000
  1398.6028  6663.2168 6665671.0000    -999.25     8.5000     8.7739     8.7739     8.7739     0.1262     2.3116   108.4477   108.4476     0.0000    -999.25    86.2374     1.9077     1.9668  1398.6028     0.4882    -999.25     0.0462     0.0293     0.0293 21868.9980     2.3708     2.3116     5.3433   306.6061     1.0000     1.0000 -1322.4427    67.7840     0.0293     2.0000
  1398.6294  6721.1533 6721153.5000    -999.25     8.5000     8.7747     8.7747     8.7726     0.1383     2.4494   107.4529   107.7001     0.0000    -999.25    86.0412     1.9465     2.0098  1398.6294     0.4849    -999.25     0.0473     0.0293     0.0293 22051.0273     2.3694     2.4494     6.0894   306.5511     1.0000     1.0000 -1322.4694    67.7377     0.0293     2.0000
  1398.7552  6914.8711 6914168.0000    -999.25     8.5000     8.7663     8.7663     8.7663     0.2111     3.1013   104.1668   104.1650     0.0000    -999.25    85.1134     2.1300     2.2131  1398.7551     0.4697    -999.25     0.0523     0.0295     0.0295 22684.2773     2.3632     3.1013     9.6179   306.2914     1.0000     1.0000 -1322.5952    67.5190     0.0295     2.0000
  1398.7819  6955.1338 6955133.5000    -999.25     8.5000     8.7645     8.7645     8.7650     0.2266     3.2562   103.4694   104.0206     0.0000    -999.25    84.8747     2.1480     2.2293  1398.7819     0.4705    -999.25     0.0521     0.0291     0.0291 22818.6797     2.3610     3.2562    10.7161   306.6749     1.0000     1.0000 -1322.6219    68.0371     0.0291     2.0000
