~Version ---------------------------------------------------
VERS. 2.0 : CWLS log ASCII Standard -VERSION 2.0
WRAP.  NO : 
~Well ------------------------------------------------------
STRT.m                                                 998.5724 : 
STOP.m                                                  1489.91 : 
STEP.m                                                   0.1524 : 
NULL.                                                   -999.25 : 
COMP.                                                           : COMPANY
WELL.                                                    Well-4 : WELL
FLD .                                                           : FIELD
LOC .                                                           : LOCATION
SRVC.                                                           : SERVICE COMPANY
DATE. 2021-01-20 14:34:00   : Log Export Date {yyyy-MM-dd HH:mm : ss}
PROV.                                                           : PROVINCE
UWI .                                                    Well-4 : UNIQUE WELL ID
API .                                                           : API NUMBER
~Curve Information -----------------------------------------
DEPTH             .m        : DEPTH
ACOUSTICIMPEDANCE1.kPa.s/m  : ACOUSTICIMPEDANCE1
AVG_PIGN          .m3/m3    : AVG_PIGN
CALI              .in       : CALI
CALI[DERIVED]1    .in       : CALI[DERIVED]1
DFL               .ohm.m    : DFL
DT                .us/ft    : DT
FACIES            ._        : FACIES
FLD1              ._        : FLD1
GR                .gAPI     : GR
HDRS              .ohm.m    : HDRS
HMRS              .ohm.m    : HMRS
NPHI              .m3/m3    : NPHI
PERF_INT          ._        : PERF_INT
PIGN              .m3/m3    : PIGN
PIGN_MODELLING    .m3/m3    : PIGN_MODELLING
RHOB              .g/cm3    : RHOB
SP                .mV       : SP
SUWI              ._        : SUWI
SUWI_MODELLING    ._        : SUWI_MODELLING
TDVSS             .m        : TDVSS
VCL               .%        : VCL
ZLT               ._        : ZLT
~Params ----------------------------------------------------
~Other -----------------------------------------------------
~ASCII -----------------------------------------------------
# ...
  1452.1148  5418.9468    -999.25     8.8767     8.8767     1.6228   132.5002     0.0000    -999.25    80.9368     1.2943     1.3199     0.6549    -999.25     0.0101     0.0101     2.3557   316.1011     1.0000     1.0000 -1373.4948    92.2720    12.0000
  1452.2672  5367.2632    -999.25     8.8832     8.8832     1.6147   134.0958     0.0000    -999.25    81.2578     1.2788     1.3019     0.6662    -999.25     0.0066     0.0066     2.3613   315.6177     1.0000     1.0000 -1373.6472    94.9420    12.0000
  1452.4196  5386.9160    -999.25     8.8782     8.8782     1.5880   133.9964     0.0000    -999.25    80.9859     1.2844     1.2901     0.6736    -999.25     0.0049     0.0049     2.3682   315.2347     1.0000     1.0000 -1373.7996    96.1890    12.0000
  1452.5720  5467.0791    -999.25     8.8607     8.8607     1.5772   132.3544     0.0000    -999.25    79.9959     1.3420     1.3239     0.6810    -999.25     0.0049     0.0049     2.3740   314.8203     1.0000     1.0000 -1373.9520    96.0670    12.0000
  1452.7244  5536.8452    -999.25     8.8469     8.8469     1.7001   130.3371     0.0000    -999.25    78.5054     1.4151     1.4235     0.6876    -999.25     0.0059     0.0059     2.3676   314.5544     1.0000     1.0000 -1374.1044    95.4000    12.0000
  1452.8768  5553.2778    -999.25     8.8394     8.8394     1.8970   129.2994     0.0000    -999.25    76.5874     1.4384     1.4914     0.6915    -999.25     0.0068     0.0068     2.3558   314.5764     1.0000     1.0000 -1374.2568    94.8170    12.0000
  1453.0292  5483.7822    -999.25     8.8487     8.8487     1.9841   129.8142     0.0000    -999.25    75.6759     1.4081     1.4527     0.6863    -999.25     0.0073     0.0073     2.3355   314.4085     1.0000     1.0000 -1374.4092    94.4130    12.0000
  1453.1816  5415.4204    -999.25     8.8665     8.8665     1.8090   130.9947     0.0000    -999.25    76.9706     1.3536     1.3572     0.6763    -999.25     0.0079     0.0079     2.3274   313.8233     1.0000     1.0000 -1374.5616    93.9690    12.0000
  1453.3340  5444.6460    -999.25     8.8818     8.8818     1.5581   131.4588     0.0000    -999.25    81.0787     1.3579     1.3121     0.6689    -999.25     0.0078     0.0078     2.3482   312.8533     1.0000     1.0000 -1374.7140    93.9720    12.0000
  1453.4864  5542.7002    -999.25     8.8866     8.8866     1.5438   130.5470     0.0000    -999.25    87.6949     1.4448     1.4169     0.6790    -999.25     0.0054     0.0054     2.3740   311.9772     1.0000     1.0000 -1374.8665    95.4950    12.0000
  1453.6388  5654.0088    -999.25     8.8886     8.8886     1.8555   128.5700     0.0000    -999.25    94.6670     1.5243     1.5954     0.7066    -999.25     0.0018     0.0018     2.3850   311.9557     1.0000     1.0000 -1375.0188    97.7320    12.0000
  1453.7912  5826.8906    -999.25     8.9048     8.9048     2.0331   127.1312     0.0000    -999.25    98.1695     1.5235     1.5951     0.7222    -999.25     0.0001     0.0001     2.4304   312.7190     1.0000     1.0000 -1375.1713    97.2050    12.0000
  1453.9436  6081.5449    -999.25     8.9625     8.9625     1.8640   126.7666     0.0000    -999.25    95.6854     1.4016     1.4107     0.6955    -999.25     0.0001     0.0001     2.5293   313.7416     1.0000     1.0000 -1375.3236    92.7370    12.0000
  1454.0960  6452.9370    -999.25     8.9809     8.9809     1.5087   124.3750     0.0000    -999.25    88.5948     1.3026     1.2452     0.6358    -999.25     0.0001     0.0001     2.6331   314.6423     1.0000     1.0000 -1375.4760    86.5320    12.0000
  1454.2484  6919.0293    -999.25     9.0332     9.0332     1.4711   117.9266     0.0000    -999.25    81.3137     1.4142     1.3789     0.5799    -999.25     0.0036     0.0036     2.6770   315.1164     1.0000     1.0000 -1375.6284    79.9120    12.0000
  1454.4008  7127.5186    -999.25     9.1373     9.1373     2.2275   111.2386     0.0000    -999.25    78.1079     1.6797     1.8805     0.5592    -999.25     0.0173     0.0173     2.6012   315.3031     1.0000     1.0000 -1375.7808    72.1920    12.0000
  1454.5532  6898.4526    -999.25     9.2378     9.2378     2.8914   109.0404     0.0000    -999.25    79.6027     1.6786     1.8593     0.5731    -999.25     0.0324     0.0324     2.4679   315.3633     1.0000     1.0000 -1375.9332    68.1970    12.0000
  1454.7056  6388.6865    -999.25     9.2338     9.2338     2.4116   113.8249     0.0000    -999.25    84.0594     1.3728     1.3998     0.6085    -999.25     0.0322     0.0322     2.3858   315.1181     1.0000     1.0000 -1376.0856    73.7710    12.0000
  1454.8580  5863.3647    -999.25     9.1569     9.1569     1.4957   122.5206     0.0000    -999.25    88.2381     1.1631     1.1466     0.6431    -999.25     0.0208     0.0208     2.3569   314.7348     1.0000     1.0000 -1376.2380    83.9610    12.0000
  1455.0104  5657.7749    -999.25     9.0377     9.0377     1.2305   128.0534     0.0000    -999.25    88.4958     1.1830     1.1551     0.6574    -999.25     0.0118     0.0118     2.3770   314.3505     1.0000     1.0000 -1376.3904    90.2410    12.0000
  1455.1628  5739.8311    -999.25     8.9262     8.9262     1.3420   128.2088     0.0000    -999.25    85.4450     1.3155     1.2924     0.6504    -999.25     0.0100     0.0100     2.4144   314.0137     1.0000     1.0000 -1376.5428    90.1490    12.0000
  1455.3152  5850.2788    -999.25     8.8973     8.8973     1.6224   125.9097     0.0000    -999.25    82.0094     1.4410     1.4505     0.6356    -999.25     0.0148     0.0148     2.4167   313.9438     1.0000     1.0000 -1376.6952    86.1150    12.0000
  1455.4676  5838.7891    -999.25     8.9460     8.9460     1.7742   124.4406     0.0000    -999.25    78.9112     1.4964     1.5096     0.6213    -999.25     0.0230     0.0230     2.3838   313.9159     1.0000     1.0000 -1376.8477    81.3580    12.0000
  1455.6200  5779.4629    -999.25     8.9472     8.9472     1.8610   124.7892     0.0000    -999.25    75.8490     1.4783     1.4933     0.6076    -999.25     0.0278     0.0278     2.3662   313.7891     1.0000     1.0000 -1377.0000    78.7010    12.0000
  1455.7724  5740.2642    -999.25     8.8962     8.8962     1.8748   125.6791     0.0000    -999.25    73.7785     1.4821     1.5046     0.5914    -999.25     0.0282     0.0282     2.3669   313.7181     1.0000     1.0000 -1377.1525    78.3830    12.0000
  1455.9248  5761.1050    -999.25     8.8385     8.8385     1.9621   125.8699     0.0000    -999.25    73.1738     1.5395     1.5491     0.5733    -999.25     0.0272     0.0272     2.3791   313.5303     1.0000     1.0000 -1377.3048    79.0110    12.0000
  1456.0772  5810.7964    -999.25     8.8242     8.8242     1.9564   125.3254     0.0000    -999.25    73.5868     1.5865     1.5806     0.5559    -999.25     0.0265     0.0265     2.3892   313.3065     1.0000     1.0000 -1377.4572    79.3490    12.0000
  1456.2296  5869.6514    -999.25     8.8243     8.8243     1.9447   124.4499     0.0000    -999.25    75.5488     1.6246     1.6141     0.5488    -999.25     0.0270     0.0270     2.3966   313.1085     1.0000     1.0000 -1377.6096    78.5320    12.0000
  1456.3820  5909.5811    -999.25     8.8354     8.8354     2.0095   123.5910     0.0000    -999.25    78.7708     1.6945     1.6871     0.5587    -999.25     0.0293     0.0293     2.3962   312.9558     1.0000     1.0000 -1377.7620    76.6140    12.0000
  1456.5344  5895.5024    -999.25     8.8772     8.8772     2.1876   123.7300     0.0000    -999.25    82.5663     1.7246     1.7492     0.5820    -999.25     0.0299     0.0299     2.3932   313.2016     1.0000     1.0000 -1377.9144    76.0900    12.0000
  1456.6868  5812.8535    -999.25     8.9318     8.9318     2.2302   125.4562     0.0000    -999.25    86.3477     1.6200     1.6088     0.6008    -999.25     0.0254     0.0254     2.3926   313.6302     1.0000     1.0000 -1378.0668    79.3420    12.0000
  1456.8392  5742.5132    -999.25     8.9364     8.9364     1.9208   127.9042     0.0000    -999.25    89.1098     1.4460     1.3509     0.6015    -999.25     0.0176     0.0176     2.4097   313.7000     1.0000     1.0000 -1378.2192    84.2240    12.0000
