~Version ---------------------------------------------------
VERS. 2.0 : CWLS log ASCII Standard -VERSION 2.0
WRAP.  NO : 
~Well ------------------------------------------------------
STRT.m                                                1333.6522 : 
STOP.m                                                1778.5078 : 
STEP.m                                                   0.1524 : 
NULL.                                                   -999.25 : 
COMP.                                                           : COMPANY
WELL.                                                   Well-15 : WELL
FLD .                                                           : FIELD
LOC .                                                           : LOCATION
SRVC.                                                           : SERVICE COMPANY
DATE. 2021-01-20 14:34:07   : Log Export Date {yyyy-MM-dd HH:mm : ss}
PROV.                                                           : PROVINCE
UWI .                                                   Well-15 : UNIQUE WELL ID
API .                                                           : API NUMBER
~Curve Information -----------------------------------------
DEPTH             .m        : DEPTH
ACOUSTICIMPEDANCE1.kPa.s/m  : ACOUSTICIMPEDANCE1
AI                .kPa.s/m  : AI
BS                .in       : BS
CALI              .in       : CALI
CALI[DERIVED]1    .in       : CALI[DERIVED]1
DRES              .ohm.m    : DRES
DT                .us/ft    : DT
DT2               .us/ft    : DT2
DT4P              .us/ft    : DT4P
FACIES            ._        : FACIES
FLD1              ._        : FLD1
GR                .gAPI     : GR
GR_EDTC           .gAPI     : GR_EDTC
LLD               .ohm.m    : LLD
LLS               .ohm.m    : LLS
M2R2              .ohm.m    : M2R2
LLS_1             .ohm.m    : LLS_1
LLD_1             .ohm.m    : LLD_1
DEPTH_1           .m        : DEPTH_1
MSFL              .ohm.m    : MSFL
NPHI              .m3/m3    : NPHI
PERF_INT          ._        : PERF_INT
PIMP              .kPa.s/m  : PIMP
PR                ._        : PR
RHOB              .g/cm3    : RHOB
RT_MODELLING      .ohm.m    : RT_MODELLING
RT_POWER          .ohm.m    : RT_POWER
SP                .mV       : SP
TDVSS             .m        : TDVSS
TENS              .t        : TENS
VPVS              ._        : VPVS
ZLT               ._        : ZLT
~Params ----------------------------------------------------
~Other -----------------------------------------------------
~ASCII -----------------------------------------------------
# ...
  1498.0918  6483.7695 6483771.5000     8.5000     8.8486     8.8486    10.4184   103.9572   230.8837   103.9572     1.0000    -999.25    64.4869    97.9558    10.4184     7.1264    -999.25    -999.25    -999.25  1498.0918     4.5755     0.3781    -999.25 21272.2148     0.3729     2.2114    10.4184   108.5431   -60.3327 -1286.1832  1791.0406     2.2210     4.0000
  1498.2442  6468.8569 6468843.5000     8.5000     8.8571     8.8571    10.4945   104.7199   229.1000   104.7199     1.0000    -999.25    64.7508   101.3356    10.4945     7.2905    -999.25    -999.25    -999.25  1498.2441     4.1022     0.3783    -999.25 21223.2402     0.3679     2.2225    10.4945   110.1345   -60.8468 -1286.2614  1748.0564     2.1877     4.0000
  1498.3966  6428.2256 6428194.5000     8.5000     8.8059     8.8059     9.9355   105.7327   226.4124   105.7327     1.0000    -999.25    64.7934    99.3318     9.9356     6.9477    -999.25    -999.25    -999.25  1498.3966     4.3273     0.3881    -999.25 21089.8770     0.3605     2.2299     9.9356    98.7162   -61.1667 -1286.3395  1712.0472     2.1414     4.0000
  1498.5490  6339.6455 6339640.0000     8.5000     8.7922     8.7922     9.4139   107.1571   219.8129   107.1571     1.0000    -999.25    63.8200    97.1877     9.4139     6.5774    -999.25    -999.25    -999.25  1498.5490     3.7191     0.3978    -999.25 20799.3418     0.3441     2.2288     9.4139    88.6215   -61.1534 -1286.4176  1743.9580     2.0513     4.0000
  1498.7014  6202.2461 6202236.5000     8.5000     8.8239     8.8239     9.0832   109.3836   210.8871   109.3836     1.0000    -999.25    61.8518    96.3489     9.0833     6.4017    -999.25    -999.25    -999.25  1498.7014     3.9939     0.4005    -999.25 20348.5430     0.3159     2.2258     9.0833    82.5063   -60.8544 -1286.4959  1753.9868     1.9280     4.0000
  1498.8538  6141.0596 6141037.0000     8.5000     8.8461     8.8461     8.8788   110.1359   211.2630   110.1359     1.0000    -999.25    61.9428   100.9126     8.8788     6.2913    -999.25    -999.25    -999.25  1498.8538     4.3044     0.3982    -999.25 20147.7617     0.3134     2.2190     8.8788    78.8331   -60.4524 -1286.5740  1791.9501     1.9182     4.0000
  1499.0062  5955.0503 5954986.5000     8.5000     8.8419     8.8419     8.8354   112.9056   218.5933   112.9056     1.0000    -999.25    63.0266    96.8304     8.8354     6.2838    -999.25    -999.25    -999.25  1499.0061     4.1611     0.3981    -999.25 19537.3574     0.3181     2.2059     8.8354    78.0643   -59.8824 -1286.6521  2095.6011     1.9361     4.0000
  1499.1586  5756.7725 5756668.0000     8.5000     8.8041     8.8041     8.8274   115.0577   212.3722   115.0577     1.0000    -999.25    62.5453    98.3797     8.8274     6.3169    -999.25    -999.25    -999.25  1499.1586     4.5382     0.4071    -999.25 18886.7051     0.2922     2.1731     8.8274    77.9230   -59.0857 -1286.7302  2156.9199     1.8458     4.0000
  1499.3110  5526.9883 5526932.5000     8.5000     8.7293     8.7293     8.5150   116.2897   221.4688   116.2897     1.0000    -999.25    60.6145    92.2953     8.5150     6.1505    -999.25    -999.25    -999.25  1499.3109     3.8575     0.4264    -999.25 18132.9824     0.3097     2.1087     8.5150    72.5052   -57.7514 -1286.8085  2096.0801     1.9044     4.0000
  1499.4634  5217.1401 5217207.0000     8.5000     8.6294     8.6294     7.6889   118.4289   311.3946   118.4289     1.0000    -999.25    58.4507    87.5643     7.6889     5.6342    -999.25    -999.25    -999.25  1499.4634     2.9198     0.4348    -999.25 17116.8223     0.4154     2.0271     7.6889    59.1192   -56.5218 -1286.8866  2056.0525     2.6293     4.0000
  1499.6158  4990.7212 4990827.5000     8.5000     8.4867     8.4867     6.7057   119.8992   326.3820   119.8992     1.0000    -999.25    56.1382    77.9242     6.7058     4.9799    -999.25    -999.25    -999.25  1499.6157     2.0268     0.4297    -999.25 16374.1064     0.4220     1.9632     6.7058    44.9678   -55.8054 -1286.9647  2072.9778     2.7222     4.0000
  1499.7682  4796.6064 4796648.5000     8.5000     8.3168     8.3168     5.9370   122.6417   327.8336   122.6417     1.0000    -999.25    52.3494    75.0096     5.9370     4.4533    -999.25    -999.25    -999.25  1499.7682     1.7192     0.4250    -999.25 15737.0361     0.4186     1.9300     5.9370    35.2480   -55.5698 -1287.0428  2008.0853     2.6731     4.0000
  1499.9206  4759.9028 4759884.0000     8.5000     8.1833     8.1833     5.5139   122.1722   332.9866   122.1722     1.0000    -999.25    49.2291    76.3555     5.5139     4.1616    -999.25    -999.25    -999.25  1499.9205     1.8521     0.4262    -999.25 15616.4170     0.4222     1.9079     5.5139    30.4031   -55.2787 -1287.1211  1955.0696     2.7255     4.0000
  1500.0730  4729.3271 4729367.0000     8.5000     8.1279     8.1279     5.5104   121.1704   334.7086   121.1704     1.0000    -999.25    47.4191    74.7904     5.5104     4.1502    -999.25    -999.25    -999.25  1500.0730     2.1045     0.4364    -999.25 15516.2969     0.4246     1.8801     5.5104    30.3645   -54.6607 -1287.1992  1864.1194     2.7623     4.0000
  1500.2254  4748.3223 4748476.0000     8.5000     8.1178     8.1178     5.7278   119.6971   331.4228   119.6971     1.0000    -999.25    46.9559    74.4814     5.7277     4.2867    -999.25    -999.25    -999.25  1500.2253     2.9902     0.4370    -999.25 15578.9893     0.4250     1.8647     5.7277    32.8065   -54.0002 -1287.2773  1759.1378     2.7689     4.0000
  1500.3778  4838.0801 4838218.5000     8.5000     8.1348     8.1348     5.9792   119.4043   326.8500   119.4043     1.0000    -999.25    46.7569    72.3143     5.9792     4.4641    -999.25    -999.25    -999.25  1500.3778     2.5349     0.4231    -999.25 15873.4199     0.4230     1.8953     5.9792    35.7508   -53.6529 -1287.3555  2248.3569     2.7373     4.0000
  1500.5302  5133.2266 5133251.0000     8.5000     8.1546     8.1546     6.1486   116.8081   327.1168   116.8081     1.0000    -999.25    45.6279    77.0123     6.1486     4.6014    -999.25    -999.25    -999.25  1500.5302     2.1459     0.3977    -999.25 16841.3750     0.4269     1.9672     6.1486    37.8053   -53.6934 -1287.4336  1922.4291     2.8004     4.0000
  1500.6826  5379.0439 5378915.5000     8.5000     8.1816     8.1816     6.1598   115.8049   324.7623   115.8049     1.0000    -999.25    45.4585    80.3265     6.1598     4.6231    -999.25    -999.25    -999.25  1500.6825     2.0159     0.3812    -999.25 17647.3633     0.4272     2.0437     6.1598    37.9431   -54.4975 -1287.5118  1936.9803     2.8044     4.0000
  1500.8350  5475.2119 5475033.5000     8.5000     8.2082     8.2082     6.0833   115.9142   208.0520   115.9142     1.0000    -999.25    46.3921    83.3422     6.0833     4.5539    -999.25    -999.25    -999.25  1500.8350     2.2100     0.3847    -999.25 17962.7090     0.2747     2.0822     6.0833    37.0065   -56.0951 -1287.5900  1923.0184     1.7949     4.0000
  1500.9874  5470.5005 5470438.5000     8.5000     8.2332     8.2332     5.9362   115.2729   220.6368   115.2729     1.0000    -999.25    48.2578    83.5770     5.9362     4.4229    -999.25    -999.25    -999.25  1500.9873     2.1943     0.4020    -999.25 17947.6328     0.3123     2.0689     5.9362    35.2385   -57.7901 -1287.6681  1924.9973     1.9140     4.0000
  1501.1398  5377.4829 5377579.0000     8.5000     8.2436     8.2436     5.8117   115.5098   221.1867   115.5098     1.0000    -999.25    50.4024    89.3593     5.8117     4.3041    -999.25    -999.25    -999.25  1501.1398     2.2299     0.4104    -999.25 17642.9766     0.3125     2.0379     5.8117    33.7759   -59.1380 -1287.7462  1946.9711     1.9149     4.0000
  1501.2922  5395.5210 5395647.5000     8.5000     8.2401     8.2401     5.8272   114.9428   217.5468   114.9428     1.0000    -999.25    52.2720    89.3801     5.8272     4.2845    -999.25    -999.25    -999.25  1501.2921     2.3677     0.4066    -999.25 17702.2559     0.3064     2.0347     5.8272    33.9563   -60.0135 -1287.8245  1923.0315     1.8926     4.0000
