~Version ---------------------------------------------------
VERS. 2.0 : CWLS log ASCII Standard -VERSION 2.0
WRAP.  NO : 
~Well ------------------------------------------------------
STRT.m                                                   1300.0 : 
STOP.m                                                 1514.884 : 
STEP.m                                                   0.1524 : 
NULL.                                                   -999.25 : 
COMP.                                                           : COMPANY
WELL.                                                    Well-2 : WELL
FLD .                                                           : FIELD
LOC .                                                           : LOCATION
SRVC.                                                           : SERVICE COMPANY
DATE. 2021-01-20 14:33:59   : Log Export Date {yyyy-MM-dd HH:mm : ss}
PROV.                                                           : PROVINCE
UWI .                                                    Well-2 : UNIQUE WELL ID
API .                                                           : API NUMBER
~Curve Information -----------------------------------------
DEPTH             .m        : DEPTH
ACOUSTICIMPEDANCE1.kPa.s/m  : ACOUSTICIMPEDANCE1
AI                .kPa.s/m  : AI
AVG_PIGN          .m3/m3    : AVG_PIGN
CALI              .in       : CALI
CALI[DERIVED]1    .in       : CALI[DERIVED]1
DT                .us/ft    : DT
FACIES            ._        : FACIES
FLD1              ._        : FLD1
GR                .gAPI     : GR
LLD               .ohm.m    : LLD
LLS               .ohm.m    : LLS
LL3               .ohm.m    : LL3
DEPTH_1           .m        : DEPTH_1
NPHI              .m3/m3    : NPHI
PERF_INT          ._        : PERF_INT
PERMEABILITY      .mD       : PERMEABILITY
PIGN              .m3/m3    : PIGN
PIGN_MODELLING    .m3/m3    : PIGN_MODELLING
PIMP              .kPa.s/m  : PIMP
RHOB              .g/cm3    : RHOB
RT_MODELLING      .ohm.m    : RT_MODELLING
RT_POWER          .ohm.m    : RT_POWER
SP                .mV       : SP
SUWI              ._        : SUWI
SUWI_MODELLING    ._        : SUWI_MODELLING
TDVSS             .m        : TDVSS
VCL               .%        : VCL
WATER_VOL         ._        : WATER_VOL
ZLT               ._        : ZLT
~Params ----------------------------------------------------
~Other -----------------------------------------------------
~ASCII -----------------------------------------------------
  1300.0000  4892.0342    -999.25    -999.25    10.0114    10.0114   141.0027     0.0000    -999.25    55.4660     0.9409     0.8954     0.9896  1300.0000     0.5860    -999.25    -999.25    -999.25    -999.25    -999.25     2.2631     0.9409     0.8853    56.6979    -999.25    -999.25 -1224.0000    -999.25    -999.25    -999.25
  1300.1244  4941.8057 4941806.0000    -999.25    10.0177    10.0177   140.6680     0.0000    -999.25    55.1661     0.9473     0.9021     0.9911  1300.1244     0.5810    -999.25    -999.25    -999.25    -999.25 16213.2734     2.2807     0.9473     0.8974    56.5547    -999.25    -999.25 -1224.1244    -999.25    -999.25    -999.25
  1300.1524  4961.8921 4964577.0000    -999.25    10.0191    10.0191   140.3419     0.0000    -999.25    55.0985     0.9487     0.9036     0.9914  1300.1523     0.5799    -999.25    -999.25     0.0224     0.0224 16287.9814     2.2846     0.9487     0.9001    56.5224     1.0000     1.0000 -1224.1523    82.8230     0.0224    -999.25
  1300.2768  5065.7446 5065745.0000    -999.25    10.0240    10.0240   138.8930     0.0000    -999.25    54.1602     0.9696     0.9305     1.0197  1300.2769     0.5684    -999.25    -999.25     0.0224     0.0224 16619.8984     2.3084     0.9696     0.9402    56.2568     1.0000     1.0000 -1224.2769    82.7977     0.0224    -999.25
  1300.3048  5099.8999 5102209.5000    -999.25    10.0251    10.0251   138.2821     0.0000    -999.25    53.9490     0.9743     0.9366     1.0260  1300.3048     0.5658    -999.25    -999.25     0.0225     0.0225 16739.5332     2.3137     0.9743     0.9492    56.1970     1.0000     1.0000 -1224.3048    82.7920     0.0225    -999.25
  1300.4292  5264.2158 5264216.0000    -999.25    10.0405    10.0405   135.5680     0.0000    -999.25    52.5036     1.0052     0.9844     1.1116  1300.4292     0.5483    -999.25    -999.25     0.0232     0.0232 17271.0508     2.3414     1.0052     1.0107    55.8310     1.0000     1.0000 -1224.4292    82.2067     0.0232    -999.25
  1300.4572  5307.8271 5308778.5000    -999.25    10.0440    10.0440   134.8118     0.0000    -999.25    52.1782     1.0122     0.9952     1.1308  1300.4572     0.5443    -999.25    -999.25     0.0234     0.0234 17417.2539     2.3476     1.0122     1.0245    55.7486     1.0000     1.0000 -1224.4572    82.0750     0.0234    -999.25
  1300.5816  5506.7632 5506763.0000    -999.25    10.0673    10.0673   131.4520     0.0000    -999.25    50.3113     1.0412     1.0560     1.1914  1300.5815     0.5226    -999.25    -999.25     0.0266     0.0266 18066.8086     2.3749     1.0412     1.0844    55.3604     1.0000     1.0000 -1224.5815    79.4499     0.0266    -999.25
  1300.6096  5538.7017 5536087.0000    -999.25    10.0725    10.0725   131.0320     0.0000    -999.25    49.8911     1.0478     1.0697     1.2050  1300.6095     0.5177    -999.25    -999.25     0.0274     0.0274 18163.0176     2.3811     1.0478     1.0978    55.2730     1.0000     1.0000 -1224.6095    78.8590     0.0274    -999.25
  1300.7340  5666.3706 5666370.5000    -999.25    10.0969    10.0969   129.1660     0.0000    -999.25    48.3843     1.0605     1.1265     1.2634  1300.7340     0.4988    -999.25    -999.25     0.0302     0.0302 18590.4551     2.4013     1.0605     1.1246    54.9309     1.0000     1.0000 -1224.7340    76.2567     0.0302    -999.25
  1300.7620  5672.3442 5667330.5000    -999.25    10.1024    10.1024   129.2742     0.0000    -999.25    48.0452     1.0633     1.1392     1.2765  1300.7620     0.4945    -999.25    -999.25     0.0308     0.0308 18593.6035     2.4058     1.0633     1.1306    54.8540     1.0000     1.0000 -1224.7620    75.6710     0.0308    -999.25
  1300.8864  5671.5947 5671595.0000    -999.25    10.1222    10.1222   129.7550     0.0000    -999.25    47.8788     1.0498     1.1655     1.3815  1300.8864     0.4862    -999.25    -999.25     0.0319     0.0319 18607.5938     2.4144     1.0498     1.1022    54.6214     1.0000     1.0000 -1224.8864    74.7992     0.0319    -999.25
  1300.9144  5660.9751 5655172.5000    -999.25    10.1267    10.1267   130.1030     0.0000    -999.25    47.8414     1.0468     1.1715     1.4052  1300.9143     0.4843    -999.25    -999.25     0.0322     0.0322 18553.7148     2.4164     1.0468     1.0957    54.5690     1.0000     1.0000 -1224.9143    74.6030     0.0322    -999.25
  1301.0388  5582.2104 5582210.5000    -999.25    10.1260    10.1260   131.6490     0.0000    -999.25    49.3785     1.0079     1.1432     1.4672  1301.0388     0.4923    -999.25    -999.25     0.0302     0.0302 18314.3379     2.4111     1.0079     1.0162    54.4848     1.0000     1.0000 -1225.0388    76.1743     0.0302    -999.25
  1301.0668  5563.3354 5557770.0000    -999.25    10.1258    10.1258   132.0302     0.0000    -999.25    49.7245     0.9991     1.1368     1.4811  1301.0668     0.4941    -999.25    -999.25     0.0297     0.0297 18234.1523     2.4099     0.9991     0.9983    54.4658     1.0000     1.0000 -1225.0668    76.5280     0.0297    -999.25
  1301.1912  5449.1831 5449183.0000    -999.25    10.1042    10.1042   133.7240     0.0000    -999.25    52.1424     0.9450     1.0543     1.4057  1301.1912     0.5113    -999.25    -999.25     0.0262     0.0262 17877.8965     2.3907     0.9450     0.8937    54.5517     1.0000     1.0000 -1225.1912    79.3882     0.0262    -999.25
  1301.2192  5406.0522 5403080.0000    -999.25    10.0994    10.0994   134.5477     0.0000    -999.25    52.6866     0.9328     1.0357     1.3887  1301.2191     0.5152    -999.25    -999.25     0.0254     0.0254 17726.6406     2.3864     0.9328     0.8701    54.5711     1.0000     1.0000 -1225.2191    80.0320     0.0254    -999.25
  1301.3436  5198.2520 5198251.5000    -999.25    10.0544    10.0544   138.2070     0.0000    -999.25    55.2771     0.8775     0.9316     1.2955  1301.3436     0.5293    -999.25    -999.25     0.0231     0.0231 17054.6309     2.3571     0.8775     0.7707    54.8129     1.0000     1.0000 -1225.3436    82.2261     0.0231    -999.25
  1301.3716  5141.1665 5141844.5000    -999.25    10.0443    10.0443   139.3503     0.0000    -999.25    55.8602     0.8651     0.9081     1.2746  1301.3716     0.5325    -999.25    -999.25     0.0225     0.0225 16869.5684     2.3505     0.8651     0.7484    54.8673     1.0000     1.0000 -1225.3716    82.7200     0.0225    -999.25
  1301.4960  4891.2373 4891237.5000    -999.25     9.9920     9.9920   144.4300     0.0000    -999.25    57.7649     0.8164     0.8175     1.1739  1301.4960     0.5337    -999.25    -999.25     0.0225     0.0225 16047.3672     2.3177     0.8164     0.6670    55.2277     1.0000     1.0000 -1225.4960    82.7208     0.0225    -999.25
  1301.5240  4828.8496 4832834.0000    -999.25     9.9802     9.9802   145.8307     0.0000    -999.25    58.1936     0.8054     0.7972     1.1512  1301.5239     0.5340    -999.25    -999.25     0.0225     0.0225 15855.7549     2.3104     0.8054     0.6487    55.3088     1.0000     1.0000 -1225.5239    82.7210     0.0225    -999.25
  1301.6484  4573.3560 4573356.0000    -999.25     9.9281     9.9281   152.0540     0.0000    -999.25    59.0733     0.7643     0.7371     1.0136  1301.6484     0.5228    -999.25    -999.25     0.0235     0.0235 15004.4492     2.2815     0.7643     0.5846    55.7290     1.0000     1.0000 -1225.6484    82.0165     0.0235    -999.25
  1301.6764  4528.7373 4533484.5000    -999.25     9.9164     9.9164   153.1149     0.0000    -999.25    59.2712     0.7551     0.7236     0.9826  1301.6764     0.5203    -999.25    -999.25     0.0237     0.0237 14873.6377     2.2750     0.7551     0.5701    55.8236     1.0000     1.0000 -1225.6764    81.8580     0.0237    -999.25
  1301.8008  4356.3418 4356342.0000    -999.25     9.8780     9.8780   157.8280     0.0000    -999.25    58.9667     0.7196     0.6931     0.8729  1301.8008     0.5031    -999.25    -999.25     0.0264     0.0264 14292.4600     2.2558     0.7196     0.5181    56.2079     1.0000     1.0000 -1225.8008    79.7545     0.0264    -999.25
  1301.8288  4348.0854 4351696.5000    -999.25     9.8694     9.8694   157.8241     0.0000    -999.25    58.8982     0.7116     0.6863     0.8482  1301.8287     0.4993    -999.25    -999.25     0.0270     0.0270 14277.2188     2.2514     0.7116     0.5064    56.2944     1.0000     1.0000 -1225.8287    79.2810     0.0270    -999.25
