~Version ---------------------------------------------------
VERS. 2.0 : CWLS log ASCII Standard -VERSION 2.0
WRAP.  NO : 
~Well ------------------------------------------------------
STRT.m                                                   1250.0 : 
STOP.m                                                1661.9372 : 
STEP.m                                                   0.1524 : 
NULL.                                                   -999.25 : 
COMP.                                                           : COMPANY
WELL.                                                    Well-7 : WELL
FLD .                                                           : FIELD
LOC .                                                           : LOCATION
SRVC.                                                           : SERVICE COMPANY
DATE. 2021-01-20 14:34:01   : Log Export Date {yyyy-MM-dd HH:mm : ss}
PROV.                                                           : PROVINCE
UWI .                                                    Well-7 : UNIQUE WELL ID
API .                                                           : API NUMBER
~Curve Information -----------------------------------------
DEPTH             .m        : DEPTH
ACOUSTICIMPEDANCE1.kPa.s/m  : ACOUSTICIMPEDANCE1
AI                .kPa.s/m  : AI
AVG_PIGN          .m3/m3    : AVG_PIGN
CALI              .in       : CALI
CALI[DERIVED]1    .in       : CALI[DERIVED]1
DEVI              .deg      : DEVI
DFL               .ohm.m    : DFL
DT                .us/ft    : DT
FACIES            ._        : FACIES
FLD1              ._        : FLD1
GR                .gAPI     : GR
HDRS              .ohm.m    : HDRS
HMRS              .ohm.m    : HMRS
DEPTH_1           .m        : DEPTH_1
NPHI              .m3/m3    : NPHI
PEF               .b/e      : PEF
PERF_INT          ._        : PERF_INT
PERMEABILITY      .mD       : PERMEABILITY
PIGN              .m3/m3    : PIGN
PIGN_MODELLING    .m3/m3    : PIGN_MODELLING
PIMP              .kPa.s/m  : PIMP
RHOB              .g/cm3    : RHOB
LLD               .ohm.m    : LLD
RT_MODELLING      .ohm.m    : RT_MODELLING
RT_POWER          .ohm.m    : RT_POWER
SP                .mV       : SP
SUWI              ._        : SUWI
SUWI_MODELLING    ._        : SUWI_MODELLING
SXWI              ._        : SXWI
TDVSS             .m        : TDVSS
VCL               .%        : VCL
WATER_VOL         ._        : WATER_VOL
ZLT               ._        : ZLT
~Params ----------------------------------------------------
~Other -----------------------------------------------------
~ASCII -----------------------------------------------------
# ...
  1578.5744  6807.2446 6800189.0000    -999.25     8.8400     8.8400     1.4007     6.0806   109.0770     2.0000    -999.25    67.3435     4.1253     4.2723  1578.5743     0.5562     5.3257    -999.25    12.8339     0.2362     0.2362 22310.3320     2.4361     4.1577     4.1577    17.2864  -197.9058     0.7013     0.7013     0.9401 -1491.2043    30.9960     0.1657    20.0000
  1578.5984  6825.1987 6825198.5000    -999.25     8.8400     8.8400     1.4261     6.1657   108.8501     2.0000    -999.25    67.0402     4.1313     4.2793  1578.5984     0.5560     5.3611    -999.25    12.9619     0.2367     0.2367 22392.3848     2.4374     4.1521     4.1521    17.2400  -197.9069     0.7010     0.7010     0.9400 -1491.2284    30.9220     0.1659    20.0000
  1578.7268  6848.4111 6843463.5000    -999.25     8.8400     8.8400     1.4624     6.6213   108.8010     2.0000    -999.25    65.4177     4.1632     4.3173  1578.7268     0.5550     5.4582    -999.25    13.6468     0.2393     0.2393 22452.3066     2.4446     4.1221     4.1221    16.9920  -197.9151     0.6995     0.6995     0.9397 -1491.3568    30.5260     0.1674    20.0000
  1578.7509  6846.8911 6846891.5000    -999.25     8.8400     8.8400     1.4692     6.6221   108.7918     2.0000    -999.25    65.4046     4.1531     4.3099  1578.7509     0.5556     5.4764    -999.25    13.6438     0.2397     0.2397 22463.5547     2.4439     4.1159     4.1159    16.9411  -197.9166     0.6991     0.6991     0.9396 -1491.3809    30.5399     0.1676    20.0000
  1578.8792  6780.1543 6779593.0000    -999.25     8.8401     8.8401     1.5929     6.6268   109.6833     2.0000    -999.25    65.3348     4.0994     4.2708  1578.8792     0.5584     5.5033    -999.25    13.6279     0.2418     0.2418 22242.7598     2.4399     4.0829     4.0829    16.6702  -197.9137     0.6966     0.6966     0.9391 -1491.5092    30.6140     0.1684    20.0000
  1578.9032  6767.0039 6767004.0000    -999.25     8.8417     8.8417     1.6160     6.6154   109.8500     2.0000    -999.25    65.3310     4.0960     4.2694  1578.9032     0.5583     5.5083    -999.25    13.7632     0.2426     0.2426 22201.4570     2.4388     4.0849     4.0849    16.6866  -197.9132     0.6944     0.6944     0.9387 -1491.5332    30.5784     0.1684    20.0000
  1579.0316  6653.5654 6655817.0000    -999.25     8.8506     8.8506     1.6324     6.5546   111.4705     2.0000    -999.25    65.3104     4.0777     4.2622  1579.0316     0.5581     5.4780    -999.25    14.4873     0.2469     0.2469 21836.6680     2.4333     4.0957     4.0957    16.7746  -197.9189     0.6825     0.6825     0.9363 -1491.6616    30.3880     0.1685    20.0000
  1579.0557  6634.9473 6634947.5000    -999.25     8.8557     8.8557     1.6355     6.5674   111.7746     2.0000    -999.25    65.2208     4.0822     4.2683  1579.0557     0.5601     5.4723    -999.25    14.3000     0.2476     0.2476 21768.1992     2.4331     4.0984     4.0984    16.7970  -197.9200     0.6806     0.6806     0.9359 -1491.6857    30.3376     0.1685    20.0000
  1579.1840  6541.4463 6542728.0000    -999.25     8.8826     8.8826     1.5256     6.6358   113.3256     2.0000    -999.25    64.7438     4.1064     4.3008  1579.1840     0.5710     5.4567    -999.25    13.3032     0.2512     0.2512 21465.6426     2.4321     4.1130     4.1130    16.9164  -197.9137     0.6710     0.6710     0.9340 -1491.8140    30.0690     0.1685    20.0000
  1579.2080  6525.4771 6525477.0000    -999.25     8.8851     8.8851     1.5050     6.5639   113.6157     2.0000    -999.25    64.6867     4.1080     4.3055  1579.2080     0.5711     5.4538    -999.25    13.2980     0.2513     0.2513 21409.0449     2.4324     4.1096     4.1096    16.8888  -197.9125     0.6711     0.6711     0.9340 -1491.8380    30.0682     0.1686    20.0000
  1579.3364  6487.2783 6486885.0000    -999.25     8.8988     8.8988     1.4763     6.1791   114.3536     2.0000    -999.25    64.3813     4.1165     4.3304  1579.3364     0.5720     5.4325    -999.25    13.2701     0.2517     0.2517 21282.4316     2.4339     4.0915     4.0915    16.7407  -197.9007     0.6719     0.6719     0.9341 -1491.9664    30.0640     0.1691    20.0000
  1579.3605  6479.6416 6479641.5000    -999.25     8.8994     8.8994     1.4709     6.0955   114.4921     2.0000    -999.25    64.4060     4.1113     4.3297  1579.3605     0.5726     5.4285    -999.25    13.2568     0.2521     0.2521 21258.6660     2.4339     4.0806     4.0806    16.6518  -197.8985     0.6720     0.6720     0.9342 -1491.9905    30.1146     0.1694    20.0000
  1579.4888  6479.9365 6476529.0000    -999.25     8.9026     8.9026     1.4980     5.6503   114.5067     2.0000    -999.25    64.5374     4.0836     4.3257  1579.4888     0.5754     5.4054    -999.25    13.1858     0.2537     0.2537 21248.4551     2.4344     4.0223     4.0223    16.1787  -197.8895     0.6726     0.6726     0.9343 -1492.1188    30.3840     0.1707    20.0000
  1579.5128  6475.9468 6475946.5000    -999.25     8.9055     8.9055     1.5031     5.6140   114.5094     2.0000    -999.25    64.5947     4.0712     4.3160  1579.5128     0.5758     5.4011    -999.25    13.2106     0.2543     0.2543 21246.5449     2.4329     4.0004     4.0004    16.0057  -197.8878     0.6731     0.6731     0.9344 -1492.1428    30.4916     0.1712    20.0000
  1579.6412  6421.9497 6421447.5000    -999.25     8.9204     8.9204     1.5534     5.4200   115.1063     2.0000    -999.25    64.9011     4.0048     4.2636  1579.6412     0.5775     5.3543    -999.25    13.3431     0.2571     0.2571 21067.7422     2.4252     3.8833     3.8833    15.0799  -197.8998     0.6761     0.6761     0.9350 -1492.2712    31.0670     0.1738    20.0000
  1579.6652  6411.2612 6411261.0000    -999.25     8.9247     8.9247     1.5628     5.4202   115.2179     2.0000    -999.25    65.0436     3.9792     4.2374  1579.6652     0.5791     5.3456    -999.25    13.1007     0.2570     0.2570 21034.3203     2.4235     3.8493     3.8493    14.8232  -197.9021     0.6795     0.6795     0.9357 -1492.2952    31.2596     0.1746    20.0000
  1579.7936  6294.1943 6298210.0000    -999.25     8.9474     8.9474     1.5420     5.4212   116.9231     2.0000    -999.25    65.8060     3.8419     4.0971  1579.7936     0.5877     5.2630    -999.25    11.8039     0.2563     0.2563 20663.4199     2.4145     3.6674     3.6674    13.4502  -197.9250     0.6979     0.6979     0.9395 -1492.4236    32.2900     0.1789    20.0000
  1579.8176  6277.0791 6277079.0000    -999.25     8.9500     8.9500     1.5381     5.3655   117.2418     2.0000    -999.25    66.1138     3.8038     4.0563  1579.8176     0.5883     5.2476    -999.25    11.6306     0.2552     0.2552 20594.0918     2.4145     3.6330     3.6330    13.2050  -197.9293     0.7044     0.7044     0.9408 -1492.4476    32.5039     0.1797    20.0000
  1579.9460  6203.6470 6207844.5000    -999.25     8.9640     8.9640     1.5239     5.0672   118.6292     2.0000    -999.25    67.7607     3.6004     3.8376  1579.9460     0.5915     5.2197    -999.25    10.7033     0.2493     0.2493 20366.9453     2.4145     3.4487     3.4487    11.8935  -197.9424     0.7390     0.7390     0.9477 -1492.5760    33.6480     0.1843    20.0000
  1579.9700  6194.9038 6194903.5000    -999.25     8.9640     8.9640     1.5213     4.9901   118.8885     2.0000    -999.25    68.0544     3.5675     3.8003  1579.9700     0.5917     5.2145    -999.25    10.5954     0.2481     0.2481 20324.4883     2.4163     3.4291     3.4291    11.7609  -197.9449     0.7446     0.7446     0.9488 -1492.6000    33.8283     0.1847    20.0000
  1580.0984  6266.7969 6267761.5000    -999.25     8.9639     8.9639     1.6675     4.5775   118.0106     2.0000    -999.25    69.6255     3.3913     3.6004  1580.0984     0.5929     5.2352    -999.25    10.0179     0.2413     0.2413 20563.5234     2.4263     3.3244     3.3244    11.0514  -197.9394     0.7746     0.7746     0.9549 -1492.7284    34.7930     0.1869    20.0000
  1580.1224  6281.3799 6281380.0000    -999.25     8.9627     8.9627     1.6948     4.5004   117.8465     2.0000    -999.25    69.8794     3.3769     3.5817  1580.1224     0.5931     5.2391    -999.25     9.8814     0.2399     0.2399 20608.2031     2.4286     3.3249     3.3249    11.0550  -197.9384     0.7775     0.7775     0.9554 -1492.7524    35.0299     0.1865    20.0000
