~Version ---------------------------------------------------
VERS. 2.0 : CWLS log ASCII Standard -VERSION 2.0
WRAP.  NO : 
~Well ------------------------------------------------------
STRT.m                                                1239.5456 : 
STOP.m                                                  1697.66 : 
STEP.m                                                   0.1524 : 
NULL.                                                   -999.25 : 
COMP.                                                           : COMPANY
WELL.                                                   Well-16 : WELL
FLD .                                                           : FIELD
LOC .                                                           : LOCATION
SRVC.                                                           : SERVICE COMPANY
DATE. 2021-01-20 14:34:07   : Log Export Date {yyyy-MM-dd HH:mm : ss}
PROV.                                                           : PROVINCE
UWI .                                                   Well-16 : UNIQUE WELL ID
API .                                                           : API NUMBER
~Curve Information -----------------------------------------
DEPTH             .m        : DEPTH
ACOUSTICIMPEDANCE1.kPa.s/m  : ACOUSTICIMPEDANCE1
AI                .kPa.s/m  : AI
AVG_PIGN          .m3/m3    : AVG_PIGN
BIT               .m        : BIT
CALI              .in       : CALI
CALI_1            .in       : CALI_1
NPHI              .m3/m3    : NPHI
DT                .us/ft    : DT
FACIES            ._        : FACIES
FLD1              ._        : FLD1
GR                .gAPI     : GR
M2R2              .ohm.m    : M2R2
LLS               .ohm.m    : LLS
LLD               .ohm.m    : LLD
DEPTH_1           .m        : DEPTH_1
NPHI_1            .m3/m3    : NPHI_1
PEF               .b/e      : PEF
PIGN_MODELLING    .m3/m3    : PIGN_MODELLING
PIMP              .kPa.s/m  : PIMP
RHOB              .g/cm3    : RHOB
RT_MODELLING      .ohm.m    : RT_MODELLING
RT_POWER          .ohm.m    : RT_POWER
SP                .mV       : SP
SUWI_MODELLING    ._        : SUWI_MODELLING
TDVSS             .m        : TDVSS
ZCOR              .g/cm3    : ZCOR
RHOB_1            .g/cm3    : RHOB_1
ZLT               ._        : ZLT
~Params ----------------------------------------------------
~Other -----------------------------------------------------
~ASCII -----------------------------------------------------
# ...
  1510.0556  4433.7183 4433718.0000    -999.25     0.2159     8.9356     9.2356     0.5941   136.4950     0.0000    -999.25    93.6878     3.7506     3.6745     3.8403  1510.0557     0.5941     3.5607     0.0000 14546.3193     1.9855     3.8403    14.7479   192.7320     1.0000 -1429.3356     0.0165     1.9855    12.0000
  1510.2081  4448.4551 4448455.5000    -999.25     0.2159     8.9374     9.2374     0.6057   136.3443     0.0000    -999.25    95.1457     3.7043     3.6267     3.7914  1510.2081     0.6057     3.3918     0.0000 14594.6699     1.9899     3.7914    14.3747   192.8899     1.0000 -1429.4880     0.0087     1.9899    12.0000
  1510.3604  4471.6367 4471637.0000    -999.25     0.2159     8.9358     9.2358     0.5951   136.0260     0.0000    -999.25    96.5141     3.7317     3.6512     3.8189  1510.3605     0.5951     3.3510     0.0000 14670.7246     1.9956     3.8189    14.5840   193.0051     1.0000 -1429.6404     0.0199     1.9956    12.0000
  1510.5128  4504.8472 4504847.5000    -999.25     0.2159     8.9308     9.2308     0.5498   135.7201     0.0000    -999.25    96.8677     3.7691     3.6870     3.8568  1510.5128     0.5498     3.3674     0.0000 14779.6826     2.0059     3.8568    14.8749   193.1107     1.0000 -1429.7928     0.0290     2.0059    12.0000
  1510.6652  4478.4189 4478419.0000    -999.25     0.2159     8.9289     9.2289     0.5214   135.7111     0.0000    -999.25    95.2052     3.8139     3.7339     3.9032  1510.6652     0.5214     3.1960     0.0000 14692.9756     1.9940     3.9032    15.2350   193.1940     1.0000 -1429.9452     0.0169     1.9940    12.0000
  1510.8176  4336.1514 4336151.5000    -999.25     0.2159     8.9326     9.2326     0.5174   136.2906     0.0000    -999.25    91.8451     3.9967     3.9147     4.0925  1510.8176     0.5174     2.9108     0.0000 14226.2188     1.9389     4.0925    16.7486   193.2458     1.0000 -1430.0977     0.0007     1.9389    12.0000
  1510.9700  4126.0747 4126074.7500    -999.25     0.2159     8.9388     9.2388     0.5188   137.8002     0.0000    -999.25    89.1402     4.4280     4.3350     4.5390  1510.9700     0.5188     2.8237     0.0000 13536.9912     1.8654     4.5390    20.6025   193.2757     1.0000 -1430.2500     0.0037     1.8654    12.0000
  1511.1224  3961.8345 3961834.5000    -999.25     0.2159     8.9422     9.2422     0.5415   139.4276     0.0000    -999.25    88.8592     5.0616     4.9495     5.1939  1511.1224     0.5415     2.9301     0.0000 12998.1445     1.8123     5.1939    26.9766   193.3069     1.0000 -1430.4025     0.0160     1.8123    12.0000
  1511.2748  3889.2876 3889287.7500    -999.25     0.2159     8.9393     9.2393     0.5768   140.0064     0.0000    -999.25    88.3635     5.6066     5.4775     5.7495  1511.2748     0.5768     3.0038     0.0000 12760.1299     1.7865     5.7495    33.0567   193.3304     1.0000 -1430.5548     0.0143     1.7865    12.0000
  1511.4272  3877.0344 3877034.2500    -999.25     0.2159     8.9369     9.2369     0.5923   139.6077     0.0000    -999.25    85.7406     5.8211     5.6918     5.9598  1511.4272     0.5923     3.0075     0.0000 12719.9287     1.7758     5.9598    35.5192   193.2969     1.0000 -1430.7073     0.0040     1.7758    12.0000
  1511.5797  3880.2585 3880258.5000    -999.25     0.2159     8.9415     9.2415     0.6032   138.8790     3.0000    -999.25    83.4116     5.8851     5.7557     6.0051  1511.5797     0.6032     2.9606     0.0000 12730.5068     1.7680     6.0051    36.0612   193.2309     1.0000 -1430.8596     0.0035     1.7680    12.0000
  1511.7320  3857.4219 3857421.7500    -999.25     0.2159     8.9489     9.2489     0.6180   138.7846     3.0000    -999.25    82.4852     6.1274     5.9834     6.2325  1511.7321     0.6180     2.9588     0.0000 12655.5840     1.7564     6.2325    38.8441   193.2511     1.0000 -1431.0120     0.0089     1.7564    12.0000
  1511.8845  3833.4563 3833456.2500    -999.25     0.2159     8.9496     9.2496     0.5976   139.0400     3.0000    -999.25    81.3690     6.4198     6.2307     6.4862  1511.8845     0.5976     3.1066     0.0000 12576.9561     1.7487     6.4862    42.0708   193.3998     1.0000 -1431.1644     0.0122     1.7487    12.0000
  1512.0368  3873.5210 3873521.0000    -999.25     0.2159     8.9431     9.2430     0.5492   138.4281     3.0000    -999.25    79.4334     6.3232     6.0969     6.3409  1512.0369     0.5492     3.3734     0.0000 12708.4023     1.7592     6.3409    40.2070   193.6485     1.0000 -1431.3168     0.0137     1.7592    12.0000
  1512.1893  3995.6665 3995666.5000    -999.25     0.2159     8.9399     9.2399     0.5228   136.8053     3.0000    -999.25    77.5462     5.6393     5.4030     5.5945  1512.1893     0.5228     3.8729     0.0000 13109.1416     1.7934     5.5945    31.2984   194.0071     1.0000 -1431.4692     0.0112     1.7934    12.0000
  1512.3416  4169.2085 4169208.2500    -999.25     0.2159     8.9541     9.2541     0.5149   136.1333     3.0000    -999.25    77.7553     4.3391     4.1678     4.2755  1512.3417     0.5149     4.8945     0.0000 13678.5049     1.8621     4.2755    18.2799   194.5011     1.0000 -1431.6216     0.0131     1.8621    12.0000
  1512.4940  4439.7534 4439753.5000    -999.25     0.2159     9.0067     9.3067     0.4969   137.0715     3.0000    -999.25    81.6322     2.9202     2.8284     2.8715  1512.4940     0.4969     6.4494     0.0000 14566.1201     1.9966     2.8715     8.2455   195.1529     1.0000 -1431.7740     0.0527     1.9966    12.0000
  1512.6464  5177.1870 5177187.0000    -999.25     0.2159     9.0856     9.3856     0.4667   129.6987     3.0000    -999.25    85.7142     2.0970     2.0364     2.0543  1512.6464     0.4667     7.8678     0.0000 16985.5215     2.2030     2.0543     4.2201   195.9395     1.0000 -1431.9264     0.1081     2.2030    12.0000
  1512.7988  6480.4121 6480412.0000    -999.25     0.2159     9.1152     9.4152     0.4379   114.8054     3.0000    -999.25    85.2368     1.8842     1.8275     1.8386  1512.7988     0.4379     8.3351     0.0000 21261.1934     2.4409     1.8386     3.3805   196.6433     1.0000 -1432.0789     0.1086     2.4409    12.0000
  1512.9512  7623.8408 7623841.0000    -999.25     0.2159     9.1000     9.4000     0.4200   104.3474     3.0000    -999.25    83.8744     1.9790     1.9163     1.9246  1512.9512     0.4200     7.9475     0.0000 25012.6016     2.6100     1.9246     3.7041   197.0145     1.0000 -1432.2312     0.0652     2.6100    12.0000
  1513.1036  7944.0098 7944010.0000    -999.25     0.2159     9.0992     9.3992     0.4198    99.7390     0.0000    -999.25    88.2741     1.9226     1.8623     1.8676  1513.1036     0.4198     7.5873     0.0000 26063.0234     2.5995     1.8676     3.4879   197.1202     1.0000 -1432.3837     0.0622     2.5995    12.0000
  1513.2560  7385.0747 7385074.5000    -999.25     0.2159     9.1267     9.4267     0.4313   104.2294     0.0000    -999.25    98.6323     1.6615     1.6131     1.6154  1513.2560     0.4313     7.4778     0.0000 24229.2480     2.5254     1.6154     2.6095   197.2333     1.0000 -1432.5360     0.1472     2.5254    12.0000
  1513.4084  6717.2974 6717297.5000    -999.25     0.2159     9.1712     9.4712     0.4493   113.4884     0.0000    -999.25   108.7192     1.5315     1.4939     1.4954  1513.4084     0.4493     7.2718     0.0000 22038.3770     2.5011     1.4954     2.2362   197.3861     1.0000 -1432.6885     0.2020     2.5011    12.0000
  1513.5609  6604.4585 6604458.5000    -999.25     0.2159     9.1817     9.4817     0.4733   115.8658     0.0000    -999.25   112.6280     1.6021     1.5665     1.5676  1513.5609     0.4733     6.9104     0.0000 21668.1699     2.5106     1.5676     2.4574   197.3339     1.0000 -1432.8408     0.1711     2.5106    12.0000
  1513.7132  6940.0356 6940035.5000    -999.25     0.2159     9.0993     9.3993     0.4930   111.4315     0.0000    -999.25   110.1858     1.8001     1.7619     1.7632  1513.7133     0.4930     6.5048     0.0000 22769.1465     2.5372     1.7632     3.1089   196.9266     1.0000 -1432.9932     0.1002     2.5372    12.0000
