~Version ---------------------------------------------------
VERS. 2.0 : CWLS log ASCII Standard -VERSION 2.0
WRAP.  NO : 
~Well ------------------------------------------------------
STRT.m                                                   1300.0 : 
STOP.m                                                 1514.884 : 
STEP.m                                                   0.1524 : 
NULL.                                                   -999.25 : 
COMP.                                                           : COMPANY
WELL.                                                    Well-2 : WELL
FLD .                                                           : FIELD
LOC .                                                           : LOCATION
SRVC.                                                           : SERVICE COMPANY
DATE. 2021-01-20 14:33:59   : Log Export Date {yyyy-MM-dd HH:mm : ss}
PROV.                                                           : PROVINCE
UWI .                                                    Well-2 : UNIQUE WELL ID
API .                                                           : API NUMBER
~Curve Information -----------------------------------------
DEPTH             .m        : DEPTH
ACOUSTICIMPEDANCE1.kPa.s/m  : ACOUSTICIMPEDANCE1
AI                .kPa.s/m  : AI
AVG_PIGN          .m3/m3    : AVG_PIGN
CALI              .in       : CALI
CALI[DERIVED]1    .in       : CALI[DERIVED]1
DT                .us/ft    : DT
FACIES            ._        : FACIES
FLD1              ._        : FLD1
GR                .gAPI     : GR
LLD               .ohm.m    : LLD
LLS               .ohm.m    : LLS
LL3               .ohm.m    : LL3
DEPTH_1           .m        : DEPTH_1
NPHI              .m3/m3    : NPHI
PERF_INT          ._        : PERF_INT
PERMEABILITY      .mD       : PERMEABILITY
PIGN              .m3/m3    : PIGN
PIGN_MODELLING    .m3/m3    : PIGN_MODELLING
PIMP              .kPa.s/m  : PIMP
RHOB              .g/cm3    : RHOB
RT_MODELLING      .ohm.m    : RT_MODELLING
RT_POWER          .ohm.m    : RT_POWER
SP                .mV       : SP
SUWI              ._        : SUWI
SUWI_MODELLING    ._        : SUWI_MODELLING
TDVSS             .m        : TDVSS
VCL               .%        : VCL
WATER_VOL         ._        : WATER_VOL
ZLT               ._        : ZLT
~Params ----------------------------------------------------
~Other -----------------------------------------------------
~ASCII -----------------------------------------------------
# ...
  1313.3832  4426.6060 4426606.0000    -999.25    10.0161    10.0161   145.2310     0.0000    -999.25    65.1403     1.1538     1.1635     1.2804  1313.3832     0.5554    -999.25    -999.25     0.0239     0.0239 14522.9863     2.1092     1.1538     1.3313    55.2870     1.0000     1.0000 -1237.3832    81.7011     0.0239    -999.25
  1313.4112  4432.7778 4432454.5000    -999.25    10.0169    10.0169   145.1390     0.0000    -999.25    65.0036     1.1540     1.1645     1.2834  1313.4111     0.5537    -999.25    -999.25     0.0241     0.0241 14542.1738     2.1108     1.1540     1.3317    55.2559     1.0000     1.0000 -1237.4111    81.5280     0.0241    -999.25
  1313.5356  4458.4375 4458437.5000    -999.25    10.0244    10.0244   144.7300     0.0000    -999.25    64.5375     1.1551     1.1680     1.2920  1313.5356     0.5639    -999.25    -999.25     0.0229     0.0229 14627.4189     2.1170     1.1551     1.3342    55.1606     1.0000     1.0000 -1237.5356    82.4243     0.0229    -999.25
  1313.5636  4462.6396 4461731.0000    -999.25    10.0261    10.0261   144.6896     0.0000    -999.25    64.4326     1.1553     1.1688     1.2940  1313.5636     0.5662    -999.25    -999.25     0.0227     0.0227 14638.2246     2.1184     1.1553     1.3347    55.1392     1.0000     1.0000 -1237.5636    82.6260     0.0227    -999.25
  1313.6880  4476.3633 4476363.5000    -999.25    10.0287    10.0287   144.5100     0.0000    -999.25    64.1246     1.1573     1.1720     1.2994  1313.6880     0.5897    -999.25    -999.25     0.0224     0.0224 14686.2324     2.1223     1.1573     1.3394    55.0905     1.0000     1.0000 -1237.6880    82.7868     0.0224    -999.25
  1313.7160  4477.7148 4476873.0000    -999.25    10.0293    10.0293   144.5258     0.0000    -999.25    64.0553     1.1578     1.1727     1.3006  1313.7159     0.5950    -999.25    -999.25     0.0224     0.0224 14687.9043     2.1232     1.1578     1.3405    55.0796     1.0000     1.0000 -1237.7159    82.8230     0.0224    -999.25
  1313.8405  4479.1396 4479139.5000    -999.25    10.0338    10.0338   144.5960     0.0000    -999.25    64.5621     1.1607     1.1760     1.3009  1313.8406     0.6209    -999.25    -999.25     0.0224     0.0224 14695.3398     2.1249     1.1607     1.3471    55.0993     1.0000     1.0000 -1237.8406    82.8230     0.0224    -999.25
  1313.8684  4477.2969 4476749.0000    -999.25    10.0348    10.0348   144.6816     0.0000    -999.25    64.6757     1.1613     1.1768     1.3010  1313.8684     0.6267    -999.25    -999.25     0.0224     0.0224 14687.4971     2.1253     1.1613     1.3486    55.1038     1.0000     1.0000 -1237.8684    82.8230     0.0224    -999.25
  1313.9928  4466.0903 4466090.0000    -999.25    10.0466    10.0466   145.0630     0.0000    -999.25    66.0148     1.1644     1.1806     1.2983  1313.9928     0.6427    -999.25    -999.25     0.0224     0.0224 14652.5264     2.1255     1.1644     1.3557    55.1767     1.0000     1.0000 -1237.9928    82.8230     0.0224    -999.25
  1314.0208  4463.9180 4463935.5000    -999.25    10.0493    10.0493   145.1377     0.0000    -999.25    66.3161     1.1650     1.1815     1.2977  1314.0208     0.6463    -999.25    -999.25     0.0224     0.0224 14645.4570     2.1256     1.1650     1.3573    55.1931     1.0000     1.0000 -1238.0208    82.8230     0.0224    -999.25
  1314.1453  4454.3545 4454354.5000    -999.25    10.0622    10.0622   145.4700     0.0000    -999.25    67.5729     1.1678     1.1860     1.2949  1314.1453     0.6450    -999.25    -999.25     0.0224     0.0224 14614.0244     2.1259     1.1678     1.3638    55.2785     1.0000     1.0000 -1238.1453    82.8230     0.0224    -999.25
  1314.1732  4455.0298 4455497.0000    -999.25    10.0651    10.0651   145.4526     0.0000    -999.25    67.8546     1.1684     1.1870     1.2943  1314.1731     0.6447    -999.25    -999.25     0.0224     0.0224 14617.7725     2.1260     1.1684     1.3653    55.2977     1.0000     1.0000 -1238.1731    82.8230     0.0224    -999.25
  1314.2976  4460.5913 4460591.5000    -999.25    10.0729    10.0729   145.3750     0.0000    -999.25    68.6568     1.1706     1.1918     1.2983  1314.2976     0.6331    -999.25    -999.25     0.0224     0.0224 14634.4854     2.1275     1.1706     1.3702    55.3690     1.0000     1.0000 -1238.2976    82.8230     0.0224    -999.25
  1314.3256  4465.2158 4465777.5000    -999.25    10.0747    10.0747   145.2478     0.0000    -999.25    68.8374     1.1710     1.1929     1.2992  1314.3256     0.6305    -999.25    -999.25     0.0224     0.0224 14651.5010     2.1278     1.1710     1.3713    55.3851     1.0000     1.0000 -1238.3256    82.8230     0.0224    -999.25
  1314.4501  4488.8374 4488837.5000    -999.25    10.0673    10.0673   144.6820     0.0000    -999.25    68.4625     1.1720     1.1969     1.3049  1314.4501     0.6298    -999.25    -999.25     0.0224     0.0224 14727.1572     2.1308     1.1720     1.3736    55.4706     1.0000     1.0000 -1238.4501    82.8230     0.0224    -999.25
  1314.4780  4495.7510 4496056.0000    -999.25    10.0657    10.0657   144.5039     0.0000    -999.25    68.3785     1.1722     1.1978     1.3061  1314.4779     0.6296    -999.25    -999.25     0.0224     0.0224 14750.8398     2.1314     1.1722     1.3741    55.4898     1.0000     1.0000 -1238.4779    82.8230     0.0224    -999.25
  1314.6024  4528.2407 4528241.0000    -999.25    10.0520    10.0520   143.7100     0.0000    -999.25    67.1729     1.1722     1.1990     1.3190  1314.6024     0.6497    -999.25    -999.25     0.0224     0.0224 14856.4336     2.1350     1.1722     1.3741    55.5909     1.0000     1.0000 -1238.6024    82.8230     0.0224    -999.25
  1314.6304  4535.1060 4534942.5000    -999.25    10.0489    10.0489   143.5470     0.0000    -999.25    66.9016     1.1722     1.1993     1.3219  1314.6304     0.6543    -999.25    -999.25     0.0224     0.0224 14878.4199     2.1358     1.1722     1.3741    55.6137     1.0000     1.0000 -1238.6304    82.8230     0.0224    -999.25
  1314.7548  4564.7158 4564716.0000    -999.25    10.0398    10.0398   142.8230     0.0000    -999.25    65.7652     1.1719     1.1964     1.3271  1314.7548     0.6856    -999.25    -999.25     0.0222     0.0222 14976.1016     2.1389     1.1719     1.3733    55.6598     1.0000     1.0000 -1238.7548    82.1439     0.0222    -999.25
  1314.7828  4567.6274 4566920.0000    -999.25    10.0378    10.0378   142.7785     0.0000    -999.25    65.5094     1.1718     1.1957     1.3283  1314.7827     0.6927    -999.25    -999.25     0.0222     0.0222 14983.3330     2.1396     1.1718     1.3731    55.6702     1.0000     1.0000 -1238.7827    81.9910     0.0222    -999.25
  1314.9072  4576.7134 4576713.0000    -999.25    10.0350    10.0350   142.5810     0.0000    -999.25    65.0260     1.1725     1.1898     1.3252  1314.9072     0.7137    -999.25    -999.25     0.0182     0.0182 15015.4629     2.1409     1.1725     1.3748    55.6180     1.0000     1.0000 -1238.9072    67.2312     0.0182    -999.25
  1314.9352  4574.1982 4573621.0000    -999.25    10.0343    10.0343   142.6787     0.0000    -999.25    64.9172     1.1727     1.1885     1.3245  1314.9352     0.7184    -999.25    -999.25     0.0173     0.0173 15005.3184     2.1412     1.1727     1.3752    55.6063     1.0000     1.0000 -1238.9352    63.9090     0.0173    -999.25
  1315.0596  4559.8833 4559883.5000    -999.25    10.0338    10.0338   143.1130     0.0000    -999.25    64.2407     1.1768     1.1829     1.3214  1315.0596     0.7168    -999.25    -999.25     0.0033     0.0113 14960.2471     2.1410     1.1768     1.3850    55.5190     1.0000     1.0000 -1239.0596    11.7418     0.0033    -999.25
  1315.0876  4554.9727 4555205.5000    -999.25    10.0337    10.0337   143.2642     0.0000    -999.25    64.0884     1.1778     1.1816     1.3207  1315.0875     0.7164    -999.25    -999.25     0.0001     0.0100 14944.8994     2.1410     1.1778     1.3872    55.4994     1.0000     1.0000 -1239.0875     0.0000     0.0001    -999.25
  1315.2120  4534.4224 4534422.5000    -999.25    10.0413    10.0413   143.9360     0.0000    -999.25    64.1275     1.1891     1.1800     1.3189  1315.2120     0.6941    -999.25    -999.25     0.0001     0.0100 14876.7139     2.1413     1.1891     1.4140    55.4097     1.0000     1.0000 -1239.2120     0.0000     0.0001    -999.25
