~Version ---------------------------------------------------
VERS. 2.0 : CWLS log ASCII Standard -VERSION 2.0
WRAP.  NO : 
~Well ------------------------------------------------------
STRT.m                                                1239.5456 : 
STOP.m                                                  1697.66 : 
STEP.m                                                   0.1524 : 
NULL.                                                   -999.25 : 
COMP.                                                           : COMPANY
WELL.                                                   Well-16 : WELL
FLD .                                                           : FIELD
LOC .                                                           : LOCATION
SRVC.                                                           : SERVICE COMPANY
DATE. 2021-01-20 14:34:07   : Log Export Date {yyyy-MM-dd HH:mm : ss}
PROV.                                                           : PROVINCE
UWI .                                                   Well-16 : UNIQUE WELL ID
API .                                                           : API NUMBER
~Curve Information -----------------------------------------
DEPTH             .m        : DEPTH
ACOUSTICIMPEDANCE1.kPa.s/m  : ACOUSTICIMPEDANCE1
AI                .kPa.s/m  : AI
AVG_PIGN          .m3/m3    : AVG_PIGN
BIT               .m        : BIT
CALI              .in       : CALI
CALI_1            .in       : CALI_1
NPHI              .m3/m3    : NPHI
DT                .us/ft    : DT
FACIES            ._        : FACIES
FLD1              ._        : FLD1
GR                .gAPI     : GR
M2R2              .ohm.m    : M2R2
LLS               .ohm.m    : LLS
LLD               .ohm.m    : LLD
DEPTH_1           .m        : DEPTH_1
NPHI_1            .m3/m3    : NPHI_1
PEF               .b/e      : PEF
PIGN_MODELLING    .m3/m3    : PIGN_MODELLING
PIMP              .kPa.s/m  : PIMP
RHOB              .g/cm3    : RHOB
RT_MODELLING      .ohm.m    : RT_MODELLING
RT_POWER          .ohm.m    : RT_POWER
SP                .mV       : SP
SUWI_MODELLING    ._        : SUWI_MODELLING
TDVSS             .m        : TDVSS
ZCOR              .g/cm3    : ZCOR
RHOB_1            .g/cm3    : RHOB_1
ZLT               ._        : ZLT
~Params ----------------------------------------------------
~Other -----------------------------------------------------
~ASCII -----------------------------------------------------
# ...
  1452.9056  2983.2256 2983225.5000    -999.25     0.2159     8.7402     9.0402     0.5520   140.6490     3.0000    -999.25    29.0900     8.8616     9.0984     9.6789  1452.9056     0.5520     3.5840     0.0000  9787.4854     1.3766     9.6789    93.6811   186.0928     1.0000 -1372.1857    -0.0101     1.3766     5.0000
  1453.0580  3841.4771 3841477.0000    -999.25     0.2159     8.7399     9.0399     0.5176   130.9422     3.0000    -999.25    42.5059     5.0243     5.1782     5.5198  1453.0580     0.5176     4.0468     0.0000 12603.2705     1.6503     5.5198    30.4682   186.3604     1.0000 -1372.3380    -0.0069     1.6503     5.0000
  1453.2104  4996.2495 4996249.5000    -999.25     0.2159     8.7351     9.0351     0.4853   121.8590     3.0000    -999.25    57.9051     3.3341     3.4372     3.6633  1453.2104     0.4853     4.2553     0.0000 16391.8945     1.9975     3.6633    13.4198   186.8438     1.0000 -1372.4904    -0.0081     1.9975     5.0000
  1453.3629  5978.6919 5978692.0000    -999.25     0.2159     8.7279     9.0279     0.4561   116.2419     3.0000    -999.25    70.2868     2.7854     2.8732     3.0601  1453.3629     0.4561     4.1128     0.0000 19615.1309     2.2801     3.0601     9.3642   187.2823     1.0000 -1372.6428     0.0130     2.2801     5.0000
  1453.5152  6336.3154 6336315.5000    -999.25     0.2159     8.7244     9.0244     0.4365   115.0832     3.0000     0.0000    76.8679     2.7412     2.8272     3.0071  1453.5153     0.4365     4.0492     0.0000 20788.4375     2.3924     3.0071     9.0427   187.3987     1.0000 -1372.7952     0.0291     2.3924     6.0000
  1453.6677  6378.0981 6378098.5000    -999.25     0.2159     8.7299     9.0299     0.4245   115.6865     0.0000     0.0000    79.6780     2.9376     3.0290     3.2171  1453.6677     0.4245     4.1426     0.0000 20925.5195     2.4208     3.2171    10.3497   187.1921     1.0000 -1372.9476     0.0431     2.4208     6.0000
  1453.8200  6526.2197 6526219.5000    -999.25     0.2159     8.7383     9.0383     0.4231   114.2798     0.0000     0.0000    81.3092     3.1942     3.2946     3.4936  1453.8201     0.4231     4.3605     0.0000 21411.4824     2.4469     3.4936    12.2052   186.7700     1.0000 -1373.1000     0.0463     2.4469     6.0000
  1453.9724  6860.1509 6860151.0000    -999.25     0.2159     8.7385     9.0385     0.4343   110.2943     0.0000     0.0000    81.2553     3.3972     3.5034     3.7094  1453.9724     0.4343     4.7583     0.0000 22507.0566     2.4824     3.7094    13.7596   186.1248     1.0000 -1373.2524     0.0371     2.4824     6.0000
  1454.1248  7270.0000 7270000.0000    -999.25     0.2159     8.7345     9.0345     0.4368   105.7828     0.0000     0.0000    79.2312     3.5447     3.6527     3.8600  1454.1248     0.4368     5.2631     0.0000 23851.7051     2.5231     3.8600    14.8996   185.2725     1.0000 -1373.4048     0.0299     2.5231     6.0000
  1454.2772  7586.6104 7586610.5000    -999.25     0.2159     8.7359     9.0359     0.4227   102.7663     0.0000     0.0000    76.6157     3.6759     3.7796     3.9856  1454.2772     0.4227     5.5227     0.0000 24890.4531     2.5579     3.9856    15.8850   184.3662     1.0000 -1373.5573     0.0238     2.5579     6.0000
  1454.4296  7711.7686 7711768.5000    -999.25     0.2159     8.7401     9.0401     0.4214   101.3119     0.0000     0.0000    75.1058     3.7632     3.8509     4.0500  1454.4296     0.4214     5.0398     0.0000 25301.0781     2.5633     4.0500    16.4025   183.5783     1.0000 -1373.7096     0.0115     2.5633     6.0000
  1454.5820  7511.2222 7511222.5000    -999.25     0.2159     8.7409     9.0409     0.4396   102.4140     0.0000     0.0000    75.8790     3.7478     3.8037     3.9887  1454.5820     0.4396     4.0718     0.0000 24643.1172     2.5238     3.9887    15.9097   183.0560     1.0000 -1373.8621     0.0029     2.5238     6.0000
  1454.7344  7100.4058 7100406.0000    -999.25     0.2159     8.7372     9.0372     0.4580   104.9053     0.0000     0.0000    78.8052     3.7081     3.7187     3.8849  1454.7344     0.4580     3.2229     0.0000 23295.2949     2.4438     3.8849    15.0924   182.8355     1.0000 -1374.0144     0.0022     2.4438     6.0000
  1454.8868  6573.8545 6573854.5000    -999.25     0.2159     8.7326     9.0326     0.4476   108.2217     0.0000     0.0000    81.0855     3.8106     3.7681     3.9234  1454.8868     0.4476     2.7152     0.0000 21567.7637     2.3341     3.9234    15.3931   182.7136     1.0000 -1374.1669     0.0045     2.3341     6.0000
  1455.0392  6155.8472 6155847.0000    -999.25     0.2159     8.7292     9.0292     0.4031   110.7428     0.0000     0.0000    80.9189     4.0894     3.9806     4.1400  1455.0392     0.4031     2.5776     0.0779 20196.3496     2.2366     4.1400    17.1396   182.3740     0.8851 -1374.3192     0.0147     2.2366     6.0000
  1455.1916  6002.6060 6002606.0000    -999.25     0.2159     8.7285     9.0285     0.3517   110.2440     0.0000     0.0000    79.2743     4.2914     4.1110     4.2680  1455.1917     0.3517     2.6609     0.1551 19693.5898     2.1711     4.2680    18.2158   181.7032     0.7724 -1374.4716     0.0288     2.1711     6.0000
  1455.3441  5945.9292 5945929.5000    -999.25     0.2159     8.7312     9.0312     0.3210   109.5058     0.0000     0.0000    78.1170     4.1511     3.9383     4.0676  1455.3441     0.3210     2.6876     0.1526 19507.6426     2.1362     4.0676    16.5454   180.9252     0.7862 -1374.6240     0.0363     2.1362     6.0000
  1455.4964  5892.0073 5892007.5000    -999.25     0.2159     8.7358     9.0358     0.3161   109.8665     0.0000     0.0000    78.3936     3.8365     3.6291     3.7257  1455.4965     0.3161     2.6563     0.1481 19330.7344     2.1238     3.7257    13.8808   180.3120     0.8124 -1374.7764     0.0375     2.1238     6.0000
  1455.6489  5832.6958 5832696.0000    -999.25     0.2159     8.7364     9.0364     0.3275   111.0203     0.0000     0.0000    77.9311     3.6281     3.4320     3.5039  1455.6489     0.3275     2.6512     0.1444 19136.1406     2.1245     3.5039    12.2773   179.8670     0.8340 -1374.9288     0.0360     2.1245     6.0000
  1455.8012  5751.7065 5751706.5000    -999.25     0.2159     8.7331     9.0331     0.3392   113.0075     0.0000     0.0000    75.6227     3.5756     3.3847     3.4386  1455.8013     0.3392     2.6061     0.1430 18870.4277     2.1325     3.4386    11.8240   179.4678     0.8422 -1375.0812     0.0354     2.1325     6.0000
  1455.9536  5733.2769 5733277.0000    -999.25     0.2159     8.7304     9.0304     0.3396   114.1310     0.0000     0.0000    74.3200     3.6349     3.4450     3.4831  1455.9536     0.3396     2.6257     0.1436 18809.9629     2.1468     3.4831    12.1320   179.1592     0.8391 -1375.2336     0.0367     2.1468     6.0000
  1456.1060  5760.9692 5760969.0000    -999.25     0.2159     8.7299     9.0300     0.3365   113.7517     0.0000     0.0000    75.8363     3.7419     3.5544     3.5748  1456.1060     0.3365     2.7629     0.1452 18900.8164     2.1500     3.5748    12.7792   179.0445     0.8297 -1375.3860     0.0368     2.1500     6.0000
  1456.2584  5726.4268 5726427.0000    -999.25     0.2159     8.7275     9.0275     0.3412   112.2449     0.0000     0.0000    76.3917     3.8839     3.7004     3.6992  1456.2584     0.3412     2.6152     0.1481 18787.4902     2.1088     3.6992    13.6841   179.1290     0.8128 -1375.5385     0.0265     2.1088     6.0000
  1456.4108  5337.0332 5337033.5000    -999.25     0.2159     8.7236     9.0236     0.3659   112.3818     3.0000     0.0000    72.5436     4.2574     4.0596     4.0288  1456.4108     0.3659     2.0435     0.1546 17509.9512     1.9678     4.0288    16.2312   179.3874     0.7757 -1375.6908    -0.0185     1.9678     6.0000
  1456.5632  4543.4429 4543442.5000    -999.25     0.2159     8.7257     9.0257     0.4237   117.5073     3.0000     0.0000    65.1158     5.2352     4.9714     4.8858  1456.5632     0.4237     1.7329     0.0793 14906.3076     1.7516     4.8858    23.8710   179.7946     0.8753 -1375.8433    -0.0670     1.7516     6.0000
