~Version ---------------------------------------------------
VERS. 2.0 : CWLS log ASCII Standard -VERSION 2.0
WRAP.  NO : 
~Well ------------------------------------------------------
STRT.m                                                   1280.0 : 
STOP.m                                                 1564.988 : 
STEP.m                                                   0.1524 : 
NULL.                                                   -999.25 : 
COMP.                                                           : COMPANY
WELL.                                                   Well-11 : WELL
FLD .                                                           : FIELD
LOC .                                                           : LOCATION
SRVC.                                                           : SERVICE COMPANY
DATE. 2021-01-20 14:34:05   : Log Export Date {yyyy-MM-dd HH:mm : ss}
PROV.                                                           : PROVINCE
UWI .                                                   Well-11 : UNIQUE WELL ID
API .                                                           : API NUMBER
~Curve Information -----------------------------------------
DEPTH             .m        : DEPTH
ACOUSTICIMPEDANCE1.kPa.s/m  : ACOUSTICIMPEDANCE1
AI                .kPa.s/m  : AI
AVG_PIGN          .m3/m3    : AVG_PIGN
CALI              .in       : CALI
CALI[DERIVED]1    .in       : CALI[DERIVED]1
DFL               .ohm.m    : DFL
DT                .us/ft    : DT
DT1               .us/ft    : DT1
FACIES            ._        : FACIES
FLD1              ._        : FLD1
GR                .gAPI     : GR
HDRS              .ohm.m    : HDRS
HMRS              .ohm.m    : HMRS
DEPTH_1           .m        : DEPTH_1
NPHI              .m3/m3    : NPHI
PERF_INT          ._        : PERF_INT
PERMEABILITY      .mD       : PERMEABILITY
PIGN              .m3/m3    : PIGN
PIGN_MODELLING    .m3/m3    : PIGN_MODELLING
PIMP              .kPa.s/m  : PIMP
RHOB              .g/cm3    : RHOB
LLD               .ohm.m    : LLD
RT_MODELLING      .ohm.m    : RT_MODELLING
RT_POWER          .ohm.m    : RT_POWER
SP                .mV       : SP
SUWI              ._        : SUWI
SUWI_MODELLING    ._        : SUWI_MODELLING
SXWI              ._        : SXWI
TDVSS             .m        : TDVSS
VCL               .%        : VCL
WATER_VOL         ._        : WATER_VOL
ZLT               ._        : ZLT
~Params ----------------------------------------------------
~Other -----------------------------------------------------
~ASCII -----------------------------------------------------
# ...
  1430.8760  8047.8960 8034300.5000    -999.25     9.0040     9.0040     4.0352   104.0117   104.0121     0.0000    -999.25    85.5678     3.2630     3.1742  1430.8760     0.4666    -999.25     0.7573     0.0488     0.0488 26359.2539     2.7463     3.2802     3.2802    10.7597   133.4534     1.0000     1.0000     1.0000 -1350.7560    62.5890     0.0488    10.0000
  1430.8956  8117.4814 8117481.5000    -999.25     9.0089     9.0089     4.1090   103.4400   103.2808     0.0000    -999.25    84.1282     3.3152     3.2267  1430.8955     0.4648    -999.25     0.7986     0.0497     0.0497 26632.1562     2.7548     3.3376     3.3376    11.1616   133.4202     1.0000     1.0000     1.0000 -1350.7755    61.8886     0.0497    10.0000
  1431.0284  8718.6729 8690965.0000    -999.25     9.0422     9.0422     4.6089    98.3255    98.3261     2.0000    -999.25    74.3741     3.6688     3.5823  1431.0284     0.4523    -999.25     1.0783     0.0559     0.0559 28513.6660     2.8126     3.7262     3.7262    13.8846   133.1954     1.0000     1.0000     1.0000 -1350.9084    57.1430     0.0559    10.0000
  1431.0480  8775.6064 8775606.0000    -999.25     9.0580     9.0580     4.8036    97.5707    97.7925     2.0000    -999.25    73.0948     3.7635     3.6762  1431.0480     0.4532    -999.25     1.0682     0.0559     0.0559 28791.3594     2.8092     3.8264     3.8264    14.7097   133.1900     1.0000     1.0000     1.0000 -1350.9280    57.1332     0.0559    10.0000
  1431.1808  9018.0557 8981331.0000    -999.25     9.1651     9.1651     6.1233    94.1765    94.1768     2.0000    -999.25    64.4266     4.4053     4.3127  1431.1808     0.4593    -999.25     0.9995     0.0560     0.0560 29466.3105     2.7864     4.5056     4.5056    20.3004   133.1534     1.0000     1.0000     1.0000 -1351.0608    57.0670     0.0560    10.0000
  1431.2004  9011.6943 9011694.0000    -999.25     9.1801     9.1801     6.3643    93.6755    94.2550     2.0000    -999.25    63.9968     4.4624     4.3754  1431.2003     0.4626    -999.25     0.9371     0.0549     0.0549 29565.9258     2.7696     4.5563     4.5563    20.7773   133.1559     1.0000     1.0000     1.0000 -1351.0803    57.9333     0.0549    10.0000
  1431.3332  8540.6748 8548682.0000    -999.25     9.2818     9.2818     7.9972    94.7850    94.7848     0.0000    -999.25    61.0845     4.8491     4.8001  1431.3333     0.4843    -999.25     0.5142     0.0472     0.0472 28046.8574     2.6559     4.8998     4.8998    24.0080   133.1728     1.0000     1.0000     1.0000 -1351.2133    63.8030     0.0472    10.0000
  1431.3528  8480.3467 8480346.0000    -999.25     9.2769     9.2769     7.9946    94.9487    95.2032     0.0000    -999.25    61.4828     4.8038     4.7670  1431.3528     0.4882    -999.25     0.4758     0.0458     0.0458 27822.6582     2.6417     4.8404     4.8404    23.4535   133.1671     1.0000     1.0000     1.0000 -1351.2328    64.8715     0.0458    10.0000
  1431.4856  7913.9048 7945017.0000    -999.25     9.2439     9.2439     7.9766    98.0379    98.0375     0.0000    -999.25    64.1815     4.4974     4.5431  1431.4856     0.5147    -999.25     0.2155     0.0364     0.0364 26066.3281     2.5455     4.4380     4.4380    19.6958   133.1287     1.0000     1.0000     1.0000 -1351.3656    72.1110     0.0364    10.0000
  1431.5052  7866.0073 7866007.5000    -999.25     9.2304     9.2304     7.7707    98.4938    98.4990     0.0000    -999.25    64.9296     4.4324     4.4811  1431.5051     0.5171    -999.25     0.2053     0.0356     0.0356 25807.1113     2.5418     4.3722     4.3722    19.1451   133.1495     1.0000     1.0000     1.0000 -1351.3851    72.6782     0.0356    10.0000
  1431.6380  7549.6260 7560875.5000    -999.25     9.1393     9.1393     6.3755   101.6258   101.6254     0.0000    -999.25    69.9981     3.9919     4.0607  1431.6381     0.5329    -999.25     0.1363     0.0306     0.0306 24806.0234     2.5172     3.9260     3.9260    15.4135   133.2906     1.0000     1.0000     1.0000 -1351.5181    76.5210     0.0306    10.0000
  1431.6576  7515.8413 7515841.0000    -999.25     9.1410     9.1410     6.2329   102.0880   101.8773     0.0000    -999.25    70.5046     3.9644     4.0281  1431.6576     0.5328    -999.25     0.1366     0.0306     0.0306 24658.2715     2.5173     3.9042     3.9042    15.2459   133.3258     1.0000     1.0000     1.0000 -1351.5376    76.5372     0.0306    10.0000
  1431.7904  7410.0063 7414337.5000    -999.25     9.1522     9.1522     5.2664   103.5834   103.5842     0.0000    -999.25    73.9359     3.7782     3.8076  1431.7904     0.5323    -999.25     0.1383     0.0305     0.0305 24325.2539     2.5182     3.7564     3.7564    14.1105   133.5643     1.0000     1.0000     1.0000 -1351.6704    76.6470     0.0305    10.0000
  1431.8101  7399.2798 7399280.0000    -999.25     9.1642     9.1642     5.2305   103.8052   103.6772     0.0000    -999.25    73.9990     3.7762     3.7982  1431.8101     0.5296    -999.25     0.1469     0.0311     0.0311 24275.8535     2.5200     3.7573     3.7573    14.1172   133.5844     1.0000     1.0000     1.0000 -1351.6901    76.1255     0.0311    10.0000
  1431.9428  7398.1855 7397375.5000    -999.25     9.2450     9.2450     4.9891   104.3034   104.3034     0.0000    -999.25    74.4243     3.7623     3.7351  1431.9429     0.5117    -999.25     0.2049     0.0357     0.0357 24269.6035     2.5317     3.7632     3.7632    14.1617   133.7201     1.0000     1.0000     1.0000 -1351.8229    72.6130     0.0357    10.0000
  1431.9624  7397.0938 7397094.0000    -999.25     9.2495     9.2495     4.9602   104.3770   104.3833     0.0000    -999.25    74.2091     3.7719     3.7390  1431.9624     0.5083    -999.25     0.2155     0.0365     0.0365 24268.6797     2.5331     3.7741     3.7741    14.2446   133.7364     1.0000     1.0000     1.0000 -1351.8424    71.9822     0.0365    10.0000
  1432.0952  7386.3091 7380491.5000    -999.25     9.2804     9.2804     4.7643   104.9242   104.9245     0.0000    -999.25    72.7507     3.8370     3.7654  1432.0952     0.4851    -999.25     0.2872     0.0421     0.0421 24214.2109     2.5427     3.8479     3.8479    14.8063   133.8468     1.0000     1.0000     1.0000 -1351.9752    67.7080     0.0421    10.0000
  1432.1149  7378.0288 7378028.5000    -999.25     9.2684     9.2684     4.7796   105.0054   105.0906     0.0000    -999.25    72.2453     3.8784     3.8040  1432.1149     0.4830    -999.25     0.2923     0.0426     0.0426 24206.1309     2.5418     3.8938     3.8938    15.1755   133.8682     1.0000     1.0000     1.0000 -1351.9949    67.3061     0.0426    10.0000
  1432.2476  7277.2515 7274001.0000    -999.25     9.1878     9.1878     4.8830   106.2097   106.2097     0.0000    -999.25    68.8406     4.1569     4.0645  1432.2477     0.4689    -999.25     0.3263     0.0462     0.0462 23864.8320     2.5358     4.2026     4.2026    17.6618   134.0124     1.0000     1.0000     1.0000 -1352.1277    64.5990     0.0462    10.0000
  1432.2672  7258.6357 7258636.0000    -999.25     9.1757     9.1757     5.0473   106.3876   106.4923     0.0000    -999.25    68.1468     4.2401     4.1467  1432.2672     0.4694    -999.25     0.3253     0.0462     0.0462 23814.4219     2.5336     4.2913     4.2913    18.4683   134.0254     1.0000     1.0000     1.0000 -1352.1472    64.6143     0.0462    10.0000
  1432.4000  7080.5439 7080133.5000    -999.25     9.0940     9.0940     6.1602   108.4071   108.4068     0.0000    -999.25    63.4459     4.8034     4.7039  1432.4000     0.4733    -999.25     0.3189     0.0460     0.0460 23228.7832     2.5183     4.8921     4.8921    23.9326   134.1133     1.0000     1.0000     1.0000 -1352.2800    64.7180     0.0460    10.0000
  1432.4196  7053.7886 7053788.5000    -999.25     9.0895     9.0895     6.5225   108.7051   108.6833     0.0000    -999.25    62.9161     4.8525     4.7573  1432.4196     0.4770    -999.25     0.2994     0.0447     0.0447 23142.3496     2.5157     4.9354     4.9354    24.3712   134.1099     1.0000     1.0000     1.0000 -1352.2996    65.7429     0.0447    10.0000
