~Version ---------------------------------------------------
VERS. 2.0 : CWLS log ASCII Standard -VERSION 2.0
WRAP.  NO : 
~Well ------------------------------------------------------
STRT.m                                                   1250.0 : 
STOP.m                                                1661.9372 : 
STEP.m                                                   0.1524 : 
NULL.                                                   -999.25 : 
COMP.                                                           : COMPANY
WELL.                                                    Well-7 : WELL
FLD .                                                           : FIELD
LOC .                                                           : LOCATION
SRVC.                                                           : SERVICE COMPANY
DATE. 2021-01-20 14:34:01   : Log Export Date {yyyy-MM-dd HH:mm : ss}
PROV.                                                           : PROVINCE
UWI .                                                    Well-7 : UNIQUE WELL ID
API .                                                           : API NUMBER
~Curve Information -----------------------------------------
DEPTH             .m        : DEPTH
ACOUSTICIMPEDANCE1.kPa.s/m  : ACOUSTICIMPEDANCE1
AI                .kPa.s/m  : AI
AVG_PIGN          .m3/m3    : AVG_PIGN
CALI              .in       : CALI
CALI[DERIVED]1    .in       : CALI[DERIVED]1
DEVI              .deg      : DEVI
DFL               .ohm.m    : DFL
DT                .us/ft    : DT
FACIES            ._        : FACIES
FLD1              ._        : FLD1
GR                .gAPI     : GR
HDRS              .ohm.m    : HDRS
HMRS              .ohm.m    : HMRS
DEPTH_1           .m        : DEPTH_1
NPHI              .m3/m3    : NPHI
PEF               .b/e      : PEF
PERF_INT          ._        : PERF_INT
PERMEABILITY      .mD       : PERMEABILITY
PIGN              .m3/m3    : PIGN
PIGN_MODELLING    .m3/m3    : PIGN_MODELLING
PIMP              .kPa.s/m  : PIMP
RHOB              .g/cm3    : RHOB
LLD               .ohm.m    : LLD
RT_MODELLING      .ohm.m    : RT_MODELLING
RT_POWER          .ohm.m    : RT_POWER
SP                .mV       : SP
SUWI              ._        : SUWI
SUWI_MODELLING    ._        : SUWI_MODELLING
SXWI              ._        : SXWI
TDVSS             .m        : TDVSS
VCL               .%        : VCL
WATER_VOL         ._        : WATER_VOL
ZLT               ._        : ZLT
~Params ----------------------------------------------------
~Other -----------------------------------------------------
~ASCII -----------------------------------------------------
# ...
  1441.1096  2472.7673 2485501.5000    -999.25     8.8596     8.8596     0.7760    30.5762   147.7291     3.0000    -999.25    17.2281    22.8758    26.1628  1441.1096     0.9009     0.3767    -999.25     0.0000     0.0001     0.0100  8154.5327     1.1985    23.3620    23.3620   545.7840  -197.9450     1.0000     1.0000     1.0000 -1353.7396     0.0010     0.0001     5.0000
  1441.1337  2465.9751 2465975.0000    -999.25     8.8574     8.8574     0.7777    30.2089   147.9691     3.0000    -999.25    17.3484    22.9810    26.0516  1441.1337     0.8942     0.3553    -999.25     0.0000     0.0001     0.0100  8090.4697     1.1971    23.0754    23.0754   532.9097  -197.9446     1.0000     1.0000     1.0000 -1353.7637     0.0010     0.0001     5.0000
  1441.2620  2439.2322 2456362.5000    -999.25     8.8455     8.8455     0.7745    28.2532   148.6930     3.0000    -999.25    17.9892    23.5410    25.4599  1441.2620     0.8580     0.3833    -999.25     0.0000     0.0001     0.0100  8058.9321     1.1899    21.5493    21.5493   464.3715  -197.9357     1.0000     1.0000     1.0000 -1353.8920     0.0010     0.0001     5.0000
  1441.2860  2454.5642 2454564.2500    -999.25     8.8485     8.8485     0.7739    28.1559   148.8284     3.0000    -999.25    18.6281    23.1120    24.8765  1441.2860     0.8557     0.3885    -999.25     0.0000     0.0001     0.0100  8053.0327     1.1985    20.8761    20.8761   438.2368  -197.9340     1.0000     1.0000     1.0000 -1353.9160     0.0349     0.0001     5.0000
  1441.4144  2553.6621 2572456.2500    -999.25     8.8645     8.8645     0.7667    27.6354   148.5255     3.0000    -999.25    22.0463    20.8172    21.7553  1441.4144     0.8435     0.5894    -999.25     0.0000     0.0001     0.0100  8439.8174     1.2444    17.2747    17.2747   298.4163  -197.9222     1.0000     1.0000     1.0000 -1354.0444     0.2160     0.0001     5.0000
  1441.4384  2594.4922 2594492.2500    -999.25     8.8679     8.8679     0.7653    27.7150   148.4689     3.0000    -999.25    23.1845    20.0506    20.8957  1441.4384     0.8316     0.6269    -999.25     0.0000     0.0001     0.0100  8512.1133     1.2638    16.4898    16.4898   275.2095  -197.9200     1.0000     1.0000     1.0000 -1354.0684     0.8069     0.0001     5.0000
  1441.5668  2846.2200 2868594.7500    -999.25     8.8862     8.8862     0.7418    28.1411   146.4608     3.0000    -999.25    29.2738    15.9493    16.2966  1441.5668     0.7679     1.0230    -999.25     0.0000     0.0001     0.0100  9411.4014     1.3677    12.2904    12.2904   151.0530  -197.9254     1.0000     1.0000     1.0000 -1354.1968     3.9680     0.0001     5.0000
  1441.5908  2919.8291 2919829.0000    -999.25     8.8888     8.8888     0.7374    27.1139   146.0855     3.0000    -999.25    30.7404    15.1617    15.4764  1441.5908     0.7508     1.0970    -999.25     0.0000     0.0001     0.0100  9579.4922     1.3994    11.6566    11.6566   138.0247  -197.9264     1.0000     1.0000     1.0000 -1354.2208     7.0356     0.0001     5.0000
  1441.7192  3380.2866 3396185.0000    -999.25     8.9027     8.9027     0.7385    21.6181   141.5144     3.0000    -999.25    38.5867    10.9485    11.0879  1441.7192     0.6591     1.7062    -999.25     0.0000     0.0001     0.0100 11142.3398     1.5694     8.2658     8.2658    68.3238  -197.9404     1.0000     1.0000     1.0000 -1354.3492    23.4470     0.0001     5.0000
  1441.7432  3485.2236 3485223.5000    -999.25     8.9013     8.9013     0.7387    20.2605   140.6600     3.0000    -999.25    40.1283    10.3778    10.5152  1441.7432     0.6434     1.8201    -999.25     0.0000     0.0005     0.0100 11434.4609     1.6084     7.8867     7.8867    62.9694  -197.9430     1.0000     1.0000     1.0000 -1354.3732    28.1201     0.0005     5.0000
  1441.8716  4130.9565 4132376.0000    -999.25     8.8935     8.8935     0.7476    12.9971   134.0485     3.0000    -999.25    48.3760     7.3247     7.4513  1441.8716     0.5589     2.5399    -999.25     0.0001     0.0026     0.0100 13557.6641     1.8168     5.8586     5.8586    34.3232  -197.9407     1.0000     1.0000     1.0000 -1354.5016    53.1210     0.0026     5.0000
  1441.8956  4253.3389 4253339.0000    -999.25     8.8932     8.8932     0.7493    12.1291   132.8127     3.0000     0.0000    49.5531     7.0203     7.1526  1441.8956     0.5502     2.6744    -999.25     0.0030     0.0066     0.0128 13954.5244     1.8533     5.6770     5.6770    32.4043  -197.9403     1.0000     1.0000     1.0000 -1354.5256    55.4645     0.0066     6.0000
  1442.0240  4989.5073 4981866.0000    -999.25     8.8919     8.8919     0.7551     7.4855   125.1716     0.0000     0.0000    55.8506     5.3915     5.5547  1442.0240     0.5035     3.3217    -999.25     0.0186     0.0278     0.0278 16344.7061     2.0490     4.7051     4.7051    22.1383  -197.9400     1.0000     1.0000     1.0000 -1354.6541    68.0020     0.0278     6.0000
  1442.0480  5118.0396 5118039.5000    -999.25     8.8926     8.8926     0.7562     7.1827   123.7433     0.0000     0.0000    56.4268     5.2486     5.4128  1442.0480     0.4993     3.4427    -999.25     0.0308     0.0312     0.0312 16791.4688     2.0778     4.6322     4.6322    21.4856  -197.9400     1.0000     1.0000     1.0000 -1354.6780    68.3524     0.0312     6.0000
  1442.1764  5825.0405 5807164.5000    -999.25     8.8962     8.8962     0.8094     5.5626   116.7870     0.0000     0.0000    59.5096     4.4837     4.6535  1442.1764     0.4766     3.9310    -999.25     0.0962     0.0493     0.0493 19052.3770     2.2319     4.2418     4.2418    17.9933  -197.9400     1.0000     1.0000     1.0000 -1354.8064    70.2270     0.0493     6.0000
  1442.2004  5935.9727 5935973.0000    -999.25     8.8955     8.8955     0.8193     5.4985   115.4868     0.0000     0.0000    59.5400     4.4351     4.5986  1442.2004     0.4775     4.0223    -999.25     0.1391     0.0484     0.0484 19474.9766     2.2491     4.2253     4.2253    17.8549  -197.9400     1.0000     1.0000     1.0000 -1354.8304    70.4761     0.0484     6.0000
  1442.3288  6454.1714 6439231.5000    -999.25     8.8918     8.8918     0.8314     5.1552   110.5558     0.0000     0.0000    59.7027     4.1748     4.3046  1442.3287     0.4820     4.3325    -999.25     0.3685     0.0436     0.0436 21126.0879     2.3410     4.1370     4.1370    17.1144  -197.9486     1.0000     1.0000     1.0000 -1354.9587    71.8090     0.0436     6.0000
  1442.3528  6533.2988 6533298.5000    -999.25     8.8910     8.8910     0.8337     5.1836   109.6341     0.0000     0.0000    59.5986     4.1675     4.2875  1442.3528     0.4821     4.3905    -999.25     0.3920     0.0431     0.0431 21434.7070     2.3500     4.1441     4.1441    17.1734  -197.9502     1.0000     1.0000     1.0000 -1354.9828    71.6463     0.0431     6.0000
  1442.4812  6864.6279 6851033.5000    -999.25     8.8868     8.8868     0.8348     5.3355   106.4673     0.0000     0.0000    59.0415     4.1281     4.1961  1442.4812     0.4829     4.5704    -999.25     0.5177     0.0404     0.0404 22477.1445     2.3978     4.1820     4.1820    17.4890  -197.9523     1.0000     1.0000     1.0000 -1355.1112    70.7760     0.0404     6.0000
  1442.5052  6910.4233 6910423.5000    -999.25     8.8835     8.8835     0.8350     5.3879   105.8754     0.0000     0.0000    59.0636     4.1406     4.1988  1442.5051     0.4795     4.6040    -999.25     0.5747     0.0412     0.0412 22671.9922     2.4004     4.1953     4.1953    17.6015  -197.9527     1.0000     1.0000     1.0000 -1355.1351    70.4014     0.0412     6.0000
  1442.6336  7048.8442 7036184.5000    -999.25     8.8660     8.8660     0.8214     5.6677   104.3923     0.0000     0.0000    59.1819     4.2071     4.2130  1442.6335     0.4618     4.6891    -999.25     0.8796     0.0455     0.0455 23084.5957     2.4142     4.2665     4.2665    18.2031  -197.9479     1.0000     1.0000     1.0000 -1355.2635    68.3970     0.0455     6.0000
  1442.6576  7059.6914 7059691.5000    -999.25     8.8597     8.8597     0.8189     5.7393   104.1151     0.0000     0.0000    59.3043     4.2206     4.2207  1442.6576     0.4609     4.7050    -999.25     0.8987     0.0461     0.0461 23161.7168     2.4115     4.2712     4.2712    18.2432  -197.9470     1.0000     1.0000     1.0000 -1355.2876    68.5283     0.0461     6.0000
