~Version ---------------------------------------------------
VERS. 2.0 : CWLS log ASCII Standard -VERSION 2.0
WRAP.  NO : 
~Well ------------------------------------------------------
STRT.m                                                   1280.0 : 
STOP.m                                                 1564.988 : 
STEP.m                                                   0.1524 : 
NULL.                                                   -999.25 : 
COMP.                                                           : COMPANY
WELL.                                                   Well-11 : WELL
FLD .                                                           : FIELD
LOC .                                                           : LOCATION
SRVC.                                                           : SERVICE COMPANY
DATE. 2021-01-20 14:34:05   : Log Export Date {yyyy-MM-dd HH:mm : ss}
PROV.                                                           : PROVINCE
UWI .                                                   Well-11 : UNIQUE WELL ID
API .                                                           : API NUMBER
~Curve Information -----------------------------------------
DEPTH             .m        : DEPTH
ACOUSTICIMPEDANCE1.kPa.s/m  : ACOUSTICIMPEDANCE1
AI                .kPa.s/m  : AI
AVG_PIGN          .m3/m3    : AVG_PIGN
CALI              .in       : CALI
CALI[DERIVED]1    .in       : CALI[DERIVED]1
DFL               .ohm.m    : DFL
DT                .us/ft    : DT
DT1               .us/ft    : DT1
FACIES            ._        : FACIES
FLD1              ._        : FLD1
GR                .gAPI     : GR
HDRS              .ohm.m    : HDRS
HMRS              .ohm.m    : HMRS
DEPTH_1           .m        : DEPTH_1
NPHI              .m3/m3    : NPHI
PERF_INT          ._        : PERF_INT
PERMEABILITY      .mD       : PERMEABILITY
PIGN              .m3/m3    : PIGN
PIGN_MODELLING    .m3/m3    : PIGN_MODELLING
PIMP              .kPa.s/m  : PIMP
RHOB              .g/cm3    : RHOB
LLD               .ohm.m    : LLD
RT_MODELLING      .ohm.m    : RT_MODELLING
RT_POWER          .ohm.m    : RT_POWER
SP                .mV       : SP
SUWI              ._        : SUWI
SUWI_MODELLING    ._        : SUWI_MODELLING
SXWI              ._        : SXWI
TDVSS             .m        : TDVSS
VCL               .%        : VCL
WATER_VOL         ._        : WATER_VOL
ZLT               ._        : ZLT
~Params ----------------------------------------------------
~Other -----------------------------------------------------
~ASCII -----------------------------------------------------
# ...
  1506.3140  6388.5908 6391898.5000    -999.25     9.0050     9.0050     5.7695   112.0194   112.0194     0.0000    -999.25    70.1615     4.0843     3.8956  1506.3141     0.5724    -999.25     0.0002     0.0368     0.0368 20970.7969     2.3479     4.0845     4.0845    16.6831   135.2482     1.0000     1.0000     1.0000 -1426.1941    77.9160     0.0368    22.0000
  1506.3336  6375.5664 6375566.0000    -999.25     9.0026     9.0026     5.7438   112.1145   112.1813     0.0000    -999.25    69.7474     4.0603     3.8779  1506.3336     0.5751    -999.25     0.0004     0.0362     0.0362 20917.2129     2.3451     4.0569     4.0569    16.4638   135.2901     1.0000     1.0000     1.0000 -1426.2136    78.2927     0.0362    22.0000
  1506.4664  6259.0522 6267888.0000    -999.25     8.9861     8.9861     5.5697   113.2786   113.2785     0.0000    -999.25    66.9410     3.8977     3.7579  1506.4664     0.5931    -999.25     0.0018     0.0319     0.0319 20563.9375     2.3262     3.8701     3.8701    14.9777   135.5747     1.0000     1.0000     1.0000 -1426.3464    80.8450     0.0319    22.0000
  1506.4860  6251.9956 6251995.5000    -999.25     8.9928     8.9928     5.5008   113.4504   113.4352     0.0000    -999.25    66.8371     3.8722     3.7406  1506.4860     0.5933    -999.25     0.0019     0.0319     0.0319 20511.7969     2.3271     3.8449     3.8449    14.7878   135.6261     1.0000     1.0000     1.0000 -1426.3660    80.8462     0.0319    22.0000
  1506.6188  6211.0879 6216538.0000    -999.25     9.0389     9.0389     5.0343   114.4974   114.4973     0.0000    -999.25    66.1328     3.6996     3.6234  1506.6188     0.5946    -999.25     0.0020     0.0319     0.0319 20395.4668     2.3332     3.6744     3.6744    13.5012   135.9743     1.0000     1.0000     1.0000 -1426.4988    80.8540     0.0319    22.0000
  1506.6384  6211.3052 6211305.0000    -999.25     9.0496     9.0496     4.9822   114.6519   114.5385     0.0000    -999.25    66.2487     3.6925     3.6208  1506.6383     0.5928    -999.25     0.0018     0.0324     0.0324 20378.2969     2.3364     3.6700     3.6700    13.4689   136.0267     1.0000     1.0000     1.0000 -1426.5183    80.5659     0.0324    22.0000
  1506.7712  6260.4478 6256856.0000    -999.25     9.1224     9.1224     4.6289   114.8176   114.8176     0.0000    -999.25    67.0343     3.6445     3.6029  1506.7712     0.5810    -999.25     0.0001     0.0356     0.0356 20527.7441     2.3583     3.6401     3.6401    13.2503   136.3815     1.0000     1.0000     1.0000 -1426.6512    78.6140     0.0356    22.0000
  1506.7908  6263.5791 6263579.0000    -999.25     9.1317     9.1317     4.6275   114.8421   114.6697     0.0000    -999.25    67.1431     3.6647     3.6214  1506.7908     0.5794    -999.25     0.0002     0.0361     0.0361 20549.8008     2.3600     3.6639     3.6639    13.4278   136.3926     1.0000     1.0000     1.0000 -1426.6708    78.3516     0.0361    22.0000
  1506.9236  6358.8794 6351398.5000    -999.25     9.1944     9.1944     4.6181   113.6673   113.6674     0.0000    -999.25    67.8804     3.8012     3.7466  1506.9236     0.5685    -999.25     0.0012     0.0390     0.0390 20837.9219     2.3714     3.8250     3.8250    14.6306   136.4684     1.0000     1.0000     1.0000 -1426.8036    76.5740     0.0390    22.0000
  1506.9432  6364.3599 6364360.0000    -999.25     9.1935     9.1935     4.6601   113.4939   113.4365     0.0000    -999.25    67.8233     3.8498     3.7848  1506.9431     0.5685    -999.25     0.0012     0.0391     0.0391 20880.4453     2.3698     3.8772     3.8772    15.0515   136.4682     1.0000     1.0000     1.0000 -1426.8231    76.5408     0.0391    22.0000
  1507.0760  6427.5342 6423443.5000    -999.25     9.1870     9.1870     4.9446   111.8718   111.8720     0.0000    -999.25    67.4364     4.1789     4.0439  1507.0760     0.5685    -999.25     0.0010     0.0395     0.0395 21074.2891     2.3591     4.2312     4.2312    17.9031   136.4669     1.0000     1.0000     1.0000 -1426.9561    76.3160     0.0395    22.0000
  1507.0956  6432.1636 6432163.5000    -999.25     9.1799     9.1799     5.0395   111.6324   111.7167     0.0000    -999.25    67.2827     4.2474     4.0927  1507.0956     0.5694    -999.25     0.0009     0.0393     0.0393 21102.8984     2.3558     4.3021     4.3021    18.5421   136.4869     1.0000     1.0000     1.0000 -1426.9756    76.4091     0.0393    22.0000
  1507.2284  6425.8691 6425925.5000    -999.25     9.1313     9.1313     5.6823   110.6642   110.6643     0.0000    -999.25    66.2417     4.7115     4.4230  1507.2284     0.5760    -999.25     0.0000     0.0383     0.0383 21082.4336     2.3331     4.7825     4.7825    22.8723   136.6227     1.0000     1.0000     1.0000 -1427.1084    77.0400     0.0383    22.0000
  1507.2480  6425.0049 6425005.0000    -999.25     9.1251     9.1251     5.7749   110.5213   110.6556     0.0000    -999.25    66.2007     4.7480     4.4503  1507.2479     0.5767    -999.25     0.0001     0.0381     0.0381 21079.4121     2.3297     4.8138     4.8138    23.1796   136.6437     1.0000     1.0000     1.0000 -1427.1279    77.1146     0.0381    22.0000
  1507.3808  6358.5278 6362142.0000    -999.25     9.0835     9.0835     6.4019   110.5966   110.5966     0.0000    -999.25    65.9231     4.9948     4.6348  1507.3809     0.5812    -999.25     0.0005     0.0373     0.0373 20873.1680     2.3072     5.0261     5.0261    25.2617   136.7863     1.0000     1.0000     1.0000 -1427.2609    77.6200     0.0373    22.0000
  1507.4004  6352.8638 6352864.0000    -999.25     9.0788     9.0788     6.3714   110.6077   110.6275     0.0000    -999.25    66.0871     4.9582     4.6172  1507.4004     0.5810    -999.25     0.0005     0.0373     0.0373 20842.7285     2.3054     4.9795     4.9795    24.8104   136.7913     1.0000     1.0000     1.0000 -1427.2804    77.6251     0.0373    22.0000
  1507.5332  6305.7524 6317609.5000    -999.25     9.0471     9.0471     6.1652   110.8368   110.8369     0.0000    -999.25    67.1988     4.7106     4.4980  1507.5332     0.5795    -999.25     0.0005     0.0372     0.0372 20727.0664     2.2930     4.6640     4.6640    21.7529   136.8251     1.0000     1.0000     1.0000 -1427.4132    77.6600     0.0372    22.0000
  1507.5529  6312.3799 6312380.0000    -999.25     9.0482     9.0482     6.0989   110.8708   110.8110     0.0000    -999.25    67.4347     4.6643     4.4729  1507.5529     0.5787    -999.25     0.0004     0.0374     0.0374 20709.9082     2.2961     4.6178     4.6178    21.3386   136.8116     1.0000     1.0000     1.0000 -1427.4329    77.5818     0.0374    22.0000
  1507.6856  6383.5352 6389023.5000    -999.25     9.0556     9.0556     5.6519   110.6365   110.6365     0.0000    -999.25    69.0237     4.3527     4.3039  1507.6857     0.5734    -999.25     0.0000     0.0382     0.0382 20961.3633     2.3171     4.3067     4.3067    18.5477   136.7201     1.0000     1.0000     1.0000 -1427.5657    77.0550     0.0382    22.0000
  1507.7052  6400.3438 6400344.0000    -999.25     9.0618     9.0618     5.6216   110.6019   110.5304     0.0000    -999.25    69.1248     4.3477     4.3064  1507.7052     0.5721    -999.25     0.0003     0.0386     0.0386 20998.5039     2.3225     4.3078     4.3078    18.5570   136.7113     1.0000     1.0000     1.0000 -1427.5852    76.8576     0.0386    22.0000
  1507.8380  6547.4766 6546592.0000    -999.25     9.1041     9.1041     5.4163   109.8117   109.8113     0.0000    -999.25    69.8102     4.3140     4.3233  1507.8380     0.5638    -999.25     0.0024     0.0408     0.0408 21478.3203     2.3589     4.3151     4.3151    18.6201   136.6513     1.0000     1.0000     1.0000 -1427.7180    75.5200     0.0408    22.0000
  1507.8577  6568.2871 6568287.0000    -999.25     9.1093     9.1093     5.4452   109.6945   109.6955     0.0000    -999.25    69.8319     4.3433     4.3493  1507.8577     0.5616    -999.25     0.0032     0.0400     0.0400 21549.4980     2.3639     4.3486     4.3486    18.9175   136.6409     1.0000     1.0000     1.0000 -1427.7377    75.3854     0.0400    22.0000
