~Version ---------------------------------------------------
VERS. 2.0 : CWLS log ASCII Standard -VERSION 2.0
WRAP.  NO : 
~Well ------------------------------------------------------
STRT.m                                                   1300.0 : 
STOP.m                                                1481.9656 : 
STEP.m                                                   0.1524 : 
NULL.                                                   -999.25 : 
COMP.                                                           : COMPANY
WELL.                                                    Well-3 : WELL
FLD .                                                           : FIELD
LOC .                                                           : LOCATION
SRVC.                                                           : SERVICE COMPANY
DATE. 2021-01-20 14:34:00   : Log Export Date {yyyy-MM-dd HH:mm : ss}
PROV.                                                           : PROVINCE
UWI .                                                    Well-3 : UNIQUE WELL ID
API .                                                           : API NUMBER
~Curve Information -----------------------------------------
DEPTH             .m        : DEPTH
ACOUSTICIMPEDANCE1.kPa.s/m  : ACOUSTICIMPEDANCE1
AI                .kPa.s/m  : AI
AVG_PIGN          .m3/m3    : AVG_PIGN
BS                .in       : BS
CALI              .in       : CALI
CALI[DERIVED]1    .in       : CALI[DERIVED]1
CALI1             .in       : CALI1
DEVI              .deg      : DEVI
DFL               .ohm.m    : DFL
DT                .us/ft    : DT
DT1               .us/ft    : DT1
FACIES            ._        : FACIES
FLD1              ._        : FLD1
GR                .gAPI     : GR
HDRS              .ohm.m    : HDRS
HMRS              .ohm.m    : HMRS
DEPTH_1           .m        : DEPTH_1
NPHI              .m3/m3    : NPHI
PERF_INT          ._        : PERF_INT
PERMEABILITY      .mD       : PERMEABILITY
PIGN              .m3/m3    : PIGN
PIGN_MODELLING    .m3/m3    : PIGN_MODELLING
PIMP              .kPa.s/m  : PIMP
RHOB              .g/cm3    : RHOB
RT_MODELLING      .ohm.m    : RT_MODELLING
RT_POWER          .ohm.m    : RT_POWER
SP                .mV       : SP
SUWI              ._        : SUWI
SUWI_MODELLING    ._        : SUWI_MODELLING
TDVSS             .m        : TDVSS
VCL               .%        : VCL
WATER_VOL         ._        : WATER_VOL
ZLT               ._        : ZLT
~Params ----------------------------------------------------
~Other -----------------------------------------------------
~ASCII -----------------------------------------------------
# ...
  1323.4696  4254.4189 4250911.0000    -999.25     8.5000     9.1004     9.1004     9.1004     0.9393     1.3420   172.7259   172.7258     0.0000    -999.25    78.6115     1.1836     1.1935  1323.4696     0.5574    -999.25    -999.25     0.0210     0.0210 13946.5596     2.4109     1.3420     1.8011   285.4290     1.0000     1.0000 -1247.3096    70.2900     0.0210     0.0000
  1323.4962  4268.8525 4268852.5000    -999.25     8.5000     9.1110     9.1110     9.0984     0.9425     1.4406   172.1302   170.8283     0.0000    -999.25    78.5201     1.1977     1.2093  1323.4962     0.5564    -999.25    -999.25     0.0219     0.0219 14005.4219     2.4108     1.4406     2.1213   285.4356     1.0000     1.0000 -1247.3362    70.1478     0.0219     0.0000
  1323.6220  4538.4424 4537191.0000    -999.25     8.5000     9.0893     9.0893     9.0893     1.0392     1.9067   161.8533   161.8543     0.0000    -999.25    78.0876     1.2644     1.2844  1323.6219     0.5516    -999.25    -999.25     0.0258     0.0258 14885.7979     2.4100     1.9067     3.6355   285.4669     1.0000     1.0000 -1247.4619    69.4750     0.0258     0.0000
  1323.6486  4593.9302 4593930.5000    -999.25     8.5000     9.0847     9.0847     9.0764     1.0596     1.9627   159.6803   158.9964     0.0000    -999.25    78.0006     1.2708     1.2917  1323.6486     0.5516    -999.25    -999.25     0.0262     0.0262 15071.9502     2.4067     1.9627     3.8670   285.5245     1.0000     1.0000 -1247.4885    69.4762     0.0262     0.0000
  1323.7744  5009.8232 5013420.5000    -999.25     8.5000     9.0154     9.0154     9.0155     1.1520     2.2274   145.4787   145.4801     0.0000    -999.25    77.5892     1.3010     1.3263  1323.7744     0.5517    -999.25    -999.25     0.0277     0.0277 16448.2285     2.3911     2.2274     4.9615   285.7970     1.0000     1.0000 -1247.6144    69.4820     0.0277     0.0000
  1323.8010  5102.1196 5102120.0000    -999.25     8.5000     9.0008     9.0008     9.0059     1.1715     2.1484   142.4758   143.3945     0.0000    -999.25    77.5956     1.2964     1.3210  1323.8010     0.5524    -999.25    -999.25     0.0277     0.0277 16739.2383     2.3849     2.1484     4.6451   285.8726     1.0000     1.0000 -1247.6410    69.5234     0.0277     0.0000
  1323.9268  5376.8647 5382033.5000    -999.25     8.5000     8.9608     8.9608     8.9609     1.1073     1.7744   133.5298   133.5307     0.0000    -999.25    77.6258     1.2744     1.2957  1323.9268     0.5559    -999.25    -999.25     0.0275     0.0275 17657.5898     2.3556     1.7744     3.1484   286.2301     1.0000     1.0000 -1247.7667    69.7190     0.0275     0.0000
  1323.9534  5441.2202 5441220.0000    -999.25     8.5000     8.9524     8.9524     8.9573     1.0937     1.6986   131.6382   132.7797     0.0000    -999.25    77.6246     1.2675     1.2880  1323.9534     0.5565    -999.25    -999.25     0.0276     0.0276 17851.7715     2.3500     1.6986     2.9123   286.2617     1.0000     1.0000 -1247.7933    69.6705     0.0276     0.0000
  1324.0792  5480.5200 5482576.0000    -999.25     8.5000     8.9407     8.9407     8.9407     1.0497     1.3401   129.2280   129.2282     0.0000    -999.25    77.6194     1.2348     1.2514  1324.0791     0.5591    -999.25    -999.25     0.0278     0.0278 17987.4531     2.3236     1.3401     1.7958   286.4111     1.0000     1.0000 -1247.9192    69.4410     0.0278     0.0000
  1324.1058  5491.3203 5491320.5000    -999.25     8.5000     8.9382     8.9382     8.9390     1.0404     1.3351   128.7183   129.1254     0.0000    -999.25    77.5000     1.2341     1.2503  1324.1057     0.5589    -999.25    -999.25     0.0279     0.0279 18016.1426     2.3190     1.3351     1.7826   286.4775     1.0000     1.0000 -1247.9458    69.3324     0.0279     0.0000
  1324.2316  5443.1235 5445227.5000    -999.25     8.5000     8.9313     8.9313     8.9313     1.0700     1.3114   128.6391   128.6392     0.0000    -999.25    76.9358     1.2308     1.2446  1324.2316     0.5580    -999.25    -999.25     0.0283     0.0283 17864.9180     2.2972     1.3114     1.7199   286.7917     1.0000     1.0000 -1248.0715    68.8190     0.0283     0.0000
  1324.2582  5435.4810 5435481.0000    -999.25     8.5000     8.9298     8.9298     8.9319     1.0762     1.3312   128.6224   128.7051     0.0000    -999.25    76.8918     1.2343     1.2481  1324.2582     0.5572    -999.25    -999.25     0.0284     0.0284 17832.9414     2.2937     1.3312     1.7739   286.7982     1.0000     1.0000 -1248.0981    68.7869     0.0284     0.0000
  1324.3840  5379.4780 5383773.0000    -999.25     8.5000     8.9348     8.9348     8.9347     0.9603     1.4246   129.0171   129.0171     0.0000    -999.25    76.6839     1.2510     1.2649  1324.3839     0.5537    -999.25    -999.25     0.0285     0.0285 17663.2969     2.2771     1.4246     2.0295   286.8290     1.0000     1.0000 -1248.2240    68.6350     0.0285     0.0000
  1324.4106  5372.8394 5372839.5000    -999.25     8.5000     8.9358     8.9358     8.9335     0.9358     1.4420   129.1006   129.1298     0.0000    -999.25    76.8796     1.2561     1.2698  1324.4105     0.5536    -999.25    -999.25     0.0284     0.0284 17627.4258     2.2757     1.4420     2.0808   286.8918     1.0000     1.0000 -1248.2506    68.7807     0.0284     0.0000
  1324.5364  5334.6523 5337658.5000    -999.25     8.5000     8.9277     8.9277     8.9277     0.9261     1.5244   129.6630   129.6629     0.0000    -999.25    77.8049     1.2803     1.2932  1324.5364     0.5529    -999.25    -999.25     0.0278     0.0278 17512.0039     2.2694     1.5244     2.3237   287.1884     1.0000     1.0000 -1248.3763    69.4700     0.0278     0.0000
  1324.5630  5330.2197 5330219.5000    -999.25     8.5000     8.9260     8.9260     8.9202     0.9241     1.5394   129.7819   129.8028     0.0000    -999.25    77.9293     1.2844     1.2970  1324.5630     0.5543    -999.25    -999.25     0.0275     0.0275 17487.5977     2.2696     1.5394     2.3707   287.2562     1.0000     1.0000 -1248.4030    69.7891     0.0275     0.0000
  1324.6888  5304.4985 5305181.0000    -999.25     8.5000     8.8849     8.8849     8.8849     0.9383     1.6103   130.4639   130.4642     0.0000    -999.25    78.5175     1.3037     1.3150  1324.6887     0.5607    -999.25    -999.25     0.0261     0.0261 17405.4512     2.2705     1.6103     2.5931   287.5766     1.0000     1.0000 -1248.5288    71.2980     0.0261     0.0000
  1324.7155  5299.8667 5299867.0000    -999.25     8.5000     8.8762     8.8762     8.8788     0.9413     1.6182   130.6086   130.6696     0.0000    -999.25    78.3337     1.3038     1.3153  1324.7155     0.5635    -999.25    -999.25     0.0257     0.0257 17388.0156     2.2710     1.6182     2.6189   287.6271     1.0000     1.0000 -1248.5555    71.7332     0.0257     0.0000
  1324.8412  5264.3013 5261316.5000    -999.25     8.5000     8.8500     8.8500     8.8499     0.9599     1.6555   131.6367   131.6367     0.0000    -999.25    77.4684     1.3045     1.3166  1324.8412     0.5765    -999.25    -999.25     0.0238     0.0238 17261.5371     2.2735     1.6555     2.7405   287.8650     1.0000     1.0000 -1248.6812    73.7820     0.0238     0.0000
  1324.8678  5253.1587 5253158.5000    -999.25     8.5000     8.8444     8.8444     8.8421     0.9638     1.6555   131.8542   131.9546     0.0000    -999.25    77.2859     1.3014     1.3135  1324.8678     0.5803    -999.25    -999.25     0.0235     0.0235 17234.7715     2.2725     1.6555     2.7406   287.8574     1.0000     1.0000 -1248.7078    74.1969     0.0235     0.0000
  1324.9936  5178.5708 5176103.5000    -999.25     8.5000     8.8050     8.8050     8.8049     1.0182     1.6555   133.4574   133.4583     0.0000    -999.25    76.4224     1.2863     1.2989  1324.9935     0.5982    -999.25    -999.25     0.0217     0.0217 16981.9668     2.2674     1.6555     2.7408   287.8216     1.0000     1.0000 -1248.8335    76.1590     0.0217     0.0000
  1325.0203  5159.7495 5159749.5000    -999.25     8.5000     8.7966     8.7966     8.7964     1.0297     1.6425   133.7977   133.8250     0.0000    -999.25    76.2520     1.2817     1.2944  1325.0203     0.6019    -999.25    -999.25     0.0215     0.0215 16928.3105     2.2650     1.6425     2.6985   287.7348     1.0000     1.0000 -1248.8602    76.3810     0.0215     0.0000
