~Version ---------------------------------------------------
VERS. 2.0 : CWLS log ASCII Standard -VERSION 2.0
WRAP.  NO : 
~Well ------------------------------------------------------
STRT.m                                                   1300.0 : 
STOP.m                                                 1514.884 : 
STEP.m                                                   0.1524 : 
NULL.                                                   -999.25 : 
COMP.                                                           : COMPANY
WELL.                                                    Well-2 : WELL
FLD .                                                           : FIELD
LOC .                                                           : LOCATION
SRVC.                                                           : SERVICE COMPANY
DATE. 2021-01-20 14:33:59   : Log Export Date {yyyy-MM-dd HH:mm : ss}
PROV.                                                           : PROVINCE
UWI .                                                    Well-2 : UNIQUE WELL ID
API .                                                           : API NUMBER
~Curve Information -----------------------------------------
DEPTH             .m        : DEPTH
ACOUSTICIMPEDANCE1.kPa.s/m  : ACOUSTICIMPEDANCE1
AI                .kPa.s/m  : AI
AVG_PIGN          .m3/m3    : AVG_PIGN
CALI              .in       : CALI
CALI[DERIVED]1    .in       : CALI[DERIVED]1
DT                .us/ft    : DT
FACIES            ._        : FACIES
FLD1              ._        : FLD1
GR                .gAPI     : GR
LLD               .ohm.m    : LLD
LLS               .ohm.m    : LLS
LL3               .ohm.m    : LL3
DEPTH_1           .m        : DEPTH_1
NPHI              .m3/m3    : NPHI
PERF_INT          ._        : PERF_INT
PERMEABILITY      .mD       : PERMEABILITY
PIGN              .m3/m3    : PIGN
PIGN_MODELLING    .m3/m3    : PIGN_MODELLING
PIMP              .kPa.s/m  : PIMP
RHOB              .g/cm3    : RHOB
RT_MODELLING      .ohm.m    : RT_MODELLING
RT_POWER          .ohm.m    : RT_POWER
SP                .mV       : SP
SUWI              ._        : SUWI
SUWI_MODELLING    ._        : SUWI_MODELLING
TDVSS             .m        : TDVSS
VCL               .%        : VCL
WATER_VOL         ._        : WATER_VOL
ZLT               ._        : ZLT
~Params ----------------------------------------------------
~Other -----------------------------------------------------
~ASCII -----------------------------------------------------
# ...
  1414.3000  6161.0591 6165528.5000    -999.25     9.7098     9.7098   109.4717     4.0000     0.0000    70.8360     4.8285     5.0102     5.5135  1414.2999     0.3598    -999.25    14.9174     0.2697     0.2697 20228.1113     2.2128     4.8285    23.3146    30.9397     0.6485     0.6485 -1338.2999    11.2510     0.1749     6.0000
  1414.4244  6123.0762 6123076.5000    -999.25     9.6974     9.6974   109.6790     4.0000     0.0000    70.1573     4.8410     5.0424     5.4913  1414.4244     0.3513    -999.25    12.1575     0.2772     0.2772 20088.8320     2.2033     4.8410    23.4353    30.4311     0.6588     0.6588 -1338.4244     8.8512     0.1826     6.0000
  1414.4524  6115.8984 6119102.5000    -999.25     9.6947     9.6947   109.7014     4.0000     0.0000    70.0045     4.8438     5.0497     5.4863  1414.4524     0.3494    -999.25    11.5363     0.2788     0.2788 20075.7949     2.2012     4.8438    23.4625    30.3166     0.6611     0.6611 -1338.4524     8.3110     0.1843     6.0000
  1414.5768  6101.4463 6101446.5000    -999.25     9.6845     9.6845   109.8010     4.0000     0.0000    71.5333     4.8013     5.0986     5.5627  1414.5768     0.3452    -999.25     9.6835     0.2801     0.2801 20017.8691     2.1980     4.8013    23.0529    29.9158     0.6707     0.6707 -1338.5768     7.5502     0.1879     6.0000
  1414.6048  6099.4932 6102453.0000    -999.25     9.6822     9.6822   109.8001     4.0000     0.0000    71.8774     4.7917     5.1096     5.5799  1414.6047     0.3443    -999.25     9.2664     0.2804     0.2804 20021.1719     2.1973     4.7917    22.9607    29.8256     0.6729     0.6729 -1338.6047     7.3790     0.1887     6.0000
  1414.7292  6106.9253 6106925.5000    -999.25     9.6724     9.6724   109.7960     4.0000     0.0000    74.8775     4.6931     5.1398     5.6946  1414.7292     0.3431    -999.25     8.2337     0.2760     0.2760 20035.8457     2.1999     4.6931    22.0275    29.5372     0.6836     0.6836 -1338.7292     8.0606     0.1886     6.0000
  1414.7572  6109.5903 6112451.0000    -999.25     9.6702     9.6702   109.7773     4.0000     0.0000    75.5527     4.6709     5.1466     5.7204  1414.7572     0.3428    -999.25     8.0013     0.2750     0.2750 20053.9746     2.2004     4.6709    21.8174    29.4722     0.6860     0.6860 -1338.7572     8.2140     0.1886     6.0000
  1414.8816  6136.9995 6136999.5000    -999.25     9.6640     9.6640   109.6940     4.0000     0.0000    78.9278     4.5293     5.1168     5.8078  1414.8816     0.3436    -999.25     6.5730     0.2511     0.2511 20134.5137     2.2086     4.5293    20.5189    29.2639     0.7007     0.7007 -1338.8816    13.3484     0.1759     6.0000
  1414.9096  6143.5444 6145988.0000    -999.25     9.6626     9.6626   109.6687     4.0000     0.0000    79.6875     4.4974     5.1101     5.8275  1414.9095     0.3438    -999.25     6.2515     0.2458     0.2458 20164.0039     2.2105     4.4974    20.2266    29.2170     0.7040     0.7040 -1338.9095    14.5040     0.1730     6.0000
  1415.0341  6185.9546 6185955.0000    -999.25     9.6640     9.6640   109.5560     4.0000     0.0000    83.2262     4.3250     4.9913     5.7761  1415.0342     0.3483    -999.25     2.9387     0.1766     0.1766 20295.1270     2.2235     4.3250    18.7125    28.9860     0.7244     0.7244 -1339.0342    30.2511     0.1276     6.0000
  1415.0620  6195.4312 6196811.0000    -999.25     9.6643     9.6643   109.5314     4.0000     0.0000    84.0192     4.2864     4.9647     5.7646  1415.0620     0.3493    -999.25     2.1964     0.1611     0.1611 20330.7441     2.2264     4.2864    18.3732    28.9343     0.7290     0.7290 -1339.0620    33.7800     0.1175     6.0000
  1415.1864  6245.2158 6245216.0000    -999.25     9.6706     9.6706   109.4220     4.0000     0.0000    87.2937     4.0872     4.7564     5.4899  1415.1864     0.3600    -999.25     1.8878     0.1421     0.1421 20489.5527     2.2420     4.0872    16.7142    28.6866     0.7593     0.7593 -1339.1864    38.2189     0.1078     6.0000
  1415.2144  6257.0112 6256220.0000    -999.25     9.6720     9.6720   109.3873     4.0000     0.0000    88.0308     4.0424     4.7095     5.4281  1415.2144     0.3624    -999.25     1.8184     0.1379     0.1379 20525.6543     2.2455     4.0424    16.3408    28.6309     0.7661     0.7661 -1339.2144    39.2180     0.1056     6.0000
  1415.3389  6305.1484 6305148.5000    -999.25     9.6715     9.6715   109.2330     4.0000     0.0000    91.6962     3.8185     4.4272     5.0820  1415.3389     0.3760    -999.25     1.3986     0.1210     0.1210 20686.1816     2.2596     3.8185    14.5922    28.3472     0.7962     0.7962 -1339.3389    43.6792     0.0962     6.0000
  1415.3668  6317.2183 6313233.5000    -999.25     9.6714     9.6714   109.1766     4.0000     0.0000    92.5176     3.7683     4.3639     5.0044  1415.3667     0.3790    -999.25     1.3045     0.1172     0.1172 20712.7070     2.2628     3.7683    14.2003    28.2836     0.8030     0.8030 -1339.3667    44.6790     0.0941     6.0000
  1415.4912  6349.2822 6349282.0000    -999.25     9.6684     9.6684   108.9250     4.0000     0.0000    93.7862     3.5325     4.0365     4.6875  1415.4912     0.3863    -999.25     1.0228     0.1121     0.1121 20830.9785     2.2690     3.5325    12.4911    27.9114     0.8319     0.8319 -1339.4912    46.3981     0.0932     6.0000
  1415.5192  6355.6055 6349052.0000    -999.25     9.6677     9.6677   108.8840     4.0000     0.0000    94.0717     3.4794     3.9629     4.6162  1415.5192     0.3880    -999.25     0.9594     0.1109     0.1109 20830.2246     2.2704     3.4794    12.1064    27.8277     0.8385     0.8385 -1339.5192    46.7850     0.0930     6.0000
  1415.6436  6348.0303 6348030.5000    -999.25     9.6634     9.6634   108.7020     4.0000     0.0000    91.8265     3.2566     3.6260     4.3089  1415.6436     0.3823    -999.25     0.7187     0.1220     0.1220 20826.8711     2.2639     3.2566    10.6166    27.3870     0.8674     0.8674 -1339.6436    44.2284     0.1059     6.0000
  1415.6716  6341.0039 6334877.5000    -999.25     9.6624     9.6624   108.7522     4.0000     0.0000    91.3212     3.2064     3.5501     4.2398  1415.6715     0.3810    -999.25     0.6645     0.1244     0.1244 20783.7168     2.2625     3.2064    10.2813    27.2878     0.8739     0.8739 -1339.6715    43.6530     0.1087     6.0000
  1415.7960  6276.4395 6276439.5000    -999.25     9.6629     9.6629   108.9750     0.0000     0.0000    84.2303     3.0205     3.2445     3.9401  1415.7960     0.3637    -999.25     0.2190     0.1518     0.1518 20591.9922     2.2440     3.0205     9.1315    26.8230     0.8989     0.8989 -1339.7960    36.9081     0.1366     6.0000
  1415.8240  6257.1245 6254863.0000    -999.25     9.6630     9.6630   109.1091     0.0000     0.0000    82.6343     2.9787     3.1757     3.8726  1415.8240     0.3598    -999.25     0.1187     0.1579     0.1579 20521.2031     2.2399     2.9787     8.8727    26.7184     0.9046     0.9046 -1339.8240    35.3900     0.1429     6.0000
  1415.9484  6159.0015 6159001.5000    -999.25     9.6695     9.6695   109.7050     0.0000     0.0000    74.1066     2.8451     2.9347     3.6012  1415.9484     0.3388    -999.25     0.6539     0.2027     0.2027 20206.6992     2.2168     2.8451     8.0986    26.3252     0.9263     0.9263 -1339.9484    24.3083     0.1880     6.0000
  1415.9764  6136.5493 6139562.5000    -999.25     9.6709     9.6709   109.8483     0.0000     0.0000    72.1872     2.8150     2.8804     3.5401  1415.9763     0.3341    -999.25     0.7743     0.2128     0.2128 20142.9238     2.2116     2.8150     7.9244    26.2366     0.9312     0.9312 -1339.9763    21.8140     0.1981     6.0000
  1416.1008  6053.1987 6053198.5000    -999.25     9.6835     9.6835   110.4850     0.0000     0.0000    64.3224     2.7379     2.7241     3.3468  1416.1008     0.3192    -999.25     8.2499     0.2786     0.2786 19859.5762     2.1942     2.7379     7.4972    26.0418     0.9550     0.9550 -1340.1008     5.1082     0.2664     6.0000
  1416.1288  6041.9956 6048351.5000    -999.25     9.6864     9.6864   110.4923     0.0000     0.0000    62.5522     2.7205     2.6889     3.3033  1416.1288     0.3158    -999.25     9.9326     0.2935     0.2935 19843.6738     2.1903     2.7205     7.4010    25.9979     0.9603     0.9603 -1340.1288     1.3480     0.2818     6.0000
