~Version ---------------------------------------------------
VERS. 2.0 : CWLS log ASCII Standard -VERSION 2.0
WRAP.  NO : 
~Well ------------------------------------------------------
STRT.m                                                 998.5724 : 
STOP.m                                                  1489.91 : 
STEP.m                                                   0.1524 : 
NULL.                                                   -999.25 : 
COMP.                                                           : COMPANY
WELL.                                                    Well-4 : WELL
FLD .                                                           : FIELD
LOC .                                                           : LOCATION
SRVC.                                                           : SERVICE COMPANY
DATE. 2021-01-20 14:34:00   : Log Export Date {yyyy-MM-dd HH:mm : ss}
PROV.                                                           : PROVINCE
UWI .                                                    Well-4 : UNIQUE WELL ID
API .                                                           : API NUMBER
~Curve Information -----------------------------------------
DEPTH             .m        : DEPTH
ACOUSTICIMPEDANCE1.kPa.s/m  : ACOUSTICIMPEDANCE1
AVG_PIGN          .m3/m3    : AVG_PIGN
CALI              .in       : CALI
CALI[DERIVED]1    .in       : CALI[DERIVED]1
DFL               .ohm.m    : DFL
DT                .us/ft    : DT
FACIES            ._        : FACIES
FLD1              ._        : FLD1
GR                .gAPI     : GR
HDRS              .ohm.m    : HDRS
HMRS              .ohm.m    : HMRS
NPHI              .m3/m3    : NPHI
PERF_INT          ._        : PERF_INT
PIGN              .m3/m3    : PIGN
PIGN_MODELLING    .m3/m3    : PIGN_MODELLING
RHOB              .g/cm3    : RHOB
SP                .mV       : SP
SUWI              ._        : SUWI
SUWI_MODELLING    ._        : SUWI_MODELLING
TDVSS             .m        : TDVSS
VCL               .%        : VCL
ZLT               ._        : ZLT
~Params ----------------------------------------------------
~Other -----------------------------------------------------
~ASCII -----------------------------------------------------
# ...
  1257.0428  4792.7549    -999.25     8.7138     8.7138     0.9588   139.7706    -999.25    -999.25    61.3771     0.8359     0.8626     0.5714    -999.25     0.0197     0.0197     2.1978   287.1790     1.0000     1.0000 -1178.4229    84.9270    -999.25
  1257.1952  4615.5337    -999.25     8.6636     8.6636     0.9455   144.7880    -999.25    -999.25    60.6315     0.8328     0.8547     0.5825    -999.25     0.0170     0.0170     2.1925   286.7927     1.0000     1.0000 -1178.5752    86.9430    -999.25
  1257.3476  4617.3906    -999.25     8.6466     8.6466     0.9505   144.0241    -999.25    -999.25    59.5722     0.8710     0.8907     0.5881    -999.25     0.0188     0.0188     2.1818   286.3885     1.0000     1.0000 -1178.7277    85.5840    -999.25
  1257.5000  4788.3057    -999.25     8.6089     8.6089     1.0637   137.7579    -999.25    -999.25    58.7867     0.9423     0.9589     0.5879    -999.25     0.0242     0.0242     2.1641   286.0943     1.0000     1.0000 -1178.8800    81.4760    -999.25
  1257.6524  4870.5508    -999.25     8.5651     8.5651     1.1521   135.0011    -999.25    -999.25    58.3523     0.9633     0.9745     0.5834    -999.25     0.0277     0.0277     2.1572   286.0750     1.0000     1.0000 -1179.0323    78.7740    -999.25
  1257.8048  4789.9653    -999.25     8.5703     8.5703     1.1956   137.7305    -999.25    -999.25    58.6754     0.9540     0.9734     0.5810    -999.25     0.0268     0.0268     2.1644   285.9827     1.0000     1.0000 -1179.1848    79.4570    -999.25
  1257.9572  4780.5874    -999.25     8.6010     8.6010     1.1871   138.2085    -999.25    -999.25    60.2228     0.9472     0.9819     0.5797    -999.25     0.0258     0.0258     2.1677   285.8422     1.0000     1.0000 -1179.3372    80.1820    -999.25
  1258.1096  4904.0527    -999.25     8.6251     8.6251     1.1542   134.7371    -999.25    -999.25    62.2777     0.8898     0.9231     0.5803    -999.25     0.0266     0.0266     2.1678   285.7417     1.0000     1.0000 -1179.4896    79.6190    -999.25
  1258.2620  5000.5537    -999.25     8.6136     8.6136     1.0286   132.2155    -999.25    -999.25    63.6495     0.8105     0.8358     0.5805    -999.25     0.0267     0.0267     2.1691   285.6058     1.0000     1.0000 -1179.6420    79.5620    -999.25
  1258.4144  4989.5356    -999.25     8.5989     8.5989     0.8827   132.5350    -999.25    -999.25    63.7858     0.7821     0.8041     0.5841    -999.25     0.0255     0.0255     2.1696   285.4466     1.0000     1.0000 -1179.7944    80.4850    -999.25
  1258.5668  4962.4780    -999.25     8.5858     8.5858     0.8722   134.2594    -999.25    -999.25    62.8138     0.8078     0.8271     0.5884    -999.25     0.0239     0.0239     2.1859   285.1090     1.0000     1.0000 -1179.9468    81.6570    -999.25
  1258.7192  4966.2036    -999.25     8.5235     8.5235     0.9392   136.6947    -999.25    -999.25    60.6082     0.8504     0.8643     0.5918    -999.25     0.0225     0.0225     2.2272   284.8767     1.0000     1.0000 -1180.0992    82.7780    -999.25
  1258.8716  4968.6611    -999.25     8.4956     8.4956     0.9971   138.8379    -999.25    -999.25    57.8763     0.8752     0.8832     0.5916    -999.25     0.0218     0.0218     2.2633   284.7635     1.0000     1.0000 -1180.2516    83.2810    -999.25
  1259.0240  5018.6567    -999.25     8.5516     8.5516     0.9892   138.1223    -999.25    -999.25    55.4322     0.8777     0.8815     0.5851    -999.25     0.0237     0.0237     2.2742   284.7657     1.0000     1.0000 -1180.4041    81.8590    -999.25
  1259.1764  5156.4897    -999.25     8.5733     8.5733     1.0178   134.3960    -999.25    -999.25    53.2875     0.8953     0.9086     0.5786    -999.25     0.0281     0.0281     2.2737   284.8945     1.0000     1.0000 -1180.5564    78.4760    -999.25
  1259.3288  5268.9917    -999.25     8.5787     8.5787     1.1668   129.7279    -999.25    -999.25    52.1844     0.9306     0.9747     0.5777    -999.25     0.0324     0.0324     2.2426   284.9912     1.0000     1.0000 -1180.7089    75.1530    -999.25
  1259.4812  5291.3896    -999.25     8.6096     8.6096     1.2858   127.9069    -999.25    -999.25    52.8247     0.9097     0.9516     0.5808    -999.25     0.0327     0.0327     2.2205   285.2065     1.0000     1.0000 -1180.8612    74.8990    -999.25
  1259.6336  5118.2666    -999.25     8.6234     8.6234     1.1120   133.2933    -999.25    -999.25    53.8367     0.8291     0.8444     0.5804    -999.25     0.0266     0.0266     2.2383   285.3989     1.0000     1.0000 -1181.0135    79.6150    -999.25
  1259.7860  4762.6914    -999.25     8.5621     8.5621     0.8561   143.5962    -999.25    -999.25    53.9323     0.7879     0.7930     0.5748    -999.25     0.0168     0.0168     2.2438   285.5443     1.0000     1.0000 -1181.1660    87.1310    -999.25
  1259.9384  4486.5894    -999.25     8.4967     8.4967     0.8303   151.8433    -999.25    -999.25    53.9688     0.8345     0.8443     0.5702    -999.25     0.0109     0.0109     2.2351   285.5976     1.0000     1.0000 -1181.3184    91.6490    -999.25
  1260.0908  4366.0093    -999.25     8.4804     8.4804     1.0167   155.2871    -999.25    -999.25    53.5858     0.9162     0.9435     0.5668    -999.25     0.0104     0.0104     2.2244   285.5629     1.0000     1.0000 -1181.4708    92.0150    -999.25
  1260.2432  4397.8433    -999.25     8.5028     8.5028     1.1992   154.2483    -999.25    -999.25    52.0911     0.9325     0.9664     0.5616    -999.25     0.0119     0.0119     2.2256   285.6701     1.0000     1.0000 -1181.6232    90.8530    -999.25
  1260.3956  4634.5386    -999.25     8.5165     8.5165     1.1547   148.1541    -999.25    -999.25    50.8305     0.8793     0.8980     0.5561    -999.25     0.0148     0.0148     2.2527   285.7935     1.0000     1.0000 -1181.7756    88.6700    -999.25
  1260.5480  4932.9707    -999.25     8.5178     8.5178     0.9687   141.2802    -999.25    -999.25    50.0690     0.8470     0.8605     0.5571    -999.25     0.0177     0.0177     2.2865   285.9677     1.0000     1.0000 -1181.9280    86.4660    -999.25
  1260.7004  5106.0752    -999.25     8.5025     8.5025     0.9181   137.8630    -999.25    -999.25    48.9930     0.8715     0.8947     0.5616    -999.25     0.0205     0.0205     2.3095   286.0618     1.0000     1.0000 -1182.0804    84.2730    -999.25
  1260.8528  5261.6284    -999.25     8.4613     8.4613     0.9916   134.9626    -999.25    -999.25    48.3576     0.9161     0.9467     0.5629    -999.25     0.0250     0.0250     2.3298   286.0490     1.0000     1.0000 -1182.2328    80.8350    -999.25
  1261.0052  5468.6904    -999.25     8.3916     8.3916     1.1189   130.8725    -999.25    -999.25    49.1532     0.9838     1.0269     0.5600    -999.25     0.0313     0.0313     2.3481   286.0406     1.0000     1.0000 -1182.3853    75.9780    -999.25
  1261.1576  5504.2207    -999.25     8.3396     8.3396     1.2806   128.8493    -999.25    -999.25    50.4537     1.0732     1.1396     0.5582    -999.25     0.0368     0.0368     2.3268   285.9680     1.0000     1.0000 -1182.5376    71.8060    -999.25
  1261.3100  5363.1284    -999.25     8.3438     8.3438     1.4304   130.1953    -999.25    -999.25    51.8576     1.1060     1.1638     0.5609    -999.25     0.0377     0.0377     2.2909   286.0866     1.0000     1.0000 -1182.6901    71.0770    -999.25
  1261.4624  5169.0679    -999.25     8.3780     8.3780     1.4054   133.1450    -999.25    -999.25    53.6875     1.1032     1.1369     0.5671    -999.25     0.0344     0.0344     2.2580   286.2380     1.0000     1.0000 -1182.8424    73.6170    -999.25
  1261.6148  4864.7563    -999.25     8.3960     8.3960     1.2125   137.8955    -999.25    -999.25    54.9499     1.0481     1.0821     0.5751    -999.25     0.0287     0.0287     2.2009   286.3003     1.0000     1.0000 -1182.9948    78.0350    -999.25
  1261.7672  4606.5840    -999.25     8.4162     8.4162     1.0323   143.2001    -999.25    -999.25    55.1366     0.9146     0.9475     0.5834    -999.25     0.0210     0.0210     2.1642   286.2682     1.0000     1.0000 -1183.1472    83.8870    -999.25
