~Version ---------------------------------------------------
VERS. 2.0 : CWLS log ASCII Standard -VERSION 2.0
WRAP.  NO : 
~Well ------------------------------------------------------
STRT.m                                                   1300.0 : 
STOP.m                                                1481.9656 : 
STEP.m                                                   0.1524 : 
NULL.                                                   -999.25 : 
COMP.                                                           : COMPANY
WELL.                                                    Well-3 : WELL
FLD .                                                           : FIELD
LOC .                                                           : LOCATION
SRVC.                                                           : SERVICE COMPANY
DATE. 2021-01-20 14:34:00   : Log Export Date {yyyy-MM-dd HH:mm : ss}
PROV.                                                           : PROVINCE
UWI .                                                    Well-3 : UNIQUE WELL ID
API .                                                           : API NUMBER
~Curve Information -----------------------------------------
DEPTH             .m        : DEPTH
ACOUSTICIMPEDANCE1.kPa.s/m  : ACOUSTICIMPEDANCE1
AI                .kPa.s/m  : AI
AVG_PIGN          .m3/m3    : AVG_PIGN
BS                .in       : BS
CALI              .in       : CALI
CALI[DERIVED]1    .in       : CALI[DERIVED]1
CALI1             .in       : CALI1
DEVI              .deg      : DEVI
DFL               .ohm.m    : DFL
DT                .us/ft    : DT
DT1               .us/ft    : DT1
FACIES            ._        : FACIES
FLD1              ._        : FLD1
GR                .gAPI     : GR
HDRS              .ohm.m    : HDRS
HMRS              .ohm.m    : HMRS
DEPTH_1           .m        : DEPTH_1
NPHI              .m3/m3    : NPHI
PERF_INT          ._        : PERF_INT
PERMEABILITY      .mD       : PERMEABILITY
PIGN              .m3/m3    : PIGN
PIGN_MODELLING    .m3/m3    : PIGN_MODELLING
PIMP              .kPa.s/m  : PIMP
RHOB              .g/cm3    : RHOB
RT_MODELLING      .ohm.m    : RT_MODELLING
RT_POWER          .ohm.m    : RT_POWER
SP                .mV       : SP
SUWI              ._        : SUWI
SUWI_MODELLING    ._        : SUWI_MODELLING
TDVSS             .m        : TDVSS
VCL               .%        : VCL
WATER_VOL         ._        : WATER_VOL
ZLT               ._        : ZLT
~Params ----------------------------------------------------
~Other -----------------------------------------------------
~ASCII -----------------------------------------------------
# ...
  1457.5816  2454.8096 2470526.5000    -999.25     8.5000     8.8683     8.8683     8.8683     0.5730    74.6867   151.3130   151.3129     3.0000    -999.25    18.4864     8.4423     8.9057  1457.5815     0.9114    -999.25     0.0000     0.0001     0.0100  8105.4019     1.2186    74.6867  5578.1006   344.1590     1.0000     1.0000 -1381.4215     0.0000     0.0001    11.0000
  1457.6082  2473.6951 2473695.0000    -999.25     8.5000     8.8693     8.8693     8.8682     0.5848    74.9745   151.4163   151.2201     3.0000    -999.25    18.4713     8.3540     8.8096  1457.6082     0.8949    -999.25     0.0000     0.0001     0.0100  8115.7974     1.2289    74.9745  5621.5747   344.1792     1.0000     1.0000 -1381.4481     0.0000     0.0001    11.0000
  1457.7340  2581.7625 2601144.7500    -999.25     8.5000     8.8677     8.8677     8.8677     0.5979    76.3360   150.7813   150.7814     3.0000    -999.25    18.3996     7.9366     8.3552  1457.7340     0.8169    -999.25     0.0000     0.0001     0.0100  8533.9395     1.2772    76.3360  5827.1777   344.2745     1.0000     1.0000 -1381.5740     0.0000     0.0001    11.0000
  1457.7606  2628.0935 2628093.5000    -999.25     8.5000     8.8674     8.8674     8.8666     0.6007    73.5564   150.6470   150.4959     3.0000    -999.25    18.9426     8.1095     8.5433  1457.7606     0.8011    -999.25     0.0000     0.0001     0.0100  8622.3545     1.2989    73.5564  5447.0854   344.3073     1.0000     1.0000 -1381.6006     0.0000     0.0001    11.0000
  1457.8864  2864.8701 2889018.7500    -999.25     8.5000     8.8615     8.8615     8.8615     0.6207    60.4111   149.1460   149.1461     3.0000    -999.25    21.5103     8.9270     9.4326  1457.8864     0.7266    -999.25     0.0000     0.0001     0.0100  9478.4082     1.4018    60.4111  3649.5059   344.4626     1.0000     1.0000 -1381.7263     0.0000     0.0001    11.0000
  1457.9130  2944.1907 2944190.5000    -999.25     8.5000     8.8602     8.8602     8.8584     0.6249    55.3927   148.8286   148.4961     3.0000    -999.25    22.6059     8.7074     9.1850  1457.9130     0.7145    -999.25     0.0000     0.0001     0.0100  9659.4180     1.4376    55.3927  3187.4556   344.4945     1.0000     1.0000 -1381.7529     0.0000     0.0001    11.0000
  1458.0388  3367.5188 3396023.2500    -999.25     8.5000     8.8439     8.8439     8.8439     0.5973    31.6586   145.4216   145.4220     3.0000    -999.25    27.7877     7.6687     8.0143  1458.0387     0.6569    -999.25     0.0000     0.0001     0.0100 11141.8086     1.6067    31.6586  1002.2701   344.6458     1.0000     1.0000 -1381.8788     0.0000     0.0001    11.0000
  1458.0654  3491.5618 3491561.7500    -999.25     8.5000     8.8404     8.8404     8.8408     0.5915    28.2788   144.7012   144.3354     3.0000    -999.25    29.2414     7.1558     7.4625  1458.0653     0.6474    -999.25     0.0000     0.0001     0.0100 11455.2549     1.6576    28.2788   853.7162   344.6535     1.0000     1.0000 -1381.9054     0.0000     0.0001    11.0000
  1458.1912  4157.0688 4162226.2500    -999.25     8.5000     8.8264     8.8264     8.8264     0.5386    12.2946   139.1960   139.1967     3.0000    -999.25    36.1166     4.7302     4.8529  1458.1912     0.6024    -999.25     0.0000     0.0001     0.0100 13655.5977     1.8984    12.2946   151.1567   344.6899     1.0000     1.0000 -1382.0311     0.0000     0.0001    11.0000
  1458.2178  4304.0361 4304036.0000    -999.25     8.5000     8.8234     8.8234     8.8238     0.5274    10.9734   138.0320   137.7650     3.0000    -999.25    37.6508     4.4254     4.5380  1458.2178     0.5953    -999.25     0.0000     0.0007     0.0100 14120.8535     1.9491    10.9734   128.6708   344.6735     1.0000     1.0000 -1382.0577     1.2022     0.0007    11.0000
  1458.3436  5093.0063 5064437.5000    -999.25     8.5000     8.8119     8.8119     8.8119     0.5255     4.7252   130.9932   130.9940     3.0000    -999.25    44.9067     2.9837     3.0485  1458.3435     0.5618    -999.25     0.0000     0.0037     0.0100 16615.6094     2.1888     4.7252    22.3278   344.5960     1.0000     1.0000 -1382.1836     6.8880     0.0037    11.0000
  1458.3702  5225.2222 5225222.0000    -999.25     8.5000     8.8095     8.8095     8.8114     0.5251     4.3710   129.5049   129.5334     3.0000    -999.25    46.1343     2.8606     2.9251  1458.3701     0.5576    -999.25     0.0005     0.0069     0.0121 17143.1172     2.2201     4.3710    19.6989   344.4561     1.0000     1.0000 -1382.2102    13.0856     0.0069    11.0000
  1458.4960  5886.4346 5846878.5000    -999.25     8.5000     8.8087     8.8087     8.8087     0.4898     2.6955   122.6245   122.6253     3.0000    -999.25    51.9404     2.2787     2.3414  1458.4960     0.5379    -999.25     0.0026     0.0220     0.0220 19182.6699     2.3682     2.6955     7.2659   343.7944     1.0000     1.0000 -1382.3359    42.3960     0.0220    11.0000
  1458.5226  5978.3252 5978325.5000    -999.25     8.5000     8.8085     8.8085     8.8087     0.4823     2.6343   121.1697   121.5534     3.0000    -999.25    52.6774     2.2383     2.3023  1458.5226     0.5370    -999.25     0.0030     0.0238     0.0238 19613.9277     2.3766     2.6343     6.9572   343.5715     1.0000     1.0000 -1382.3625    46.2460     0.0238    11.0000
  1458.6484  6323.2026 6311195.5000    -999.25     8.5000     8.8089     8.8089     8.8089     0.5303     2.3446   116.4836   116.4841     0.0000    -999.25    56.1631     2.0474     2.1174  1458.6483     0.5329    -999.25     0.0051     0.0323     0.0323 20706.0195     2.4165     2.3446     5.4973   342.5175     1.0000     1.0000 -1382.4884    64.4540     0.0323    11.0000
  1458.6750  6381.5796 6381579.5000    -999.25     8.5000     8.8090     8.8090     8.8103     0.5404     2.3720   115.4927   115.9341     0.0000    -999.25    56.4667     2.0405     2.1120  1458.6749     0.5342    -999.25     0.0048     0.0321     0.0321 20936.9395     2.4181     2.3720     5.6301   342.2925     1.0000     1.0000 -1382.5150    64.7032     0.0321    11.0000
  1458.8008  6523.1050 6530260.5000    -999.25     8.5000     8.8170     8.8170     8.8170     0.5945     2.5016   113.3326   113.3328     0.0000    -999.25    57.9028     2.0081     2.0865  1458.8008     0.5400    -999.25     0.0031     0.0310     0.0310 21424.7383     2.4255     2.5016     6.2582   341.2286     1.0000     1.0000 -1382.6407    65.8820     0.0310    11.0000
  1458.8274  6561.6982 6561698.5000    -999.25     8.5000     8.8187     8.8187     8.8162     0.6059     2.5564   112.8758   113.0869     0.0000    -999.25    57.8504     2.0156     2.0944  1458.8274     0.5412    -999.25     0.0028     0.0309     0.0309 21527.8828     2.4300     2.5564     6.5495   340.9961     1.0000     1.0000 -1382.6674    66.0637     0.0309    11.0000
  1458.9532  6675.6621 6679530.5000    -999.25     8.5000     8.8121     8.8121     8.8121     0.6259     2.8155   111.9243   111.9237     0.0000    -999.25    57.6023     2.0511     2.1321  1458.9531     0.5470    -999.25     0.0012     0.0301     0.0301 21914.4707     2.4513     2.8155     7.9272   339.8963     1.0000     1.0000 -1382.7932    66.9230     0.0301    12.0000
  1458.9799  6704.5396 6704539.5000    -999.25     8.5000     8.8107     8.8107     8.8105     0.6302     2.8601   111.7223   111.5481     0.0000    -999.25    57.4458     2.0689     2.1490  1458.9799     0.5470    -999.25     0.0011     0.0300     0.0300 21996.5215     2.4575     2.8601     8.1894   339.6925     1.0000     1.0000 -1382.8199    66.9668     0.0300    12.0000
  1459.1056  6903.7046 6901301.5000    -999.25     8.5000     8.8027     8.8027     8.8027     0.6193     3.0698   109.7799   109.7799     0.0000    -999.25    56.7092     2.1525     2.2287  1459.1056     0.5469    -999.25     0.0004     0.0298     0.0298 22642.0645     2.4865     3.0698     9.4237   338.7331     1.0000     1.0000 -1382.9456    67.1730     0.0298    12.0000
  1459.1322  6942.9395 6942939.5000    -999.25     8.5000     8.8010     8.8010     8.8019     0.6170     3.1087   109.3689   109.1812     0.0000    -999.25    56.5941     2.1824     2.2569  1459.1322     0.5461    -999.25     0.0004     0.0299     0.0299 22778.6719     2.4913     3.1087     9.6714   338.6138     1.0000     1.0000 -1382.9722    67.1346     0.0299    12.0000
