~Version ---------------------------------------------------
VERS. 2.0 : CWLS log ASCII Standard -VERSION 2.0
WRAP.  NO : 
~Well ------------------------------------------------------
STRT.m                                                1333.6522 : 
STOP.m                                                1778.5078 : 
STEP.m                                                   0.1524 : 
NULL.                                                   -999.25 : 
COMP.                                                           : COMPANY
WELL.                                                   Well-15 : WELL
FLD .                                                           : FIELD
LOC .                                                           : LOCATION
SRVC.                                                           : SERVICE COMPANY
DATE. 2021-01-20 14:34:07   : Log Export Date {yyyy-MM-dd HH:mm : ss}
PROV.                                                           : PROVINCE
UWI .                                                   Well-15 : UNIQUE WELL ID
API .                                                           : API NUMBER
~Curve Information -----------------------------------------
DEPTH             .m        : DEPTH
ACOUSTICIMPEDANCE1.kPa.s/m  : ACOUSTICIMPEDANCE1
AI                .kPa.s/m  : AI
BS                .in       : BS
CALI              .in       : CALI
CALI[DERIVED]1    .in       : CALI[DERIVED]1
DRES              .ohm.m    : DRES
DT                .us/ft    : DT
DT2               .us/ft    : DT2
DT4P              .us/ft    : DT4P
FACIES            ._        : FACIES
FLD1              ._        : FLD1
GR                .gAPI     : GR
GR_EDTC           .gAPI     : GR_EDTC
LLD               .ohm.m    : LLD
LLS               .ohm.m    : LLS
M2R2              .ohm.m    : M2R2
LLS_1             .ohm.m    : LLS_1
LLD_1             .ohm.m    : LLD_1
DEPTH_1           .m        : DEPTH_1
MSFL              .ohm.m    : MSFL
NPHI              .m3/m3    : NPHI
PERF_INT          ._        : PERF_INT
PIMP              .kPa.s/m  : PIMP
PR                ._        : PR
RHOB              .g/cm3    : RHOB
RT_MODELLING      .ohm.m    : RT_MODELLING
RT_POWER          .ohm.m    : RT_POWER
SP                .mV       : SP
TDVSS             .m        : TDVSS
TENS              .t        : TENS
VPVS              ._        : VPVS
ZLT               ._        : ZLT
~Params ----------------------------------------------------
~Other -----------------------------------------------------
~ASCII -----------------------------------------------------
# ...
  1635.5566  7926.6763 7926653.0000     8.5000    10.1865    10.1865     6.4048    93.9432   247.6298    93.9432     0.0000    -999.25    83.8163   134.7522     6.4048     4.6424    -999.25    -999.25    -999.25  1635.5565     2.9414     0.4256    -999.25 26006.0820     0.4159     2.4431     6.4048    41.0215   -80.9300 -1343.6190  2123.0078     2.6360    14.0000
  1635.7090  7576.8872 7576966.5000     8.5000    10.1551    10.1551     6.3305    98.4450   254.5576    98.4450     0.0000    -999.25    80.9515   134.6755     6.3306     4.6033    -999.25    -999.25    -999.25  1635.7090     3.0029     0.4376    -999.25 24858.8145     0.4121     2.4472     6.3306    40.0765   -81.2844 -1343.6711  2064.0774     2.5858    14.0000
  1635.8615  7586.7686 7586809.0000     8.5000    10.0702    10.0702     6.0008    99.0600   241.3631    99.0600     0.0000    -999.25    78.3536   132.5226     6.0008     4.3893    -999.25    -999.25    -999.25  1635.8615     2.0779     0.4509    -999.25 24891.1074     0.3987     2.4657     6.0008    36.0096   -81.5971 -1343.7234  2043.0138     2.4365    14.0000
  1636.0138  7676.7212 7676675.5000     8.5000    10.0013    10.0013     5.6734    99.4239   239.6832    99.4239     0.0000    -999.25    78.0037   129.6335     5.6734     4.1662    -999.25    -999.25    -999.25  1636.0138     1.6622     0.4546    -999.25 25185.9434     0.3961     2.5041     5.6734    32.1875   -81.8123 -1343.7754  2039.0052     2.4107    14.0000
  1636.1663  7689.8799 7689804.5000     8.5000     9.9589     9.9589     5.5115   100.3319   280.5952   100.3319     0.0000    -999.25    77.6992   126.8512     5.5115     4.0363    -999.25    -999.25    -999.25  1636.1663     1.8197     0.4500    -999.25 25229.0176     0.4267     2.5313     5.5115    30.3766   -81.9722 -1343.8276  2041.9980     2.7966    14.0000
  1636.3186  7843.0122 7842960.0000     8.5000     9.9187     9.9187     5.4916    97.9571   262.1102    97.9571     0.0000    -999.25    77.2557   125.5462     5.4916     3.9855    -999.25    -999.25    -999.25  1636.3186     1.9658     0.4393    -999.25 25731.4961     0.4188     2.5206     5.4916    30.1577   -82.0625 -1343.8796  2044.9961     2.6758    14.0000
  1636.4711  8272.9170 8273008.0000     8.5000    10.0387    10.0387     5.5858    91.9530   192.3504    91.9530     0.0000    -999.25    77.0888   120.7512     5.5858     4.0178    -999.25    -999.25    -999.25  1636.4711     1.8412     0.4432    -999.25 27142.4141     0.3518     2.4958     5.5858    31.2012   -82.0835 -1343.9319  2083.9744     2.0918    14.0000
  1636.6234  8383.5830 8383804.5000     8.5000    10.2886    10.2886     5.7391    91.0592   179.0245    91.0592     0.0000    -999.25    76.2787   113.2288     5.7391     4.0995    -999.25    -999.25    -999.25  1636.6234     1.7104     0.4529    -999.25 27505.9180     0.3255     2.5046     5.7391    32.9373   -81.8621 -1343.9839  2122.9487     1.9661    14.0000
  1636.7758  8790.5928 8790884.0000     8.5000    10.4228    10.4228     5.9580    88.8819   165.2713    88.8819     0.0000    -999.25    74.0379   104.8828     5.9580     4.2322    -999.25    -999.25    -999.25  1636.7758     1.7955     0.4586    -999.25 28841.4844     0.2965     2.5634     5.9580    35.4978   -81.4027 -1344.0360  2143.9724     1.8594    14.0000
  1636.9282  9186.8594 9186988.0000     8.5000    10.3320    10.3320     6.2369    89.0493   176.6555    89.0493     0.0000    -999.25    69.9655    99.2139     6.2369     4.4249    -999.25    -999.25    -999.25  1636.9281     2.5848     0.4427    -999.25 30141.0391     0.3297     2.6840     6.2369    38.8989   -81.1323 -1344.0881  2199.9265     1.9838    14.0000
  1637.0806  9750.7979 9750318.0000     8.5000    10.0829    10.0829     6.4375    88.5723   172.6353    88.5723     0.0000    -999.25    64.1913   101.4622     6.4375     4.5660    -999.25    -999.25    -999.25  1637.0806     7.9772     0.4153    -999.25 31989.2344     0.3213     2.8335     6.4375    41.4414   -81.0410 -1344.1403  2175.0327     1.9490    14.0000
  1637.2330  9811.8643 9811160.0000     8.5000     9.7224     9.7224     6.4705    89.3351   179.6080    89.3351     0.0000    -999.25    62.2859   104.6247     6.4705     4.5941    -999.25    -999.25    -999.25  1637.2329     5.7003     0.4090    -999.25 32188.8438     0.3357     2.8758     6.4705    41.8674   -81.3396 -1344.1924  2161.0183     2.0105    14.0000
  1637.3854 10181.4297 10181616.0000     8.5000     9.4478     9.4478     6.3503    82.6437   171.3100    82.6437     0.0000    -999.25    64.3569   109.7751     6.3503     4.5142    -999.25    -999.25    -999.25  1637.3854     2.4134     0.4348    -999.25 33404.2539     0.3484     2.7606     6.3503    40.3263   -81.6949 -1344.2445  2159.0027     2.0729    14.0000
  1637.5378  9917.9795 9918731.0000     8.5000     9.3460     9.3460     6.2057    82.2390   169.6929    82.2390     0.0000    -999.25    63.2479   100.8879     6.2057     4.4009    -999.25    -999.25    -999.25  1637.5377     2.4708     0.4666    -999.25 32541.7676     0.3465     2.6760     6.2057    38.5107   -81.5011 -1344.2966  2120.0513     2.0634    14.0000
  1637.6902  9281.5518 9282082.0000     8.5000     9.3683     9.3683     6.3673    90.1899   185.0558    90.1899     0.0000    -999.25    58.9882    88.6858     6.3673     4.4892    -999.25    -999.25    -999.25  1637.6902    10.3771     0.4584    -999.25 30453.0254     0.3442     2.7464     6.3673    40.5425   -80.8273 -1344.3486  2152.9568     2.0518    14.0000
  1637.8427 10042.7656 10042472.0000     8.5000     9.3302     9.3302     6.9470    88.6256   174.6877    88.6256     0.0000    -999.25    53.1434    78.3453     6.9470     4.8545    -999.25    -999.25    -999.25  1637.8427    62.0670     0.4136    -999.25 32947.7422     0.3267     2.9201     6.9470    48.2608   -80.2429 -1344.4005  2103.0327     1.9711    14.0000
  1637.9950  9934.8105 9933788.0000     8.5000     9.3178     9.3178     7.8770    90.7883   143.4803    90.7883     0.0000    -999.25    48.0786    81.3026     7.8770     5.4493    -999.25    -999.25    -999.25  1637.9950    33.5168     0.3744    -999.25 32591.1719     0.1660     2.9592     7.8770    62.0471   -80.1663 -1344.4520  2123.9724     1.5804    14.0000
  1638.1475  9420.0566 9420021.0000     8.5000     9.3993     9.3993     8.8476    89.4722   148.7152    89.4722     0.0000    -999.25    49.9922    88.4735     8.8476     6.1113    -999.25    -999.25    -999.25  1638.1475     5.2297     0.3714    -999.25 30905.5820     0.2164     2.7652     8.8476    78.2800   -80.3747 -1344.5039  2154.9797     1.6621    14.0000
  1638.2998  8653.3555 8653861.0000     8.5000     9.4997     9.4997     9.3648    90.0872   151.4590    90.0872     0.0000    -999.25    55.6365    95.9944     9.3648     6.4727    -999.25    -999.25    -999.25  1638.2998     3.3817     0.3981    -999.25 28391.9316     0.2263     2.5576     9.3648    87.6995   -80.6109 -1344.5555  2135.0264     1.6813    14.0000
  1638.4523  8492.9844 8493154.0000     8.5000     9.6544     9.6544     9.4219    88.3645   155.1280    88.3645     0.0000    -999.25    59.3785   101.8256     9.4219     6.4588    -999.25    -999.25    -999.25  1638.4523     2.5711     0.4247    -999.25 27864.6797     0.2599     2.4622     9.4219    88.7722   -80.7985 -1344.6074  2155.9863     1.7556    14.0000
  1638.6046  8250.3594 8250427.0000     8.5000     9.7517     9.7517     8.8595    90.2575   162.1239    90.2575     0.0000    -999.25    61.6142   104.7877     8.8595     6.1227    -999.25    -999.25    -999.25  1638.6046     2.1308     0.4447    -999.25 27068.3301     0.2754     2.4431     8.8595    78.4907   -80.9373 -1344.6591  2148.0105     1.7962    14.0000
  1638.7570  7993.8013 7993740.5000     8.5000     9.8221     9.8221     8.0187    92.9446   162.1331    92.9446     0.0000    -999.25    64.7298   106.8596     8.0187     5.5891    -999.25    -999.25    -999.25  1638.7570     1.7515     0.4544    -999.25 26226.1836     0.2552     2.4376     8.0187    64.2995   -81.0762 -1344.7108  2118.0393     1.7444    14.0000
