~Version ---------------------------------------------------
VERS. 2.0 : CWLS log ASCII Standard -VERSION 2.0
WRAP.  NO : 
~Well ------------------------------------------------------
STRT.m                                                   1300.0 : 
STOP.m                                                1481.9656 : 
STEP.m                                                   0.1524 : 
NULL.                                                   -999.25 : 
COMP.                                                           : COMPANY
WELL.                                                    Well-3 : WELL
FLD .                                                           : FIELD
LOC .                                                           : LOCATION
SRVC.                                                           : SERVICE COMPANY
DATE. 2021-01-20 14:34:00   : Log Export Date {yyyy-MM-dd HH:mm : ss}
PROV.                                                           : PROVINCE
UWI .                                                    Well-3 : UNIQUE WELL ID
API .                                                           : API NUMBER
~Curve Information -----------------------------------------
DEPTH             .m        : DEPTH
ACOUSTICIMPEDANCE1.kPa.s/m  : ACOUSTICIMPEDANCE1
AI                .kPa.s/m  : AI
AVG_PIGN          .m3/m3    : AVG_PIGN
BS                .in       : BS
CALI              .in       : CALI
CALI[DERIVED]1    .in       : CALI[DERIVED]1
CALI1             .in       : CALI1
DEVI              .deg      : DEVI
DFL               .ohm.m    : DFL
DT                .us/ft    : DT
DT1               .us/ft    : DT1
FACIES            ._        : FACIES
FLD1              ._        : FLD1
GR                .gAPI     : GR
HDRS              .ohm.m    : HDRS
HMRS              .ohm.m    : HMRS
DEPTH_1           .m        : DEPTH_1
NPHI              .m3/m3    : NPHI
PERF_INT          ._        : PERF_INT
PERMEABILITY      .mD       : PERMEABILITY
PIGN              .m3/m3    : PIGN
PIGN_MODELLING    .m3/m3    : PIGN_MODELLING
PIMP              .kPa.s/m  : PIMP
RHOB              .g/cm3    : RHOB
RT_MODELLING      .ohm.m    : RT_MODELLING
RT_POWER          .ohm.m    : RT_POWER
SP                .mV       : SP
SUWI              ._        : SUWI
SUWI_MODELLING    ._        : SUWI_MODELLING
TDVSS             .m        : TDVSS
VCL               .%        : VCL
WATER_VOL         ._        : WATER_VOL
ZLT               ._        : ZLT
~Params ----------------------------------------------------
~Other -----------------------------------------------------
~ASCII -----------------------------------------------------
# ...
  1481.0512  5640.9873 5659309.5000    -999.25     8.5000     8.9077     8.9077     8.9077     1.0489     1.9413   128.3400   128.3400     0.0000    -999.25    96.5191     1.4431     1.4810  1481.0511     0.7105    -999.25    -999.25     0.0033     0.0100 18567.2891     2.3752     1.9413     3.7686   352.8889     1.0000     1.0000 -1404.8911    96.3900     0.0033    14.0000
  1481.0778  5669.7246 5669724.5000    -999.25     8.5000     8.9038     8.9038     8.9062     1.0600     1.9482   128.2439   128.2206     0.0000    -999.25    96.3938     1.4401     1.4781  1481.0778     0.7139    -999.25    -999.25     0.0030     0.0100 18601.4590     2.3855     1.9482     3.7956   352.9132     1.0000     1.0000 -1404.9177    96.7290     0.0030    14.0000
  1481.2036  5812.3008 5827005.0000    -999.25     8.5000     8.8990     8.8990     8.8990     1.0656     1.9806   127.6559   127.6560     0.0000    -999.25    95.8010     1.4258     1.4645  1481.2036     0.7299    -999.25    -999.25     0.0015     0.0100 19117.4707     2.4343     1.9806     3.9230   353.0286     1.0000     1.0000 -1405.0436    98.3320     0.0015    14.0000
  1481.2302  5860.2617 5860261.5000    -999.25     8.5000     8.8980     8.8980     8.9019     1.0668     1.9670   127.5316   127.6165     0.0000    -999.25    95.2955     1.4208     1.4583  1481.2302     0.7291    -999.25    -999.25     0.0013     0.0100 19226.5801     2.4520     1.9670     3.8701   352.9377     1.0000     1.0000 -1405.0702    96.6321     0.0013    14.0000
  1481.3560  6065.1284 6058866.0000    -999.25     8.5000     8.9157     8.9157     8.9157     1.0500     1.9026   127.4298   127.4298     0.0000    -999.25    92.9047     1.3970     1.4287  1481.3560     0.7254    -999.25    -999.25     0.0005     0.0100 19878.1699     2.5357     1.9026     3.6198   352.5077     1.0000     1.0000 -1405.1959    88.5930     0.0005    14.0000
  1481.3826  6100.8599 6100860.0000    -999.25     8.5000     8.9194     8.9194     8.9228     1.0464     1.8782   127.4083   127.5261     0.0000    -999.25    92.2330     1.3921     1.4230  1481.3826     0.7216    -999.25    -999.25     0.0005     0.0100 20015.9453     2.5502     1.8782     3.5304   352.3349     1.0000     1.0000 -1405.2225    80.7539     0.0005    14.0000
  1481.5084  6236.9390 6217417.5000    -999.25     8.5000     8.9564     8.9564     8.9564     0.9596     1.7628   127.9816   127.9815     0.0000    -999.25    89.0565     1.3689     1.3957  1481.5083     0.7037    -999.25    -999.25     0.0006     0.0100 20398.3516     2.6188     1.7628     3.1076   351.5179     1.0000     1.0000 -1405.3484    43.6800     0.0006    14.0000
  1481.5350  6242.0635 6242063.5000    -999.25     8.5000     8.9642     8.9642     8.9594     0.9412     1.7464   128.1028   128.1844     0.0000    -999.25    88.3061     1.3659     1.3934  1481.5349     0.6997    -999.25    -999.25     0.0036     0.0114 20479.2109     2.6234     1.7464     3.0512   351.2875     1.0000     1.0000 -1405.3750    46.9814     0.0036    14.0000
  1481.6608  6243.4521 6208247.5000    -999.25     8.5000     8.9737     8.9737     8.9737     0.8747     1.6687   129.1442   129.1441     0.0000    -999.25    84.7571     1.3515     1.3828  1481.6608     0.6805    -999.25    -999.25     0.0180     0.0180 20368.2676     2.6454     1.6687     2.7847   350.1979     1.0000     1.0000 -1405.5007    62.5950     0.0180    14.0000
  1481.6874  6201.0977 6201097.5000    -999.25     8.5000     8.9757     8.9757     8.9742     0.8606     1.6654   129.3644   129.3189     0.0000    -999.25    84.1290     1.3514     1.3831  1481.6874     0.6787    -999.25    -999.25     0.0294     0.0294 20344.8086     2.6319     1.6654     2.7736   349.9462     1.0000     1.0000 -1405.5273    67.2781     0.0294    14.0000
  1481.8132  6014.7119 5995642.0000    -999.25     8.5000     8.9769     8.9769     8.9769     0.8122     1.6496   130.1460   130.1459    -999.25    -999.25    81.1584     1.3505     1.3845  1481.8131     0.6701    -999.25    -999.25     0.0832     0.0832 19670.7402     2.5682     1.6496     2.7212   348.7560     1.0000     1.0000 -1405.6532    89.4260     0.0832    14.0000
  1481.8398  5952.1987 5952199.0000    -999.25     8.5000     8.9771     8.9771     8.9763     0.8020     1.6444   130.3112   129.9585    -999.25    -999.25    80.6332     1.3526     1.3857  1481.8397     0.6698    -999.25    -999.25    -999.25    -999.25 19528.2109     2.5447     1.6444     2.7043   348.5902    -999.25    -999.25 -1405.6798    -999.25    -999.25    14.0000
  1481.9656  5747.2803    -999.25    -999.25     8.5000     8.9735     8.9735     8.9735     0.9928     1.6200   129.0720   129.0722    -999.25    -999.25    78.1498     1.3626     1.3912  1481.9656     0.6681    -999.25    -999.25    -999.25    -999.25    -999.25     2.4338     1.6200     2.6243   347.8062    -999.25    -999.25 -1405.8055    -999.25    -999.25    14.0000
