~Version ---------------------------------------------------
VERS. 2.0 : CWLS log ASCII Standard -VERSION 2.0
WRAP.  NO : 
~Well ------------------------------------------------------
STRT.m                                                   1250.0 : 
STOP.m                                                1661.9372 : 
STEP.m                                                   0.1524 : 
NULL.                                                   -999.25 : 
COMP.                                                           : COMPANY
WELL.                                                    Well-7 : WELL
FLD .                                                           : FIELD
LOC .                                                           : LOCATION
SRVC.                                                           : SERVICE COMPANY
DATE. 2021-01-20 14:34:01   : Log Export Date {yyyy-MM-dd HH:mm : ss}
PROV.                                                           : PROVINCE
UWI .                                                    Well-7 : UNIQUE WELL ID
API .                                                           : API NUMBER
~Curve Information -----------------------------------------
DEPTH             .m        : DEPTH
ACOUSTICIMPEDANCE1.kPa.s/m  : ACOUSTICIMPEDANCE1
AI                .kPa.s/m  : AI
AVG_PIGN          .m3/m3    : AVG_PIGN
CALI              .in       : CALI
CALI[DERIVED]1    .in       : CALI[DERIVED]1
DEVI              .deg      : DEVI
DFL               .ohm.m    : DFL
DT                .us/ft    : DT
FACIES            ._        : FACIES
FLD1              ._        : FLD1
GR                .gAPI     : GR
HDRS              .ohm.m    : HDRS
HMRS              .ohm.m    : HMRS
DEPTH_1           .m        : DEPTH_1
NPHI              .m3/m3    : NPHI
PEF               .b/e      : PEF
PERF_INT          ._        : PERF_INT
PERMEABILITY      .mD       : PERMEABILITY
PIGN              .m3/m3    : PIGN
PIGN_MODELLING    .m3/m3    : PIGN_MODELLING
PIMP              .kPa.s/m  : PIMP
RHOB              .g/cm3    : RHOB
LLD               .ohm.m    : LLD
RT_MODELLING      .ohm.m    : RT_MODELLING
RT_POWER          .ohm.m    : RT_POWER
SP                .mV       : SP
SUWI              ._        : SUWI
SUWI_MODELLING    ._        : SUWI_MODELLING
SXWI              ._        : SXWI
TDVSS             .m        : TDVSS
VCL               .%        : VCL
WATER_VOL         ._        : WATER_VOL
ZLT               ._        : ZLT
~Params ----------------------------------------------------
~Other -----------------------------------------------------
~ASCII -----------------------------------------------------
# ...
  1305.3212  5023.4575 5021396.0000    -999.25     9.2763     9.2763     0.8169     1.3583   138.1826     0.0000    -999.25    55.2233     1.1097     1.1209  1305.3212     0.5622     5.9102    -999.25    -999.25     0.0311     0.0311 16474.3965     2.2774     1.0458     1.0458     1.0937  -197.9741     1.0000     1.0000     1.0000 -1217.9512    79.0740     0.0311    -999.25
  1305.3452  5019.2285 5019228.5000    -999.25     9.2804     9.2804     0.8179     1.3462   138.2411     0.0000    -999.25    55.4916     1.0962     1.1074  1305.3452     0.5645     5.8798    -999.25    -999.25     0.0309     0.0309 16467.2852     2.2765     1.0310     1.0310     1.0641  -197.9730     1.0000     1.0000     1.0000 -1217.9752    79.3994     0.0309    -999.25
  1305.4736  4978.2295 4975614.0000    -999.25     9.3024     9.3024     0.6960     1.2815   139.0670     0.0000    -999.25    56.9274     1.0241     1.0350  1305.4736     0.5767     5.7232    -999.25    -999.25     0.0294     0.0294 16324.1934     2.2714     0.9516     0.9516     0.9055  -197.9623     1.0000     1.0000     1.0000 -1218.1036    81.1400     0.0294    -999.25
  1305.4976  4967.4619 4967462.0000    -999.25     9.3020     9.3020     0.6732     1.2639   139.2214     0.0000    -999.25    57.1986     1.0086     1.0200  1305.4976     0.5789     5.6939    -999.25    -999.25     0.0293     0.0293 16297.4473     2.2690     0.9365     0.9365     0.8783  -197.9603     1.0000     1.0000     1.0000 -1218.1276    81.4187     0.0293    -999.25
  1305.6260  4855.1641 4854357.0000    -999.25     9.2995     9.2995     0.6445     1.1694   141.6365     0.0000    -999.25    58.6491     0.9257     0.9397  1305.6260     0.5908     5.5393    -999.25    -999.25     0.0285     0.0285 15926.3672     2.2561     0.8559     0.8559     0.7326  -197.9601     1.0000     1.0000     1.0000 -1218.2560    82.9100     0.0285    -999.25
  1305.6500  4833.2158 4833216.0000    -999.25     9.2893     9.2893     0.6391     1.1461   142.0879     0.0000    -999.25    58.9021     0.9107     0.9250  1305.6500     0.5927     5.5104    -999.25    -999.25     0.0283     0.0283 15857.0068     2.2531     0.8437     0.8437     0.7126  -197.9600     1.0000     1.0000     1.0000 -1218.2800    82.9919     0.0283    -999.25
  1305.7784  4700.3335 4701194.5000    -999.25     9.2352     9.2352     0.6676     1.0213   145.0499     0.0000    -999.25    60.2553     0.8306     0.8463  1305.7784     0.6030     5.3853    -999.25    -999.25     0.0276     0.0276 15423.8662     2.2368     0.7781     0.7781     0.6054  -197.9659     1.0000     1.0000     1.0000 -1218.4084    83.4300     0.0276    -999.25
  1305.8024  4676.5176 4676517.5000    -999.25     9.2480     9.2480     0.6729     0.9966   145.6035     0.0000    -999.25    60.3223     0.8195     0.8347  1305.8024     0.6028     5.3619    -999.25    -999.25     0.0280     0.0280 15342.9053     2.2340     0.7702     0.7702     0.5936  -197.9670     1.0000     1.0000     1.0000 -1218.4324    83.1782     0.0280    -999.25
  1305.9308  4568.3003 4569936.0000    -999.25     9.3164     9.3164     0.6946     0.8649   148.0391     0.0000    -999.25    60.6809     0.7598     0.7727  1305.9308     0.6017     5.2589    -999.25    -999.25     0.0303     0.0303 14993.2305     2.2188     0.7283     0.7283     0.5305  -197.9730     1.0000     1.0000     1.0000 -1218.5608    81.8310     0.0303    -999.25
  1305.9548  4550.0146 4550014.5000    -999.25     9.3308     9.3308     0.6986     0.8502   148.4944     0.0000    -999.25    60.4339     0.7531     0.7655  1305.9548     0.5994     5.2397    -999.25    -999.25     0.0304     0.0304 14927.8701     2.2167     0.7249     0.7249     0.5256  -197.9741     1.0000     1.0000     1.0000 -1218.5848    81.7828     0.0304    -999.25
  1306.0832  4498.5005 4500702.5000    -999.25     9.4080     9.4080     0.5967     0.7716   149.4390     0.0000    -999.25    59.1120     0.7173     0.7267  1306.0833     0.5869     5.1677    -999.25    -999.25     0.0308     0.0308 14766.0840     2.2055     0.7067     0.7067     0.4994  -197.9904     1.0000     1.0000     1.0000 -1218.7131    81.5250     0.0308    -999.25
  1306.1072  4491.4854 4491485.5000    -999.25     9.4044     9.4044     0.5777     0.7670   149.6156     0.0000    -999.25    58.7364     0.7151     0.7244  1306.1072     0.5882     5.1543    -999.25    -999.25     0.0306     0.0306 14735.8438     2.2047     0.7068     0.7068     0.4996  -197.9935     1.0000     1.0000     1.0000 -1218.7372    81.6330     0.0306    -999.25
  1306.2356  4497.8267 4499972.0000    -999.25     9.3848     9.3848     0.6098     0.7419   149.1009     0.0000    -999.25    56.7269     0.7035     0.7116  1306.2356     0.5952     5.1350    -999.25    -999.25     0.0297     0.0297 14763.6885     2.2002     0.7074     0.7074     0.5004  -197.9954     1.0000     1.0000     1.0000 -1218.8656    82.2110     0.0297    -999.25
  1306.2596  4501.5586 4501558.5000    -999.25     9.3693     9.3693     0.6158     0.7454   149.0047     0.0000    -999.25    56.5241     0.7043     0.7125  1306.2596     0.5951     5.1314    -999.25    -999.25     0.0297     0.0297 14768.8936     2.2006     0.7095     0.7095     0.5035  -197.9958     1.0000     1.0000     1.0000 -1218.8895    82.1575     0.0297    -999.25
  1306.3880  4526.9956 4527675.5000    -999.25     9.2861     9.2861     0.6066     0.7642   148.3132     0.0000    -999.25    55.4391     0.7090     0.7172  1306.3879     0.5944     5.1392    -999.25    -999.25     0.0302     0.0302 14854.5781     2.2028     0.7211     0.7211     0.5200  -197.9817     1.0000     1.0000     1.0000 -1219.0179    81.8710     0.0302    -999.25
  1306.4120  4532.5571 4532557.0000    -999.25     9.2933     9.2933     0.6049     0.7728   148.1840     0.0000    -999.25    55.4669     0.7116     0.7200  1306.4120     0.5942     5.1406    -999.25    -999.25     0.0302     0.0302 14870.5938     2.2036     0.7243     0.7243     0.5247  -197.9791     1.0000     1.0000     1.0000 -1219.0420    81.8713     0.0302    -999.25
  1306.5404  4548.5562 4548506.0000    -999.25     9.3317     9.3317     0.6106     0.8191   147.9440     0.0000    -999.25    55.6156     0.7255     0.7349  1306.5404     0.5932     5.1600    -999.25    -999.25     0.0302     0.0302 14922.9199     2.2078     0.7413     0.7413     0.5496  -197.9707     1.0000     1.0000     1.0000 -1219.1704    81.8730     0.0302    -999.25
  1306.5644  4551.4868 4551487.0000    -999.25     9.3448     9.3448     0.6117     0.8281   147.8991     0.0000    -999.25    55.8165     0.7289     0.7386  1306.5643     0.5933     5.1636    -999.25    -999.25     0.0303     0.0303 14932.7002     2.2085     0.7446     0.7446     0.5546  -197.9691     1.0000     1.0000     1.0000 -1219.1943    81.8388     0.0303    -999.25
  1306.6928  4561.1533 4559956.0000    -999.25     9.4146     9.4146     0.7399     0.8764   147.8548     0.0000    -999.25    56.8912     0.7470     0.7580  1306.6927     0.5939     5.1732    -999.25    -999.25     0.0306     0.0306 14960.4854     2.2126     0.7624     0.7624     0.5813  -197.9702     1.0000     1.0000     1.0000 -1219.3228    81.6560     0.0306    -999.25
  1306.7168  4561.5386 4561539.0000    -999.25     9.4228     9.4228     0.7639     0.8844   147.8465     0.0000    -999.25    57.1287     0.7503     0.7615  1306.7168     0.5933     5.1750    -999.25    -999.25     0.0306     0.0306 14965.6787     2.2126     0.7651     0.7651     0.5854  -197.9704     1.0000     1.0000     1.0000 -1219.3468    81.6647     0.0306    -999.25
  1306.8452  4564.4492 4563171.5000    -999.25     9.4667     9.4667     0.7946     0.9269   147.7747     0.0000    -999.25    58.3998     0.7680     0.7805  1306.8452     0.5904     5.1597    -999.25    -999.25     0.0305     0.0305 14971.0352     2.2130     0.7793     0.7793     0.6074  -197.9844     1.0000     1.0000     1.0000 -1219.4752    81.7110     0.0305    -999.25
  1306.8692  4563.4766 4563476.5000    -999.25     9.4546     9.4546     0.8003     0.9310   147.7613     0.0000    -999.25    58.4870     0.7704     0.7833  1306.8691     0.5906     5.1568    -999.25    -999.25     0.0300     0.0300 14972.0361     2.2123     0.7810     0.7810     0.6099  -197.9870     1.0000     1.0000     1.0000 -1219.4991    82.0234     0.0300    -999.25
