~Version ---------------------------------------------------
VERS. 2.0 : CWLS log ASCII Standard -VERSION 2.0
WRAP.  NO : 
~Well ------------------------------------------------------
STRT.m                                                 998.5724 : 
STOP.m                                                  1489.91 : 
STEP.m                                                   0.1524 : 
NULL.                                                   -999.25 : 
COMP.                                                           : COMPANY
WELL.                                                    Well-4 : WELL
FLD .                                                           : FIELD
LOC .                                                           : LOCATION
SRVC.                                                           : SERVICE COMPANY
DATE. 2021-01-20 14:34:00   : Log Export Date {yyyy-MM-dd HH:mm : ss}
PROV.                                                           : PROVINCE
UWI .                                                    Well-4 : UNIQUE WELL ID
API .                                                           : API NUMBER
~Curve Information -----------------------------------------
DEPTH             .m        : DEPTH
ACOUSTICIMPEDANCE1.kPa.s/m  : ACOUSTICIMPEDANCE1
AVG_PIGN          .m3/m3    : AVG_PIGN
CALI              .in       : CALI
CALI[DERIVED]1    .in       : CALI[DERIVED]1
DFL               .ohm.m    : DFL
DT                .us/ft    : DT
FACIES            ._        : FACIES
FLD1              ._        : FLD1
GR                .gAPI     : GR
HDRS              .ohm.m    : HDRS
HMRS              .ohm.m    : HMRS
NPHI              .m3/m3    : NPHI
PERF_INT          ._        : PERF_INT
PIGN              .m3/m3    : PIGN
PIGN_MODELLING    .m3/m3    : PIGN_MODELLING
RHOB              .g/cm3    : RHOB
SP                .mV       : SP
SUWI              ._        : SUWI
SUWI_MODELLING    ._        : SUWI_MODELLING
TDVSS             .m        : TDVSS
VCL               .%        : VCL
ZLT               ._        : ZLT
~Params ----------------------------------------------------
~Other -----------------------------------------------------
~ASCII -----------------------------------------------------
# ...
  1130.2460  4363.3325    -999.25     9.2425     9.2425     1.4052   149.6068    -999.25    -999.25    69.8053     1.1705     1.1849     0.6253    -999.25     0.0257     0.0257     2.1417   272.9281     1.0000     1.0000 -1051.6260    80.1840    -999.25
  1130.3984  4381.2686    -999.25     9.2418     9.2418     1.4097   149.8792    -999.25    -999.25    70.0556     1.1679     1.1794     0.6265    -999.25     0.0241     0.0241     2.1544   273.0586     1.0000     1.0000 -1051.7784    80.6720    -999.25
  1130.5508  4417.2759    -999.25     9.2255     9.2255     1.3913   149.7898    -999.25    -999.25    69.4013     1.1609     1.1722     0.6294    -999.25     0.0219     0.0219     2.1708   273.0673     1.0000     1.0000 -1051.9308    81.3940    -999.25
  1130.7032  4436.7549    -999.25     9.1697     9.1697     1.3783   149.2964    -999.25    -999.25    67.5532     1.1664     1.1739     0.6297    -999.25     0.0219     0.0219     2.1732   272.9630     1.0000     1.0000 -1052.0833    81.2090    -999.25
  1130.8556  4428.8931    -999.25     9.1279     9.1279     1.3712   148.4988    -999.25    -999.25    65.6266     1.1777     1.1861     0.6318    -999.25     0.0244     0.0244     2.1578   272.8357     1.0000     1.0000 -1052.2356    80.1650    -999.25
  1131.0080  4422.7520    -999.25     9.1462     9.1462     1.3721   147.5086    -999.25    -999.25    64.8002     1.1844     1.1971     0.6285    -999.25     0.0273     0.0273     2.1404   272.7159     1.0000     1.0000 -1052.3881    78.7770    -999.25
  1131.1604  4435.0527    -999.25     9.1887     9.1887     1.3767   146.4486    -999.25    -999.25    64.1795     1.1896     1.2026     0.6168    -999.25     0.0298     0.0298     2.1309   272.5286     1.0000     1.0000 -1052.5404    77.1690    -999.25
  1131.3128  4457.7388    -999.25     9.1915     9.1915     1.3705   145.5064    -999.25    -999.25    62.6574     1.2039     1.2196     0.6013    -999.25     0.0317     0.0317     2.1281   272.4253     1.0000     1.0000 -1052.6927    75.7050    -999.25
  1131.4652  4500.1221    -999.25     9.1894     9.1894     1.4099   145.0307    -999.25    -999.25    60.4332     1.2272     1.2468     0.5912    -999.25     0.0333     0.0333     2.1413   272.5391     1.0000     1.0000 -1052.8452    74.3920    -999.25
  1131.6176  4550.8096    -999.25     9.2025     9.2025     1.4365   145.2130    -999.25    -999.25    57.5447     1.2351     1.2507     0.5938    -999.25     0.0337     0.0337     2.1681   272.7981     1.0000     1.0000 -1052.9976    73.5740    -999.25
  1131.7700  4558.3281    -999.25     9.2017     9.2017     1.4605   145.5907    -999.25    -999.25    54.7665     1.2185     1.2235     0.6041    -999.25     0.0320     0.0320     2.1773   273.0069     1.0000     1.0000 -1053.1500    74.3460    -999.25
  1131.9224  4516.1587    -999.25     9.1877     9.1877     1.4565   146.0397    -999.25    -999.25    54.5742     1.2093     1.2100     0.6172    -999.25     0.0304     0.0304     2.1638   273.1209     1.0000     1.0000 -1053.3024    75.8670    -999.25
  1132.0748  4468.7026    -999.25     9.1658     9.1658     1.4468   146.5756    -999.25    -999.25    56.8684     1.2178     1.2237     0.6233    -999.25     0.0300     0.0300     2.1490   273.1508     1.0000     1.0000 -1053.4548    76.8200    -999.25
  1132.2272  4438.8027    -999.25     9.1473     9.1473     1.4389   146.8763    -999.25    -999.25    59.0382     1.2186     1.2271     0.6258    -999.25     0.0294     0.0294     2.1390   273.1510     1.0000     1.0000 -1053.6072    77.4800    -999.25
  1132.3796  4434.0132    -999.25     9.1576     9.1576     1.4127   146.7772    -999.25    -999.25    60.3410     1.2115     1.2194     0.6288    -999.25     0.0288     0.0288     2.1352   273.2986     1.0000     1.0000 -1053.7596    77.9410    -999.25
  1132.5320  4459.1670    -999.25     9.1868     9.1868     1.4109   146.4045    -999.25    -999.25    61.2299     1.2088     1.2199     0.6319    -999.25     0.0287     0.0287     2.1419   273.5855     1.0000     1.0000 -1053.9120    77.9450    -999.25
  1132.6844  4491.8110    -999.25     9.1875     9.1875     1.3945   145.9858    -999.25    -999.25    61.5030     1.2066     1.2194     0.6292    -999.25     0.0294     0.0294     2.1514   273.8033     1.0000     1.0000 -1054.0645    77.2870    -999.25
  1132.8368  4512.6060    -999.25     9.1579     9.1579     1.4033   145.8352    -999.25    -999.25    62.0680     1.2020     1.2141     0.6153    -999.25     0.0307     0.0307     2.1591   273.8697     1.0000     1.0000 -1054.2168    76.1430    -999.25
  1132.9892  4517.0762    -999.25     9.1764     9.1764     1.4091   146.0350    -999.25    -999.25    63.8434     1.2009     1.2118     0.5976    -999.25     0.0310     0.0310     2.1642   273.7903     1.0000     1.0000 -1054.3693    75.7800    -999.25
  1133.1416  4512.1450    -999.25     9.2552     9.2552     1.4215   146.4297    -999.25    -999.25    65.9831     1.2031     1.2122     0.5874    -999.25     0.0298     0.0298     2.1677   273.5767     1.0000     1.0000 -1054.5216    76.5450    -999.25
  1133.2940  4504.0073    -999.25     9.2929     9.2929     1.4189   146.7369    -999.25    -999.25    67.1037     1.2058     1.2112     0.5902    -999.25     0.0293     0.0293     2.1683   273.3232     1.0000     1.0000 -1054.6740    76.8530    -999.25
  1133.4464  4493.7217    -999.25     9.2434     9.2434     1.4157   146.7119    -999.25    -999.25    67.1902     1.2039     1.2096     0.6004    -999.25     0.0307     0.0307     2.1630   273.1309     1.0000     1.0000 -1054.8264    76.1190    -999.25
  1133.5988  4494.3779    -999.25     9.1908     9.1908     1.4106   146.2612    -999.25    -999.25    66.9125     1.1957     1.2081     0.6039    -999.25     0.0318     0.0318     2.1567   272.9878     1.0000     1.0000 -1054.9788    75.5870    -999.25
  1133.7512  4492.6011    -999.25     9.1663     9.1663     1.4247   145.6602    -999.25    -999.25    66.3829     1.1941     1.2091     0.5997    -999.25     0.0316     0.0316     2.1470   272.9177     1.0000     1.0000 -1055.1312    75.7540    -999.25
  1133.9036  4475.5449    -999.25     9.2116     9.2116     1.4180   145.3539    -999.25    -999.25    66.5841     1.1927     1.2097     0.5968    -999.25     0.0309     0.0309     2.1343   273.1946     1.0000     1.0000 -1055.2836    76.2790    -999.25
  1134.0560  4445.5571    -999.25     9.2846     9.2846     1.3987   145.6007    -999.25    -999.25    68.2983     1.1732     1.1901     0.6028    -999.25     0.0294     0.0294     2.1236   273.8346     1.0000     1.0000 -1055.4360    77.4310    -999.25
  1134.2084  4413.2500    -999.25     9.3144     9.3144     1.3759   146.4387    -999.25    -999.25    69.7333     1.1461     1.1572     0.6266    -999.25     0.0262     0.0262     2.1203   274.5559     1.0000     1.0000 -1055.5884    79.8430    -999.25
  1134.3608  4409.6860    -999.25     9.3175     9.3175     1.3528   147.4031    -999.25    -999.25    69.5427     1.1333     1.1427     0.6662    -999.25     0.0195     0.0195     2.1326   275.0766     1.0000     1.0000 -1055.7408    84.2000    -999.25
  1134.5132  4435.6587    -999.25     9.3359     9.3359     1.3446   147.8284    -999.25    -999.25    68.8140     1.1332     1.1395     0.7013    -999.25     0.0113     0.0113     2.1513   275.1747     1.0000     1.0000 -1055.8932    88.9630    -999.25
  1134.6656  4453.2437    -999.25     9.3449     9.3449     1.3662   147.6615    -999.25    -999.25    68.4016     1.1338     1.1379     0.7128    -999.25     0.0080     0.0080     2.1574   274.9320     1.0000     1.0000 -1056.0457    90.6960    -999.25
  1134.8180  4447.3374    -999.25     9.2785     9.2785     1.3758   147.1715    -999.25    -999.25    68.4676     1.1339     1.1406     0.6982    -999.25     0.0122     0.0122     2.1474   274.5894     1.0000     1.0000 -1056.1980    88.5110    -999.25
  1134.9704  4424.4717    -999.25     9.1372     9.1372     1.3555   146.7279    -999.25    -999.25    69.0016     1.1247     1.1322     0.6773    -999.25     0.0185     0.0185     2.1299   274.5124     1.0000     1.0000 -1056.3505    85.2050    -999.25
