~Version ---------------------------------------------------
VERS. 2.0 : CWLS log ASCII Standard -VERSION 2.0
WRAP.  NO : 
~Well ------------------------------------------------------
STRT.m                                                 998.5724 : 
STOP.m                                                  1489.91 : 
STEP.m                                                   0.1524 : 
NULL.                                                   -999.25 : 
COMP.                                                           : COMPANY
WELL.                                                    Well-4 : WELL
FLD .                                                           : FIELD
LOC .                                                           : LOCATION
SRVC.                                                           : SERVICE COMPANY
DATE. 2021-01-20 14:34:00   : Log Export Date {yyyy-MM-dd HH:mm : ss}
PROV.                                                           : PROVINCE
UWI .                                                    Well-4 : UNIQUE WELL ID
API .                                                           : API NUMBER
~Curve Information -----------------------------------------
DEPTH             .m        : DEPTH
ACOUSTICIMPEDANCE1.kPa.s/m  : ACOUSTICIMPEDANCE1
AVG_PIGN          .m3/m3    : AVG_PIGN
CALI              .in       : CALI
CALI[DERIVED]1    .in       : CALI[DERIVED]1
DFL               .ohm.m    : DFL
DT                .us/ft    : DT
FACIES            ._        : FACIES
FLD1              ._        : FLD1
GR                .gAPI     : GR
HDRS              .ohm.m    : HDRS
HMRS              .ohm.m    : HMRS
NPHI              .m3/m3    : NPHI
PERF_INT          ._        : PERF_INT
PIGN              .m3/m3    : PIGN
PIGN_MODELLING    .m3/m3    : PIGN_MODELLING
RHOB              .g/cm3    : RHOB
SP                .mV       : SP
SUWI              ._        : SUWI
SUWI_MODELLING    ._        : SUWI_MODELLING
TDVSS             .m        : TDVSS
VCL               .%        : VCL
ZLT               ._        : ZLT
~Params ----------------------------------------------------
~Other -----------------------------------------------------
~ASCII -----------------------------------------------------
# ...
  1354.5788  6425.2173    -999.25     9.1749     9.1749     1.7312   120.1132     0.0000    -999.25    75.6607     1.6340     1.6657     0.4277    -999.25     0.0394     0.0394     2.5320   288.5082     1.0000     1.0000 -1275.9589    64.9740     1.0000
  1354.7312  6620.3394    -999.25     9.0857     9.0857     1.8308   117.4028     0.0000    -999.25    70.4527     1.7845     1.7372     0.4147    -999.25     0.0424     0.0424     2.5500   287.1174     1.0000     1.0000 -1276.1112    61.0520     1.0000
  1354.8836  6939.3174    -999.25     8.9922     8.9922     2.1215   111.6174     0.0000    -999.25    67.8600     2.1942     2.0655     0.4173    -999.25     0.0531     0.0531     2.5412   285.8504     1.0000     1.0000 -1276.2635    53.4760     1.0000
  1355.0360  7222.0913    -999.25     8.9454     8.9454     3.1327   104.8445     0.0000    -999.25    67.5578     2.9848     2.9996     0.4393    -999.25     0.0796     0.0796     2.4842   284.8937     1.0000     1.0000 -1276.4160    40.7350     1.0000
  1355.1884  7207.0938    -999.25     8.8812     8.8812     5.1318   101.0851     0.0000    -999.25    68.6191     3.2648     3.4206     0.4735    -999.25     0.1224     0.1224     2.3902   284.7726     1.0000     1.0000 -1276.5684    29.1160     1.0000
  1355.3408  6873.4106    -999.25     8.8783     8.8783     4.8161   102.7917     0.0000    -999.25    72.0066     2.6099     2.6416     0.5068    -999.25     0.1572     0.1572     2.3180   285.3787     1.0000     1.0000 -1276.7208    26.9410     1.0000
  1355.4932  6393.0278    -999.25     8.9607     8.9607     3.2241   108.7540     0.0000    -999.25    76.3675     1.9749     1.9527     0.5303    -999.25     0.1482     0.1482     2.2811   286.4964     1.0000     1.0000 -1276.8732    35.6740     1.0000
  1355.6456  5930.0039    -999.25     9.1320     9.1320     2.1696   115.5834     0.0000    -999.25    78.8599     1.7519     1.7712     0.5425    -999.25     0.0916     0.0916     2.2487   288.1000     1.0000     1.0000 -1277.0256    50.7120     1.0000
  1355.7980  5625.7769    -999.25     9.2993     9.2993     1.9739   120.9642     0.0000    -999.25    79.2322     1.7129     1.7508     0.5473    -999.25     0.0505     0.0505     2.2327   290.0564     1.0000     1.0000 -1277.1780    61.2830     1.0000
  1355.9504  5439.1367    -999.25     9.4215     9.4215     1.9454   125.5488     0.0000    -999.25    78.4567     1.5084     1.5252     0.5520    -999.25     0.0441     0.0441     2.2404   292.2987     1.0000     1.0000 -1277.3304    66.1710     1.0000
  1356.1028  5281.6665    -999.25     9.5217     9.5217     1.6726   130.3717     0.0000    -999.25    76.7374     1.2590     1.2631     0.5629    -999.25     0.0366     0.0366     2.2591   294.1791     1.0000     1.0000 -1277.4828    71.9110     1.0000
  1356.2552  5135.6406    -999.25     9.6155     9.6155     1.3657   134.7837     0.0000    -999.25    74.5659     1.1283     1.1315     0.5788    -999.25     0.0299     0.0299     2.2710   295.4316     1.0000     1.0000 -1277.6353    77.1100     1.0000
  1356.4076  5011.3818    -999.25     9.6916     9.6916     1.2228   137.6276     0.0000    -999.25    72.9988     1.0755     1.0812     0.5898    -999.25     0.0258     0.0258     2.2628   296.4244     1.0000     1.0000 -1277.7876    80.2290     1.0000
  1356.5600  4929.5981    -999.25     9.7322     9.7322     1.1792   139.0224     0.0000    -999.25    72.3897     1.0410     1.0495     0.5851    -999.25     0.0251     0.0251     2.2484   297.1544     1.0000     1.0000 -1277.9401    80.7220     1.0000
  1356.7124  4890.8247    -999.25     9.6959     9.6959     1.1548   139.7088     0.0000    -999.25    71.9670     1.0244     1.0347     0.5631    -999.25     0.0265     0.0265     2.2418   297.6776     1.0000     1.0000 -1278.0924    79.6500     1.0000
  1356.8648  4920.9297    -999.25     9.5646     9.5646     1.1256   139.6730     0.0000    -999.25    71.7122     1.0379     1.0427     0.5324    -999.25     0.0268     0.0268     2.2550   298.0493     1.0000     1.0000 -1278.2448    79.4170     1.0000
  1357.0172  5060.1489    -999.25     9.2625     9.2625     1.1437   137.9499     0.0000    -999.25    73.0050     1.0935     1.0967     0.5064    -999.25     0.0267     0.0267     2.2902   298.0194     1.0000     1.0000 -1278.3972    79.5020     1.0000
  1357.1696  5282.9917    -999.25     8.9609     8.9609     1.2450   134.3534     0.0000    -999.25    75.3504     1.1977     1.2033     0.4898    -999.25     0.0297     0.0297     2.3287   297.6269     1.0000     1.0000 -1278.5496    77.2420     1.0000
  1357.3220  5552.7402    -999.25     8.8192     8.8192     1.4499   129.3405     0.0000    -999.25    77.1378     1.3757     1.3878     0.4841    -999.25     0.0362     0.0362     2.3563   296.4054     1.0000     1.0000 -1278.7020    72.2450     1.0000
  1357.4744  5777.7280    -999.25     8.8016     8.8016     1.7247   124.2569     0.0000    -999.25    77.8699     1.5899     1.6389     0.4873    -999.25     0.0455     0.0455     2.3554   294.2516     1.0000     1.0000 -1278.8544    65.1220     1.0000
  1357.6268  5891.6602    -999.25     8.8128     8.8128     2.0815   120.3217     0.0000    -999.25    77.0363     1.7930     1.8479     0.5006    -999.25     0.0548     0.0548     2.3258   291.9937     1.0000     1.0000 -1279.0068    57.9750     1.0000
  1357.7792  5922.7329    -999.25     8.8362     8.8362     2.4875   118.2222     0.0000    -999.25    74.9630     1.9689     1.9835     0.5199    -999.25     0.0588     0.0588     2.2972   290.7562     1.0000     1.0000 -1279.1592    54.8910     1.0000
  1357.9316  5872.3086    -999.25     8.8733     8.8733     2.7885   118.7199     0.0000    -999.25    73.2527     1.9971     2.0046     0.5349    -999.25     0.0572     0.0572     2.2873   291.3504     1.0000     1.0000 -1279.3116    56.1760     1.0000
  1358.0840  5770.0518    -999.25     8.8939     8.8939     2.6205   121.4990     0.0000    -999.25    72.6083     1.7967     1.7955     0.5360    -999.25     0.0531     0.0531     2.3001   293.0704     1.0000     1.0000 -1279.4640    59.2800     1.0000
  1358.2364  5676.3198    -999.25     8.8429     8.8429     2.0686   125.0399     0.0000    -999.25    72.6611     1.4970     1.4787     0.5236    -999.25     0.0474     0.0474     2.3286   294.2999     1.0000     1.0000 -1279.6165    63.6740     1.0000
  1358.3888  5664.3965    -999.25     8.7534     8.7534     1.5717   127.2467     0.0000    -999.25    73.2403     1.3377     1.3203     0.5063    -999.25     0.0417     0.0417     2.3647   294.3185     1.0000     1.0000 -1279.7688    68.0430     1.0000
  1358.5412  5742.2612    -999.25     8.6874     8.6874     1.4366   126.9810     0.0000    -999.25    74.2527     1.3958     1.4083     0.4941    -999.25     0.0402     0.0402     2.3923   293.2761     1.0000     1.0000 -1279.9213    69.1460     1.0000
  1358.6936  5849.5186    -999.25     8.7044     8.7044     1.6065   124.5265     0.0000    -999.25    75.2863     1.5563     1.6053     0.4908    -999.25     0.0445     0.0445     2.3898   291.7517     1.0000     1.0000 -1280.0736    65.9130     1.0000
  1358.8460  5937.3037    -999.25     8.7534     8.7534     1.9292   121.5467     0.0000    -999.25    76.2405     1.7021     1.7543     0.4958    -999.25     0.0506     0.0506     2.3676   290.6006     1.0000     1.0000 -1280.2260    61.1840     1.0000
  1358.9984  5973.9336    -999.25     8.8145     8.8145     2.2460   120.0238     0.0000    -999.25    77.0502     1.8059     1.8318     0.5065    -999.25     0.0548     0.0548     2.3524   290.3633     1.0000     1.0000 -1280.3784    57.9880     1.0000
  1359.1508  5960.3335    -999.25     8.8291     8.8291     2.4361   120.1433     0.0000    -999.25    77.5344     1.8603     1.8561     0.5185    -999.25     0.0551     0.0551     2.3494   291.1628     1.0000     1.0000 -1280.5308    57.7430     1.0000
  1359.3032  5938.7783    -999.25     8.8320     8.8320     2.4877   120.7626     0.0000    -999.25    77.9241     1.8256     1.8488     0.5331    -999.25     0.0525     0.0525     2.3530   292.9059     1.0000     1.0000 -1280.6832    59.7460     1.0000
