~Version ---------------------------------------------------
VERS. 2.0 : CWLS log ASCII Standard -VERSION 2.0
WRAP.  NO : 
~Well ------------------------------------------------------
STRT.m                                                 998.5724 : 
STOP.m                                                  1489.91 : 
STEP.m                                                   0.1524 : 
NULL.                                                   -999.25 : 
COMP.                                                           : COMPANY
WELL.                                                    Well-4 : WELL
FLD .                                                           : FIELD
LOC .                                                           : LOCATION
SRVC.                                                           : SERVICE COMPANY
DATE. 2021-01-20 14:34:00   : Log Export Date {yyyy-MM-dd HH:mm : ss}
PROV.                                                           : PROVINCE
UWI .                                                    Well-4 : UNIQUE WELL ID
API .                                                           : API NUMBER
~Curve Information -----------------------------------------
DEPTH             .m        : DEPTH
ACOUSTICIMPEDANCE1.kPa.s/m  : ACOUSTICIMPEDANCE1
AVG_PIGN          .m3/m3    : AVG_PIGN
CALI              .in       : CALI
CALI[DERIVED]1    .in       : CALI[DERIVED]1
DFL               .ohm.m    : DFL
DT                .us/ft    : DT
FACIES            ._        : FACIES
FLD1              ._        : FLD1
GR                .gAPI     : GR
HDRS              .ohm.m    : HDRS
HMRS              .ohm.m    : HMRS
NPHI              .m3/m3    : NPHI
PERF_INT          ._        : PERF_INT
PIGN              .m3/m3    : PIGN
PIGN_MODELLING    .m3/m3    : PIGN_MODELLING
RHOB              .g/cm3    : RHOB
SP                .mV       : SP
SUWI              ._        : SUWI
SUWI_MODELLING    ._        : SUWI_MODELLING
TDVSS             .m        : TDVSS
VCL               .%        : VCL
ZLT               ._        : ZLT
~Params ----------------------------------------------------
~Other -----------------------------------------------------
~ASCII -----------------------------------------------------
# ...
  1061.9708  5103.9204    -999.25     7.7838     7.7838     2.1254   128.6427    -999.25    -999.25    48.4715     2.1687     2.1880     0.4318    -999.25     0.1444     0.1444     2.1541   264.4828     0.9242     0.9242  -983.3508    46.0360    -999.25
  1062.1232  5324.1387    -999.25     7.8070     7.8070     2.6401   123.9801    -999.25    -999.25    45.8116     2.4808     2.4993     0.4281    -999.25     0.1523     0.1523     2.1656   263.2473     0.8825     0.8825  -983.5032    42.3900    -999.25
  1062.2756  5548.9438    -999.25     7.9204     7.9204     3.0863   118.8765    -999.25    -999.25    44.8284     2.7332     2.7651     0.4350    -999.25     0.1763     0.1763     2.1642   262.4063     0.8568     0.8568  -983.6556    35.3110    -999.25
  1062.4280  5778.5767    -999.25     8.1107     8.1107     3.5927   112.7653    -999.25    -999.25    44.2811     3.0778     3.1651     0.4470    -999.25     0.2257     0.2257     2.1379   262.0230     0.8371     0.8371  -983.8080    21.7640    -999.25
  1062.5804  5968.0742    -999.25     8.2648     8.2648     4.6576   108.0382    -999.25    -999.25    43.7614     3.6522     3.8015     0.4589    -999.25     0.2732     0.2732     2.1154   261.8451     0.8072     0.8072  -983.9604     8.8730    -999.25
  1062.7328  5953.1401    -999.25     8.3411     8.3411     5.9103   107.9165    -999.25    -999.25    42.7584     3.8551     3.9187     0.4760    -999.25     0.2887     0.2887     2.1077   261.8338     0.7910     0.7910  -984.1128     5.4300    -999.25
  1062.8852  5659.0034    -999.25     8.3943     8.3943     5.2964   112.8530    -999.25    -999.25    42.3440     3.1820     3.1848     0.5019    -999.25     0.2789     0.2789     2.0953   262.2576     0.8142     0.8142  -984.2652    11.3820    -999.25
  1063.0376  5231.4180    -999.25     8.4292     8.4292     3.5644   120.8242    -999.25    -999.25    43.8009     2.4378     2.4407     0.5362    -999.25     0.2589     0.2589     2.0738   263.0518     0.8456     0.8456  -984.4176    22.2470    -999.25
  1063.1900  4885.2212    -999.25     8.4212     8.4212     2.4322   128.1306    -999.25    -999.25    47.0629     2.0145     2.0474     0.5708    -999.25     0.2380     0.2380     2.0536   263.8464     0.8575     0.8575  -984.5700    32.8640    -999.25
  1063.3424  4679.8149    -999.25     8.4071     8.4071     2.0316   132.8798    -999.25    -999.25    51.5835     1.8802     1.8950     0.5973    -999.25     0.2196     0.2196     2.0402   264.8627     0.8568     0.8568  -984.7224    40.7200    -999.25
  1063.4948  4563.3760    -999.25     8.4298     8.4298     1.9424   136.2009    -999.25    -999.25    55.8317     1.7818     1.8032     0.6114    -999.25     0.1974     0.1974     2.0392   266.7547     0.8660     0.8660  -984.8748    47.6930    -999.25
  1063.6472  4477.0732    -999.25     8.4766     8.4766     1.8912   139.6842    -999.25    -999.25    58.7863     1.6249     1.6507     0.6173    -999.25     0.1652     0.1652     2.0518   269.3841     0.9013     0.9013  -985.0272    56.3530    -999.25
  1063.7996  4379.6284    -999.25     8.5279     8.5279     1.7145   143.6774    -999.25    -999.25    61.1917     1.4411     1.4485     0.6184    -999.25     0.1308     0.1308     2.0645   271.9149     0.9501     0.9501  -985.1796    65.7880    -999.25
  1063.9520  4284.3540    -999.25     8.5725     8.5725     1.4978   147.5305    -999.25    -999.25    63.9103     1.2901     1.2878     0.6104    -999.25     0.1092     0.1092     2.0737   273.8233     0.9875     0.9875  -985.3320    72.0600    -999.25
  1064.1044  4219.3867    -999.25     8.5924     8.5924     1.3554   150.3540    -999.25    -999.25    66.2160     1.2027     1.1986     0.5971    -999.25     0.1046     0.1046     2.0814   274.9567     1.0000     1.0000  -985.4844    73.4610    -999.25
  1064.2568  4200.0811    -999.25     8.5927     8.5927     1.2865   151.7345    -999.25    -999.25    67.2857     1.1417     1.1394     0.5842    -999.25     0.1072     0.1072     2.0909   275.4180     1.0000     1.0000  -985.6368    72.6990    -999.25
  1064.4092  4217.3516    -999.25     8.5966     8.5966     1.2070   151.4824    -999.25    -999.25    67.2892     1.1075     1.1076     0.5851    -999.25     0.1090     0.1090     2.0960   275.3955     1.0000     1.0000  -985.7892    72.3870    -999.25
  1064.5616  4245.0278    -999.25     8.6016     8.6016     1.1459   150.2514    -999.25    -999.25    66.3203     1.1190     1.1168     0.5959    -999.25     0.1071     0.1071     2.0926   275.2087     1.0000     1.0000  -985.9416    73.1530    -999.25
  1064.7140  4280.2935    -999.25     8.5884     8.5884     1.2256   148.9679    -999.25    -999.25    64.7535     1.1953     1.1902     0.6134    -999.25     0.0976     0.0976     2.0919   275.0812     1.0000     1.0000  -986.0940    75.1500    -999.25
  1064.8664  4300.3765    -999.25     8.5660     8.5660     1.4302   148.3381    -999.25    -999.25    63.9033     1.3080     1.2990     0.6311    -999.25     0.0755     0.0755     2.0929   275.0653     1.0000     1.0000  -986.2464    79.0060    -999.25
  1065.0188  4286.8257    -999.25     8.5630     8.5630     1.5866   148.5070    -999.25    -999.25    64.0843     1.3313     1.3220     0.6428    -999.25     0.0367     0.0367     2.0887   275.3020     1.0000     1.0000  -986.3988    86.1340    -999.25
  1065.1712  4255.3765    -999.25     8.5842     8.5842     1.5437   149.1347    -999.25    -999.25    64.1573     1.2805     1.2763     0.6510    -999.25     0.0111     0.0111     2.0821   275.7518     1.0000     1.0000  -986.5512    91.5160    -999.25
  1065.3236  4211.9292    -999.25     8.6132     8.6132     1.4515   150.1411    -999.25    -999.25    63.0949     1.2646     1.2599     0.6571    -999.25     0.0111     0.0111     2.0747   276.2906     1.0000     1.0000  -986.7036    91.4850    -999.25
  1065.4760  4169.9761    -999.25     8.6291     8.6291     1.4432   151.4682    -999.25    -999.25    61.6745     1.2679     1.2665     0.6605    -999.25     0.0151     0.0151     2.0722   276.8269     1.0000     1.0000  -986.8560    88.4580    -999.25
  1065.6284  4122.0615    -999.25     8.6160     8.6160     1.4596   153.0440    -999.25    -999.25    61.1985     1.2433     1.2477     0.6470    -999.25     0.0182     0.0182     2.0697   277.2420     1.0000     1.0000  -987.0084    86.0430    -999.25
  1065.7808  4081.0181    -999.25     8.6145     8.6145     1.4053   154.4600    -999.25    -999.25    61.1743     1.2159     1.2178     0.6200    -999.25     0.0176     0.0176     2.0681   277.3782     1.0000     1.0000  -987.1608    86.4830    -999.25
  1065.9332  4079.1614    -999.25     8.6185     8.6185     1.3442   154.9457    -999.25    -999.25    60.8558     1.2047     1.2027     0.5880    -999.25     0.0190     0.0190     2.0736   277.2638     1.0000     1.0000  -987.3132    85.4110    -999.25
  1066.0856  4115.5054    -999.25     8.6428     8.6428     1.3304   154.2484    -999.25    -999.25    60.0456     1.2097     1.2050     0.5651    -999.25     0.0223     0.0223     2.0827   277.1297     1.0000     1.0000  -987.4656    82.8990    -999.25
  1066.2380  4158.0342    -999.25     8.6856     8.6856     1.3686   152.8298    -999.25    -999.25    58.7214     1.2364     1.2346     0.5582    -999.25     0.0238     0.0238     2.0849   276.9835     1.0000     1.0000  -987.6180    81.7370    -999.25
  1066.3904  4182.4282    -999.25     8.6981     8.6981     1.4422   151.5310    -999.25    -999.25    57.6570     1.2526     1.2560     0.5708    -999.25     0.0232     0.0232     2.0793   276.6704     1.0000     1.0000  -987.7704    82.1960    -999.25
  1066.5428  4178.8447    -999.25     8.6639     8.6639     1.4340   151.2722    -999.25    -999.25    57.7360     1.2245     1.2256     0.6006    -999.25     0.0215     0.0215     2.0740   276.2231     1.0000     1.0000  -987.9228    83.5320    -999.25
  1066.6952  4135.5430    -999.25     8.6536     8.6536     1.3584   152.3756    -999.25    -999.25    58.9977     1.1874     1.1872     0.6394    -999.25     0.0185     0.0185     2.0674   275.8344     1.0000     1.0000  -988.0752    85.7810    -999.25
