~Version ---------------------------------------------------
VERS. 2.0 : CWLS log ASCII Standard -VERSION 2.0
WRAP.  NO : 
~Well ------------------------------------------------------
STRT.m                                                   1300.0 : 
STOP.m                                                 1514.884 : 
STEP.m                                                   0.1524 : 
NULL.                                                   -999.25 : 
COMP.                                                           : COMPANY
WELL.                                                    Well-2 : WELL
FLD .                                                           : FIELD
LOC .                                                           : LOCATION
SRVC.                                                           : SERVICE COMPANY
DATE. 2021-01-20 14:33:59   : Log Export Date {yyyy-MM-dd HH:mm : ss}
PROV.                                                           : PROVINCE
UWI .                                                    Well-2 : UNIQUE WELL ID
API .                                                           : API NUMBER
~Curve Information -----------------------------------------
DEPTH             .m        : DEPTH
ACOUSTICIMPEDANCE1.kPa.s/m  : ACOUSTICIMPEDANCE1
AI                .kPa.s/m  : AI
AVG_PIGN          .m3/m3    : AVG_PIGN
CALI              .in       : CALI
CALI[DERIVED]1    .in       : CALI[DERIVED]1
DT                .us/ft    : DT
FACIES            ._        : FACIES
FLD1              ._        : FLD1
GR                .gAPI     : GR
LLD               .ohm.m    : LLD
LLS               .ohm.m    : LLS
LL3               .ohm.m    : LL3
DEPTH_1           .m        : DEPTH_1
NPHI              .m3/m3    : NPHI
PERF_INT          ._        : PERF_INT
PERMEABILITY      .mD       : PERMEABILITY
PIGN              .m3/m3    : PIGN
PIGN_MODELLING    .m3/m3    : PIGN_MODELLING
PIMP              .kPa.s/m  : PIMP
RHOB              .g/cm3    : RHOB
RT_MODELLING      .ohm.m    : RT_MODELLING
RT_POWER          .ohm.m    : RT_POWER
SP                .mV       : SP
SUWI              ._        : SUWI
SUWI_MODELLING    ._        : SUWI_MODELLING
TDVSS             .m        : TDVSS
VCL               .%        : VCL
WATER_VOL         ._        : WATER_VOL
ZLT               ._        : ZLT
~Params ----------------------------------------------------
~Other -----------------------------------------------------
~ASCII -----------------------------------------------------
# ...
  1328.6232  5647.2998 5647299.5000    -999.25     9.9662     9.9662   127.0490     0.0000    -999.25    80.0615     1.3608     1.3947     1.5111  1328.6232     0.4913    -999.25    -999.25     0.0339     0.0339 18527.8867     2.3539     1.3608     1.8517    51.8563     1.0000     1.0000 -1252.6232    74.0143     0.0339     0.0000
  1328.6512  5642.0757 5641768.5000    -999.25     9.9645     9.9645   127.1894     0.0000    -999.25    80.4762     1.3630     1.3962     1.5124  1328.6511     0.4930    -999.25    -999.25     0.0336     0.0336 18509.7402     2.3544     1.3630     1.8577    51.8613     1.0000     1.0000 -1252.6511    74.2610     0.0336     0.0000
  1328.7756  5617.1938 5617194.0000    -999.25     9.9626     9.9626   127.8130     0.0000    -999.25    81.7517     1.3772     1.4070     1.5019  1328.7756     0.5022    -999.25    -999.25     0.0319     0.0319 18429.1133     2.3555     1.3772     1.8967    51.8819     1.0000     1.0000 -1252.7756    75.5205     0.0319     0.0000
  1328.8036  5610.8291 5611159.0000    -999.25     9.9622     9.9622   127.9715     0.0000    -999.25    82.0388     1.3804     1.4094     1.4995  1328.8036     0.5043    -999.25    -999.25     0.0316     0.0316 18409.3125     2.3557     1.3804     1.9054    51.8865     1.0000     1.0000 -1252.8036    75.8040     0.0316     0.0000
  1328.9280  5584.3462 5584346.5000    -999.25     9.9582     9.9582   128.6760     0.0000    -999.25    82.6100     1.3901     1.4208     1.4871  1328.9280     0.5067    -999.25    -999.25     0.0312     0.0312 18321.3457     2.3575     1.3901     1.9324    51.9270     1.0000     1.0000 -1252.9280    76.0913     0.0312     0.0000
  1328.9560  5580.1450 5579493.5000    -999.25     9.9573     9.9573   128.7949     0.0000    -999.25    82.7386     1.3923     1.4233     1.4843  1328.9559     0.5073    -999.25    -999.25     0.0311     0.0311 18305.4238     2.3579     1.3923     1.9385    51.9361     1.0000     1.0000 -1252.9559    76.1560     0.0311     0.0000
  1329.0804  5557.9336 5557933.5000    -999.25     9.9495     9.9495   129.3230     0.0000    -999.25    82.5451     1.3929     1.4293     1.4822  1329.0804     0.5032    -999.25    -999.25     0.0319     0.0319 18234.6895     2.3582     1.3929     1.9401    51.9970     1.0000     1.0000 -1253.0804    75.5650     0.0319     0.0000
  1329.1084  5555.9165 5554022.0000    -999.25     9.9478     9.9478   129.3730     0.0000    -999.25    82.5015     1.3930     1.4306     1.4817  1329.1084     0.5023    -999.25    -999.25     0.0320     0.0320 18221.8574     2.3582     1.3930     1.9405    52.0107     1.0000     1.0000 -1253.1084    75.4320     0.0320     0.0000
  1329.2328  5536.6450 5536645.0000    -999.25     9.9399     9.9399   129.5950     0.0000    -999.25    82.2470     1.3853     1.4266     1.4861  1329.2328     0.4991    -999.25    -999.25     0.0326     0.0326 18164.8457     2.3541     1.3853     1.9191    52.0959     1.0000     1.0000 -1253.2328    75.0418     0.0326     0.0000
  1329.2608  5530.0938 5527907.0000    -999.25     9.9382     9.9382   129.6971     0.0000    -999.25    82.1897     1.3836     1.4256     1.4871  1329.2607     0.4983    -999.25    -999.25     0.0327     0.0327 18136.1777     2.3531     1.3836     1.9143    52.1151     1.0000     1.0000 -1253.2607    74.9540     0.0327     0.0000
  1329.3853  5489.0542 5489054.0000    -999.25     9.9342     9.9342   130.1510     0.0000    -999.25    81.7036     1.3724     1.4114     1.4849  1329.3854     0.5052    -999.25    -999.25     0.0313     0.0313 18008.7070     2.3439     1.3724     1.8834    52.1903     1.0000     1.0000 -1253.3854    75.9939     0.0313     0.0000
  1329.4132  5475.8325 5475129.5000    -999.25     9.9334     9.9334   130.3494     0.0000    -999.25    81.5947     1.3699     1.4082     1.4844  1329.4132     0.5068    -999.25    -999.25     0.0310     0.0310 17963.0234     2.3418     1.3699     1.8765    52.2072     1.0000     1.0000 -1253.4132    76.2270     0.0310     0.0000
  1329.5376  5413.0444 5413044.5000    -999.25     9.9395     9.9395   131.2340     0.0000    -999.25    82.3429     1.3603     1.3879     1.4617  1329.5376     0.5249    -999.25    -999.25     0.0276     0.0276 17759.3320     2.3306     1.3603     1.8505    52.2350     1.0000     1.0000 -1253.5376    78.8268     0.0276     0.0000
  1329.5656  5396.5361 5397572.5000    -999.25     9.9408     9.9408   131.4938     0.0000    -999.25    82.5113     1.3582     1.3834     1.4566  1329.5656     0.5289    -999.25    -999.25     0.0268     0.0268 17708.5703     2.3281     1.3582     1.8446    52.2413     1.0000     1.0000 -1253.5656    79.4120     0.0268     0.0000
  1329.6901  5328.7778 5328778.0000    -999.25     9.9561     9.9561   132.6490     0.0000    -999.25    82.9761     1.3530     1.3643     1.4189  1329.6901     0.5548    -999.25    -999.25     0.0232     0.0232 17482.8672     2.3191     1.3530     1.8307    52.2171     1.0000     1.0000 -1253.6901    82.1985     0.0232     0.0000
  1329.7180  5315.1626 5317613.5000    -999.25     9.9595     9.9595   132.8727     0.0000    -999.25    83.0803     1.3519     1.3600     1.4104  1329.7179     0.5606    -999.25    -999.25     0.0224     0.0224 17446.2383     2.3171     1.3519     1.8276    52.2117     1.0000     1.0000 -1253.7179    82.8230     0.0224     0.0000
  1329.8424  5267.8330 5267833.0000    -999.25     9.9757     9.9757   133.8700     0.0000    -999.25    83.1783     1.3510     1.3494     1.3784  1329.8424     0.5839    -999.25    -999.25     0.0224     0.0224 17282.9160     2.3137     1.3510     1.8253    52.1721     1.0000     1.0000 -1253.8424    82.8230     0.0224     0.0000
  1329.8704  5265.3848 5267959.5000    -999.25     9.9793     9.9793   133.8880     0.0000    -999.25    83.2004     1.3508     1.3470     1.3712  1329.8704     0.5892    -999.25    -999.25     0.0224     0.0224 17283.3320     2.3129     1.3508     1.8247    52.1632     1.0000     1.0000 -1253.8704    82.8230     0.0224     0.0000
  1329.9949  5268.5234 5268523.0000    -999.25     9.9855     9.9855   133.9680     0.0000    -999.25    82.2991     1.3526     1.3486     1.3686  1329.9949     0.6021    -999.25    -999.25     0.0224     0.0224 17285.1816     2.3157     1.3526     1.8295    52.1157     1.0000     1.0000 -1253.9949    82.8230     0.0224     0.0000
  1330.0228  5278.9619 5281140.0000    -999.25     9.9869     9.9869   133.7388     0.0000    -999.25    82.0971     1.3530     1.3490     1.3680  1330.0227     0.6050    -999.25    -999.25     0.0224     0.0224 17326.5762     2.3163     1.3530     1.8306    52.1050     1.0000     1.0000 -1254.0227    82.8230     0.0224     0.0000
  1330.1472  5337.3965 5337396.5000    -999.25     9.9822     9.9822   132.7170     0.0000    -999.25    80.8983     1.3562     1.3600     1.3940  1330.1472     0.6078    -999.25    -999.25     0.0224     0.0224 17511.1426     2.3240     1.3562     1.8394    52.0494     1.0000     1.0000 -1254.1472    82.8230     0.0224     0.0000
  1330.1752  5355.8584 5357013.5000    -999.25     9.9812     9.9812   132.3587     0.0000    -999.25    80.6284     1.3570     1.3625     1.3999  1330.1752     0.6084    -999.25    -999.25     0.0224     0.0224 17575.5020     2.3258     1.3570     1.8414    52.0369     1.0000     1.0000 -1254.1752    82.8230     0.0224     0.0000
  1330.2996  5444.1685 5444168.5000    -999.25     9.9671     9.9671   130.7670     0.0000    -999.25    79.8432     1.3621     1.3772     1.4289  1330.2996     0.6087    -999.25    -999.25     0.0224     0.0224 17861.4453     2.3357     1.3621     1.8554    51.9728     1.0000     1.0000 -1254.2996    82.8230     0.0224     0.0000
  1330.3276  5463.1802 5463170.0000    -999.25     9.9639     9.9639   130.4365     0.0000    -999.25    79.6665     1.3633     1.3805     1.4354  1330.3275     0.6088    -999.25    -999.25     0.0224     0.0224 17923.7852     2.3379     1.3633     1.8586    51.9584     1.0000     1.0000 -1254.3275    82.8230     0.0224     0.0000
  1330.4520  5547.5903 5547590.5000    -999.25     9.9450     9.9450   128.9680     0.0000    -999.25    80.5086     1.3719     1.3942     1.4626  1330.4520     0.6048    -999.25    -999.25     0.0224     0.0224 18200.7559     2.3473     1.3719     1.8821    51.8692     1.0000     1.0000 -1254.4520    82.8230     0.0224     0.0000
