~Version ---------------------------------------------------
VERS. 2.0 : CWLS log ASCII Standard -VERSION 2.0
WRAP.  NO : 
~Well ------------------------------------------------------
STRT.m                                                1239.5456 : 
STOP.m                                                  1697.66 : 
STEP.m                                                   0.1524 : 
NULL.                                                   -999.25 : 
COMP.                                                           : COMPANY
WELL.                                                   Well-16 : WELL
FLD .                                                           : FIELD
LOC .                                                           : LOCATION
SRVC.                                                           : SERVICE COMPANY
DATE. 2021-01-20 14:34:07   : Log Export Date {yyyy-MM-dd HH:mm : ss}
PROV.                                                           : PROVINCE
UWI .                                                   Well-16 : UNIQUE WELL ID
API .                                                           : API NUMBER
~Curve Information -----------------------------------------
DEPTH             .m        : DEPTH
ACOUSTICIMPEDANCE1.kPa.s/m  : ACOUSTICIMPEDANCE1
AI                .kPa.s/m  : AI
AVG_PIGN          .m3/m3    : AVG_PIGN
BIT               .m        : BIT
CALI              .in       : CALI
CALI_1            .in       : CALI_1
NPHI              .m3/m3    : NPHI
DT                .us/ft    : DT
FACIES            ._        : FACIES
FLD1              ._        : FLD1
GR                .gAPI     : GR
M2R2              .ohm.m    : M2R2
LLS               .ohm.m    : LLS
LLD               .ohm.m    : LLD
DEPTH_1           .m        : DEPTH_1
NPHI_1            .m3/m3    : NPHI_1
PEF               .b/e      : PEF
PIGN_MODELLING    .m3/m3    : PIGN_MODELLING
PIMP              .kPa.s/m  : PIMP
RHOB              .g/cm3    : RHOB
RT_MODELLING      .ohm.m    : RT_MODELLING
RT_POWER          .ohm.m    : RT_POWER
SP                .mV       : SP
SUWI_MODELLING    ._        : SUWI_MODELLING
TDVSS             .m        : TDVSS
ZCOR              .g/cm3    : ZCOR
RHOB_1            .g/cm3    : RHOB_1
ZLT               ._        : ZLT
~Params ----------------------------------------------------
~Other -----------------------------------------------------
~ASCII -----------------------------------------------------
# ...
  1300.5056  5331.1704 5331170.5000    -999.25     0.2159    10.8167    11.1167     0.5080   130.0004    -999.25    -999.25    65.4230     0.9180     0.9183     0.9168  1300.5056     0.5080     5.3587    -999.25 17490.7168     2.2738     0.9168     0.8405   196.1727    -999.25 -1219.7856     0.0518     2.2738    -999.25
  1300.6580  5303.3320 5303332.0000    -999.25     0.2159    10.9192    11.2191     0.5319   130.2460    -999.25    -999.25    64.2713     0.9258     0.9257     0.9232  1300.6580     0.5319     5.0902    -999.25 17399.3828     2.2662     0.9232     0.8523   196.0579    -999.25 -1219.9380     0.0451     2.2662    -999.25
  1300.8104  5142.6709 5142671.0000    -999.25     0.2159    10.8760    11.1760     0.5551   133.3015    -999.25    -999.25    64.7102     0.9026     0.9031     0.9000  1300.8104     0.5551     4.9050    -999.25 16872.2793     2.2491     0.9000     0.8100   195.9301    -999.25 -1220.0905     0.0530     2.2491    -999.25
  1300.9628  4945.6226 4945622.5000    -999.25     0.2159    10.6954    10.9954     0.5728   138.0148    -999.25    -999.25    65.3343     0.8809     0.8819     0.8786  1300.9628     0.5728     4.8487    -999.25 16225.7949     2.2394     0.8786     0.7719   195.8727    -999.25 -1220.2428     0.0570     2.2394    -999.25
  1301.1152  4856.1255 4856125.5000    -999.25     0.2159    10.5195    10.8195     0.5705   140.9538    -999.25    -999.25    66.0585     0.8670     0.8679     0.8644  1301.1152     0.5705     4.8485    -999.25 15932.1699     2.2457     0.8644     0.7472   195.9019    -999.25 -1220.3953     0.0512     2.2457    -999.25
  1301.2676  4877.8994 4877899.5000    -999.25     0.2159    10.4403    10.7403     0.5540   141.5681    -999.25    -999.25    67.5518     0.8524     0.8518     0.8484  1301.2676     0.5540     4.8507    -999.25 16003.6064     2.2656     0.8484     0.7198   195.9887    -999.25 -1220.5476     0.0501     2.2656    -999.25
  1301.4200  4993.1694 4993169.5000    -999.25     0.2159    10.4241    10.7241     0.5239   139.9542    -999.25    -999.25    68.6466     0.8479     0.8448     0.8414  1301.4200     0.5239     4.8544    -999.25 16381.7891     2.2927     0.8414     0.7080   196.1111    -999.25 -1220.7001     0.0520     2.2927    -999.25
  1301.5724  5242.9727 5242973.0000    -999.25     0.2159    10.3663    10.6663     0.4833   135.2626    -999.25    -999.25    67.1000     0.8784     0.8719     0.8685  1301.5724     0.4833     4.9734    -999.25 17201.3535     2.3267     0.8685     0.7543   196.2178    -999.25 -1220.8524     0.0488     2.3267    -999.25
  1301.7248  5536.3906 5536390.5000    -999.25     0.2159    10.2137    10.5137     0.4637   130.0814    -999.25    -999.25    63.9828     0.9560     0.9455     0.9416  1301.7249     0.4637     5.2187    -999.25 18164.0117     2.3628     0.9416     0.8866   196.2382    -999.25 -1221.0048     0.0416     2.3628    -999.25
  1301.8772  5723.9375 5723937.5000    -999.25     0.2159    10.0673    10.3673     0.4783   126.6233    -999.25    -999.25    61.5229     1.0435     1.0287     1.0242  1301.8772     0.4783     5.2995    -999.25 18779.3223     2.3779     1.0242     1.0490   196.1746    -999.25 -1221.1572     0.0381     2.3779    -999.25
  1302.0296  5690.5513 5690551.5000    -999.25     0.2159    10.0744    10.3744     0.5045   126.2039    -999.25    -999.25    61.2742     1.0691     1.0537     1.0491  1302.0297     0.5045     5.2137    -999.25 18669.7871     2.3562     1.0491     1.1006   196.0863    -999.25 -1221.3096     0.0455     2.3562    -999.25
  1302.1820  5482.1621 5482162.0000    -999.25     0.2159    10.1945    10.4945     0.5146   128.7439    -999.25    -999.25    63.6727     1.0286     1.0161     1.0120  1302.1820     0.5146     5.0792    -999.25 17986.0957     2.3156     1.0120     1.0241   195.9769    -999.25 -1221.4620     0.0631     2.3156    -999.25
  1302.3344  5277.7803 5277780.5000    -999.25     0.2159    10.2953    10.5953     0.5192   131.6100    -999.25    -999.25    66.6723     0.9728     0.9636     0.9599  1302.3345     0.5192     4.8296    -999.25 17315.5527     2.2789     0.9599     0.9214   195.8456    -999.25 -1221.6144     0.0750     2.2789    -999.25
  1302.4868  5154.5000 5154500.0000    -999.25     0.2159    10.3554    10.6554     0.5191   133.2794    -999.25    -999.25    68.6432     0.9262     0.9194     0.9159  1302.4868     0.5191     4.5748    -999.25 16911.0879     2.2539     0.9159     0.8389   195.7312    -999.25 -1221.7668     0.0741     2.2539    -999.25
  1302.6392  5092.9678 5092967.5000    -999.25     0.2159    10.4020    10.7020     0.5108   134.3271    -999.25    -999.25    70.3991     0.8905     0.8850     0.8816  1302.6392     0.5108     4.5282    -999.25 16709.2109     2.2445     0.8816     0.7772   195.6819    -999.25 -1221.9192     0.0684     2.2445    -999.25
  1302.7916  5053.5469 5053547.0000    -999.25     0.2159    10.3967    10.6967     0.5101   135.7127    -999.25    -999.25    71.8456     0.8662     0.8610     0.8577  1302.7916     0.5101     4.6726    -999.25 16579.8789     2.2501     0.8577     0.7356   195.7222    -999.25 -1222.0717     0.0639     2.2501    -999.25
  1302.9440  5009.9805 5009980.5000    -999.25     0.2159    10.3189    10.6189     0.5239   137.5864    -999.25    -999.25    72.0008     0.8525     0.8470     0.8437  1302.9440     0.5239     4.8354    -999.25 16436.9434     2.2615     0.8437     0.7118   195.8196    -999.25 -1222.2240     0.0636     2.2615    -999.25
  1303.0964  4945.5312 4945531.0000    -999.25     0.2159    10.1928    10.4928     0.5276   139.6814    -999.25    -999.25    71.1169     0.8453     0.8393     0.8360  1303.0964     0.5276     4.8810    -999.25 16225.4951     2.2664     0.8360     0.6989   195.8796    -999.25 -1222.3765     0.0634     2.2664    -999.25
  1303.2488  4897.2671 4897267.0000    -999.25     0.2159    10.0610    10.3610     0.5374   140.7157    -999.25    -999.25    69.8337     0.8424     0.8361     0.8326  1303.2488     0.5374     4.8567    -999.25 16067.1484     2.2609     0.8326     0.6932   195.8413    -999.25 -1222.5288     0.0593     2.2609    -999.25
  1303.4012  4872.2251 4872225.0000    -999.25     0.2159    10.0260    10.3260     0.5681   140.9322    -999.25    -999.25    69.1875     0.8451     0.8388     0.8349  1303.4012     0.5681     4.8498    -999.25 15984.9902     2.2528     0.8349     0.6971   195.7579    -999.25 -1222.6813     0.0560     2.2528    -999.25
  1303.5536  4880.0938 4880094.0000    -999.25     0.2159    10.1413    10.4413     0.5784   140.4364    -999.25    -999.25    69.7481     0.8525     0.8461     0.8418  1303.5536     0.5784     4.8186    -999.25 16010.8066     2.2485     0.8418     0.7086   195.7108    -999.25 -1222.8336     0.0535     2.2485    -999.25
  1303.7060  4923.3154 4923315.5000    -999.25     0.2159    10.2715    10.5715     0.5555   139.1416    -999.25    -999.25    69.8711     0.8600     0.8536     0.8486  1303.7061     0.5555     4.8367    -999.25 16152.6094     2.2475     0.8486     0.7201   195.7006    -999.25 -1222.9860     0.0470     2.2475    -999.25
  1303.8584  4956.3936 4956393.5000    -999.25     0.2159    10.3286    10.6286     0.5395   138.1638    -999.25    -999.25    68.8937     0.8649     0.8583     0.8526  1303.8584     0.5395     4.9726    -999.25 16261.1338     2.2467     0.8526     0.7269   195.6891    -999.25 -1223.1384     0.0384     2.2467    -999.25
  1304.0108  4956.7490 4956749.0000    -999.25     0.2159    10.3963    10.6963     0.5381   137.7911    -999.25    -999.25    68.5459     0.8678     0.8609     0.8545  1304.0109     0.5381     5.1610    -999.25 16262.3008     2.2408     0.8545     0.7302   195.6625    -999.25 -1223.2908     0.0360     2.2408    -999.25
  1304.1632  4910.4561 4910456.0000    -999.25     0.2159    10.4434    10.7434     0.5296   138.2211    -999.25    -999.25    68.8198     0.8691     0.8619     0.8548  1304.1632     0.5296     5.2875    -999.25 16110.4199     2.2268     0.8548     0.7307   195.6243    -999.25 -1223.4432     0.0406     2.2268    -999.25
