~Version ---------------------------------------------------
VERS. 2.0 : CWLS log ASCII Standard -VERSION 2.0
WRAP.  NO : 
~Well ------------------------------------------------------
STRT.m                                                 998.5724 : 
STOP.m                                                  1489.91 : 
STEP.m                                                   0.1524 : 
NULL.                                                   -999.25 : 
COMP.                                                           : COMPANY
WELL.                                                    Well-4 : WELL
FLD .                                                           : FIELD
LOC .                                                           : LOCATION
SRVC.                                                           : SERVICE COMPANY
DATE. 2021-01-20 14:34:00   : Log Export Date {yyyy-MM-dd HH:mm : ss}
PROV.                                                           : PROVINCE
UWI .                                                    Well-4 : UNIQUE WELL ID
API .                                                           : API NUMBER
~Curve Information -----------------------------------------
DEPTH             .m        : DEPTH
ACOUSTICIMPEDANCE1.kPa.s/m  : ACOUSTICIMPEDANCE1
AVG_PIGN          .m3/m3    : AVG_PIGN
CALI              .in       : CALI
CALI[DERIVED]1    .in       : CALI[DERIVED]1
DFL               .ohm.m    : DFL
DT                .us/ft    : DT
FACIES            ._        : FACIES
FLD1              ._        : FLD1
GR                .gAPI     : GR
HDRS              .ohm.m    : HDRS
HMRS              .ohm.m    : HMRS
NPHI              .m3/m3    : NPHI
PERF_INT          ._        : PERF_INT
PIGN              .m3/m3    : PIGN
PIGN_MODELLING    .m3/m3    : PIGN_MODELLING
RHOB              .g/cm3    : RHOB
SP                .mV       : SP
SUWI              ._        : SUWI
SUWI_MODELLING    ._        : SUWI_MODELLING
TDVSS             .m        : TDVSS
VCL               .%        : VCL
ZLT               ._        : ZLT
~Params ----------------------------------------------------
~Other -----------------------------------------------------
~ASCII -----------------------------------------------------
# ...
  1096.1084  4394.4648    -999.25     8.4850     8.4850     1.1996   145.5915    -999.25    -999.25    55.3138     1.1106     1.1243     0.6282    -999.25     0.0268     0.0268     2.0991   270.8808     1.0000     1.0000 -1017.4884    79.4370    -999.25
  1096.2608  4555.0430    -999.25     8.5911     8.5911     1.5252   137.2109    -999.25    -999.25    55.7605     1.3671     1.3980     0.6470    -999.25     0.0316     0.0316     2.0505   271.0361     1.0000     1.0000 -1017.6408    75.7970    -999.25
  1096.4132  4720.9468    -999.25     8.6485     8.6485     2.0735   132.2528    -999.25    -999.25    56.9608     1.7774     1.8631     0.6647    -999.25     0.0342     0.0342     2.0484   271.4174     1.0000     1.0000 -1017.7932    73.7590    -999.25
  1096.5656  4760.0967    -999.25     8.7343     8.7343     2.5985   132.6705    -999.25    -999.25    58.7031     1.7008     1.7524     0.6774    -999.25     0.0325     0.0325     2.0719   271.7926     1.0000     1.0000 -1017.9456    75.0410    -999.25
  1096.7180  4550.4575    -999.25     8.7681     8.7681     2.0811   138.6794    -999.25    -999.25    60.4988     1.3133     1.3102     0.6780    -999.25     0.0261     0.0261     2.0704   271.8279     1.0000     1.0000 -1018.0980    79.9730    -999.25
  1096.8704  4258.9961    -999.25     8.7406     8.7406     1.4466   146.7987    -999.25    -999.25    61.9019     1.0940     1.0874     0.6690    -999.25     0.0191     0.0191     2.0512   271.6511     1.0000     1.0000 -1018.2504    85.3860    -999.25
  1097.0228  4047.7678    -999.25     8.6863     8.6863     1.1932   151.9411    -999.25    -999.25    62.2833     1.0520     1.0531     0.6625    -999.25     0.0146     0.0146     2.0178   271.5688     1.0000     1.0000 -1018.4028    88.8340    -999.25
  1097.1752  3968.7434    -999.25     8.6812     8.6812     1.1818   153.0757    -999.25    -999.25    62.2721     1.0615     1.0622     0.6605    -999.25     0.0128     0.0128     1.9932   271.6561     1.0000     1.0000 -1018.5552    90.2100    -999.25
  1097.3276  3971.5774    -999.25     8.6828     8.6828     1.2216   152.5060    -999.25    -999.25    62.2976     1.0767     1.0814     0.6661    -999.25     0.0122     0.0122     1.9872   271.7657     1.0000     1.0000 -1018.7076    90.6430    -999.25
  1097.4800  3988.7773    -999.25     8.6581     8.6581     1.2509   152.4154    -999.25    -999.25    62.4310     1.0879     1.0942     0.6734    -999.25     0.0116     0.0116     1.9946   271.9065     1.0000     1.0000 -1018.8600    91.0740    -999.25
  1097.6324  4008.8716    -999.25     8.6415     8.6415     1.2698   153.1234    -999.25    -999.25    63.1960     1.0884     1.0953     0.6773    -999.25     0.0115     0.0115     2.0139   272.0598     1.0000     1.0000 -1019.0124    91.1990    -999.25
  1097.7848  4051.2778    -999.25     8.7044     8.7044     1.3051   153.8499    -999.25    -999.25    63.7088     1.0856     1.0929     0.6711    -999.25     0.0128     0.0128     2.0449   272.1137     1.0000     1.0000 -1019.1648    90.2180    -999.25
  1097.9372  4105.2109    -999.25     8.8233     8.8233     1.3283   153.9343    -999.25    -999.25    63.4293     1.0827     1.0847     0.6583    -999.25     0.0153     0.0153     2.0733   272.1247     1.0000     1.0000 -1019.3172    88.2390    -999.25
  1098.0896  4149.3516    -999.25     8.8632     8.8632     1.3358   153.1334    -999.25    -999.25    62.9002     1.0851     1.0875     0.6477    -999.25     0.0179     0.0179     2.0847   272.1642     1.0000     1.0000 -1019.4696    86.3160    -999.25
  1098.2420  4182.2095    -999.25     8.8448     8.8448     1.3518   151.9004    -999.25    -999.25    62.3446     1.1102     1.1191     0.6453    -999.25     0.0194     0.0194     2.0842   272.2041     1.0000     1.0000 -1019.6220    85.1170    -999.25
  1098.3944  4220.0957    -999.25     8.8328     8.8328     1.4092   151.0654    -999.25    -999.25    62.7800     1.1383     1.1487     0.6487    -999.25     0.0199     0.0199     2.0916   272.2730     1.0000     1.0000 -1019.7744    84.7120    -999.25
  1098.5468  4273.1323    -999.25     8.8574     8.8574     1.4100   151.0843    -999.25    -999.25    64.2366     1.1356     1.1487     0.6580    -999.25     0.0190     0.0190     2.1181   272.3499     1.0000     1.0000 -1019.9268    85.2790    -999.25
  1098.6992  4288.6025    -999.25     8.8537     8.8537     1.3701   151.7816    -999.25    -999.25    65.5807     1.0983     1.1108     0.6663    -999.25     0.0164     0.0164     2.1356   272.2999     1.0000     1.0000 -1020.0792    86.7290    -999.25
  1098.8516  4259.0928    -999.25     8.8316     8.8316     1.2947   152.4396    -999.25    -999.25    66.3479     1.0547     1.0631     0.6661    -999.25     0.0157     0.0157     2.1301   272.0624     1.0000     1.0000 -1020.2316    87.2210    -999.25
  1099.0040  4241.5283    -999.25     8.7900     8.7900     1.2470   152.6124    -999.25    -999.25    66.2985     1.0389     1.0465     0.6487    -999.25     0.0181     0.0181     2.1237   271.8718     1.0000     1.0000 -1020.3840    85.9310    -999.25
  1099.1564  4255.8755    -999.25     8.7163     8.7163     1.2428   152.3529    -999.25    -999.25    66.1217     1.0412     1.0509     0.6222    -999.25     0.0195     0.0195     2.1273   271.8359     1.0000     1.0000 -1020.5364    84.9990    -999.25
  1099.3088  4299.0400    -999.25     8.5924     8.5924     1.2241   151.7569    -999.25    -999.25    66.7444     1.0366     1.0490     0.6019    -999.25     0.0193     0.0193     2.1405   271.8576     1.0000     1.0000 -1020.6888    84.7600    -999.25
  1099.4612  4367.1382    -999.25     8.5293     8.5293     1.1999   150.8702    -999.25    -999.25    67.5945     1.0295     1.0422     0.5914    -999.25     0.0192     0.0192     2.1616   271.9238     1.0000     1.0000 -1020.8412    83.9440    -999.25
  1099.6136  4462.8247    -999.25     8.5719     8.5719     1.1744   149.1940    -999.25    -999.25    68.3419     1.0375     1.0480     0.5849    -999.25     0.0198     0.0198     2.1845   271.9064     1.0000     1.0000 -1020.9936    82.6200    -999.25
  1099.7660  4537.4775    -999.25     8.6556     8.6556     1.1738   146.6634    -999.25    -999.25    69.2468     1.0884     1.1005     0.5775    -999.25     0.0231     0.0231     2.1833   271.6553     1.0000     1.0000 -1021.1460    80.2850    -999.25
  1099.9184  4565.0483    -999.25     8.6758     8.6758     1.3657   144.2513    -999.25    -999.25    69.6201     1.2344     1.2493     0.5715    -999.25     0.0300     0.0300     2.1605   271.2082     1.0000     1.0000 -1021.2984    76.2430    -999.25
  1100.0708  4581.8154    -999.25     8.5943     8.5943     1.5817   142.5373    -999.25    -999.25    68.7014     1.3635     1.3830     0.5720    -999.25     0.0359     0.0359     2.1426   270.7970     1.0000     1.0000 -1021.4508    72.4540    -999.25
  1100.2232  4608.4424    -999.25     8.4960     8.4960     1.6171   140.4247    -999.25    -999.25    66.8040     1.3415     1.3396     0.5807    -999.25     0.0387     0.0387     2.1232   270.4889     1.0000     1.0000 -1021.6032    70.3310    -999.25
  1100.3756  4673.4844    -999.25     8.4618     8.4618     1.5684   137.2325    -999.25    -999.25    65.0093     1.3706     1.3657     0.5945    -999.25     0.0403     0.0403     2.1042   270.3156     1.0000     1.0000 -1021.7556    69.1310    -999.25
  1100.5280  4771.4048    -999.25     8.4966     8.4966     1.7817   134.5689    -999.25    -999.25    62.7645     1.5447     1.5960     0.6070    -999.25     0.0414     0.0414     2.1066   270.4487     1.0000     1.0000 -1021.9080    68.2750    -999.25
  1100.6804  4797.9238    -999.25     8.5161     8.5161     2.0436   134.2482    -999.25    -999.25    60.7502     1.5605     1.6050     0.6126    -999.25     0.0413     0.0413     2.1132   270.8519     1.0000     1.0000 -1022.0604    68.3170    -999.25
  1100.8328  4716.3105    -999.25     8.4992     8.4992     1.8695   136.8311    -999.25    -999.25    61.1075     1.3866     1.4044     0.6109    -999.25     0.0387     0.0387     2.1172   271.3115     1.0000     1.0000 -1022.2128    70.3020    -999.25
