~Version ---------------------------------------------------
VERS. 2.0 : CWLS log ASCII Standard -VERSION 2.0
WRAP.  NO : 
~Well ------------------------------------------------------
STRT.m                                                1333.6522 : 
STOP.m                                                1778.5078 : 
STEP.m                                                   0.1524 : 
NULL.                                                   -999.25 : 
COMP.                                                           : COMPANY
WELL.                                                   Well-15 : WELL
FLD .                                                           : FIELD
LOC .                                                           : LOCATION
SRVC.                                                           : SERVICE COMPANY
DATE. 2021-01-20 14:34:07   : Log Export Date {yyyy-MM-dd HH:mm : ss}
PROV.                                                           : PROVINCE
UWI .                                                   Well-15 : UNIQUE WELL ID
API .                                                           : API NUMBER
~Curve Information -----------------------------------------
DEPTH             .m        : DEPTH
ACOUSTICIMPEDANCE1.kPa.s/m  : ACOUSTICIMPEDANCE1
AI                .kPa.s/m  : AI
BS                .in       : BS
CALI              .in       : CALI
CALI[DERIVED]1    .in       : CALI[DERIVED]1
DRES              .ohm.m    : DRES
DT                .us/ft    : DT
DT2               .us/ft    : DT2
DT4P              .us/ft    : DT4P
FACIES            ._        : FACIES
FLD1              ._        : FLD1
GR                .gAPI     : GR
GR_EDTC           .gAPI     : GR_EDTC
LLD               .ohm.m    : LLD
LLS               .ohm.m    : LLS
M2R2              .ohm.m    : M2R2
LLS_1             .ohm.m    : LLS_1
LLD_1             .ohm.m    : LLD_1
DEPTH_1           .m        : DEPTH_1
MSFL              .ohm.m    : MSFL
NPHI              .m3/m3    : NPHI
PERF_INT          ._        : PERF_INT
PIMP              .kPa.s/m  : PIMP
PR                ._        : PR
RHOB              .g/cm3    : RHOB
RT_MODELLING      .ohm.m    : RT_MODELLING
RT_POWER          .ohm.m    : RT_POWER
SP                .mV       : SP
TDVSS             .m        : TDVSS
TENS              .t        : TENS
VPVS              ._        : VPVS
ZLT               ._        : ZLT
~Params ----------------------------------------------------
~Other -----------------------------------------------------
~ASCII -----------------------------------------------------
# ...
  1441.0942  7242.8408 7242908.5000     8.5000     9.1026     9.1026     2.7238   100.9485   267.9832   100.9485     0.0000    -999.25    63.7097    92.8665     2.7238     2.1950    -999.25    -999.25    -999.25  1441.0941     1.5374     0.3892    -999.25 23762.8242     0.4173     2.3988     2.7238     7.4191   -65.9504 -1254.1219  1911.9553     2.6547     1.0000
  1441.2466  7206.1870 7206331.0000     8.5000     9.1656     9.1656     2.8999   100.8741   238.2398   100.8741     0.0000    -999.25    61.4470    85.9012     2.8999     2.3518    -999.25    -999.25    -999.25  1441.2466     1.1647     0.3845    -999.25 23642.8203     0.3907     2.3849     2.8999     8.4094   -66.5615 -1254.2136  1922.9856     2.3618     1.0000
  1441.3990  7405.3423 7405628.0000     8.5000     9.4009     9.4009     3.0095    99.0914   238.5678    99.0914     0.0000    -999.25    59.3421    76.6326     3.0095     2.4599    -999.25    -999.25    -999.25  1441.3989     1.0232     0.3823    -999.25 24296.6797     0.3958     2.4075     3.0095     9.0571   -67.3115 -1254.3052  1871.0682     2.4075     1.0000
  1441.5514  7626.0391 7626162.0000     8.5000     9.6053     9.6053     3.1379    99.9088   248.3063    99.9088     0.0000    -999.25    56.4125    72.4362     3.1379     2.5792    -999.25    -999.25    -999.25  1441.5514     1.9127     0.3838    -999.25 25020.2168     0.4034     2.4997     3.1379     9.8464   -68.1030 -1254.3969  1816.0721     2.4853     1.0000
  1441.7038  9221.3604 9221250.0000     8.5000     9.7312     9.7312     3.3749    86.7097   258.9170    86.7097     0.0000    -999.25    53.6526    76.6210     3.3749     2.7596    -999.25    -999.25    -999.25  1441.7037     4.0741     0.3817    -999.25 30253.4473     0.4369     2.6233     3.3749    11.3900   -68.9850 -1254.4884  1922.8596     2.9861     1.0000
  1441.8562  7339.1274 7339182.5000     8.5000     9.8560     9.8560     3.6236   110.2062   316.7127   110.2062     0.0000    -999.25    52.3257    86.2761     3.6236     2.9413    -999.25    -999.25    -999.25  1441.8562     4.7545     0.3846    -999.25 24078.6816     0.4311     2.6536     3.6236    13.1305   -69.8739 -1254.5801  2102.7637     2.8738     1.0000
  1442.0086  6625.3145 6625275.0000     8.5000     9.8926     9.8926     3.7570   117.4655   484.1249   117.4655     0.0000    -999.25    54.7218    94.1647     3.7570     3.0449    -999.25    -999.25    -999.25  1442.0085     2.6021     0.3885    -999.25 21736.4668     0.4687     2.5533     3.7570    14.1150   -70.6661 -1254.6716  2069.0447     4.1214     1.0000
  1442.1610  6316.5205 6316725.5000     8.5000     9.9143     9.9143     3.6901   116.9928   486.5665   116.9928     0.0000    -999.25    60.1111    96.9463     3.6901     3.0008    -999.25    -999.25    -999.25  1442.1610     1.4985     0.3992    -999.25 20724.1660     0.4693     2.4245     3.6901    13.6168   -71.2080 -1254.7633  2009.0787     4.1590     1.0000
  1442.3134  5811.1929 5811392.5000     8.5000    10.0543    10.0543     3.4210   123.5891   487.0269   123.5891     0.0000    -999.25    63.9796    98.9341     3.4210     2.7946    -999.25    -999.25    -999.25  1442.3134     1.3735     0.4189    -999.25 19066.2480     0.4656     2.3563     3.4210    11.7032   -71.5207 -1254.8549  1757.3307     3.9407     1.0000
  1442.4658  5712.8564 5712887.0000     8.5000    10.1956    10.1956     3.0463   124.7881   472.5016   124.7881     0.0000    -999.25    65.7311    96.6630     3.0464     2.4897    -999.25    -999.25    -999.25  1442.4657     1.4555     0.4298    -999.25 18743.0684     0.4625     2.3389     3.0464     9.2806   -71.5769 -1254.9465  1613.1890     3.7864     1.0000
  1442.6182  5720.9199 5720909.0000     8.5000    10.2321    10.2321     2.7151   124.1807   493.1318   124.1807     0.0000    -999.25    67.0100    95.0637     2.7151     2.2182    -999.25    -999.25    -999.25  1442.6182     1.3201     0.4393    -999.25 18769.3848     0.4662     2.3308     2.7151     7.3718   -71.1059 -1255.0381  1636.9685     3.9711     1.0000
  1442.7706  5617.5659 5617598.0000     8.5000    10.2418    10.2418     2.4502   125.8360   452.3753   125.8360     0.0000    -999.25    67.2207    98.1766     2.4502     2.0085    -999.25    -999.25    -999.25  1442.7705     1.1919     0.4404    -999.25 18430.4395     0.4581     2.3192     2.4502     6.0035   -69.9740 -1255.1298  1926.6194     3.5950     1.0000
  1442.9230  5843.9766 5844069.5000     8.5000    10.2129    10.2129     2.2785   120.8461   387.0940   120.8461     0.0000    -999.25    65.5885    97.2508     2.2785     1.8755    -999.25    -999.25    -999.25  1442.9230     1.1081     0.4475    -999.25 19173.4570     0.4460     2.3170     2.2785     5.1916   -68.6056 -1255.2213  1800.1666     3.2032     1.0000
  1443.0754  5889.9624 5890014.5000     8.5000    10.1025    10.1025     2.2396   121.0462   351.1218   121.0462     0.0000    -999.25    63.5943   102.6390     2.2396     1.8506    -999.25    -999.25    -999.25  1443.0753     1.1715     0.4453    -999.25 19324.1934     0.4325     2.3391     2.2396     5.0158   -67.4797 -1255.3130  1597.2664     2.9007     1.0000
  1443.2278  6153.0195 6153003.5000     8.5000     9.9837     9.9837     2.3072   117.7486   333.7710   117.7486     0.0000    -999.25    62.7235    96.2407     2.3072     1.9165    -999.25    -999.25    -999.25  1443.2278     1.8263     0.4285    -999.25 20187.0195     0.4289     2.3770     2.3072     5.3232   -66.8683 -1255.4045  1375.2914     2.8346     1.0000
  1443.3802  6079.0552 6078979.0000     8.5000     9.9220     9.9220     2.4623   120.7055   314.4171   120.7055     0.0000    -999.25    62.9187    99.0879     2.4623     2.0527    -999.25    -999.25    -999.25  1443.3801     2.1061     0.4054    -999.25 19944.1582     0.4135     2.4074     2.4623     6.0629   -66.5766 -1255.4962  1321.0709     2.6048     1.0000
  1443.5326  6067.5161 6067464.0000     8.5000    10.0079    10.0079     2.6572   121.2717   285.3768   121.2717     0.0000    -999.25    63.8329    93.6000     2.6572     2.2209    -999.25    -999.25    -999.25  1443.5326     2.0005     0.3882    -999.25 19906.3770     0.3898     2.4141     2.6572     7.0607   -66.3614 -1255.5878  1271.0657     2.3532     1.0000
  1443.6850  6048.6221 6048611.5000     8.5000    10.0868    10.0868     2.8028   121.1919   267.7693   121.1919     0.0000    -999.25    63.2281    92.1895     2.8028     2.3462    -999.25    -999.25    -999.25  1443.6849     1.8297     0.3816    -999.25 19844.5254     0.3712     2.4050     2.8028     7.8557   -66.1667 -1255.6793  1638.5171     2.2095     1.0000
  1443.8374  6314.8584 6314875.0000     8.5000    10.0575    10.0575     2.8914   115.4839   252.7303   115.4839     0.0000    -999.25    61.4318    85.4704     2.8914     2.4182    -999.25    -999.25    -999.25  1443.8374     1.7014     0.3891    -999.25 20718.0938     0.3680     2.3926     2.8914     8.3602   -66.0625 -1255.7710  1185.5958     2.1884     1.0000
  1443.9898  6412.8154 6412880.5000     8.5000    10.0380    10.0380     2.9605   113.1210   237.7654   113.1210     0.0000    -999.25    61.2667    77.0677     2.9605     2.4677    -999.25    -999.25    -999.25  1443.9897     1.6371     0.4018    -999.25 21039.6328     0.3537     2.3800     2.9605     8.7646   -65.9724 -1255.8625   874.4081     2.1019     1.0000
  1444.1422  6505.2495 6505449.0000     8.5000    10.0310    10.0310     3.0457   111.7479   230.6156   111.7479     0.0000    -999.25    62.1681    73.1462     3.0457     2.5294    -999.25    -999.25    -999.25  1444.1422     1.6609     0.4148    -999.25 21343.3359     0.3466     2.3850     3.0457     9.2763   -65.8817 -1255.9542  1861.7021     2.0638     1.0000
  1444.2946  7160.9219 7161252.5000     8.5000     9.9759     9.9759     3.2358   104.0869   221.1537   104.0869     0.0000    -999.25    61.6169    72.4773     3.2358     2.6734    -999.25    -999.25    -999.25  1444.2946     1.8427     0.4091    -999.25 23494.9238     0.3577     2.4454     3.2358    10.4704   -65.9236 -1256.0458  1980.8451     2.1247     1.0000
