~Version ---------------------------------------------------
VERS. 2.0 : CWLS log ASCII Standard -VERSION 2.0
WRAP.  NO : 
~Well ------------------------------------------------------
STRT.m                                                   1300.0 : 
STOP.m                                                 1514.884 : 
STEP.m                                                   0.1524 : 
NULL.                                                   -999.25 : 
COMP.                                                           : COMPANY
WELL.                                                    Well-2 : WELL
FLD .                                                           : FIELD
LOC .                                                           : LOCATION
SRVC.                                                           : SERVICE COMPANY
DATE. 2021-01-20 14:33:59   : Log Export Date {yyyy-MM-dd HH:mm : ss}
PROV.                                                           : PROVINCE
UWI .                                                    Well-2 : UNIQUE WELL ID
API .                                                           : API NUMBER
~Curve Information -----------------------------------------
DEPTH             .m        : DEPTH
ACOUSTICIMPEDANCE1.kPa.s/m  : ACOUSTICIMPEDANCE1
AI                .kPa.s/m  : AI
AVG_PIGN          .m3/m3    : AVG_PIGN
CALI              .in       : CALI
CALI[DERIVED]1    .in       : CALI[DERIVED]1
DT                .us/ft    : DT
FACIES            ._        : FACIES
FLD1              ._        : FLD1
GR                .gAPI     : GR
LLD               .ohm.m    : LLD
LLS               .ohm.m    : LLS
LL3               .ohm.m    : LL3
DEPTH_1           .m        : DEPTH_1
NPHI              .m3/m3    : NPHI
PERF_INT          ._        : PERF_INT
PERMEABILITY      .mD       : PERMEABILITY
PIGN              .m3/m3    : PIGN
PIGN_MODELLING    .m3/m3    : PIGN_MODELLING
PIMP              .kPa.s/m  : PIMP
RHOB              .g/cm3    : RHOB
RT_MODELLING      .ohm.m    : RT_MODELLING
RT_POWER          .ohm.m    : RT_POWER
SP                .mV       : SP
SUWI              ._        : SUWI
SUWI_MODELLING    ._        : SUWI_MODELLING
TDVSS             .m        : TDVSS
VCL               .%        : VCL
WATER_VOL         ._        : WATER_VOL
ZLT               ._        : ZLT
~Params ----------------------------------------------------
~Other -----------------------------------------------------
~ASCII -----------------------------------------------------
# ...
  1513.3600  5762.5430 5765035.0000    -999.25     8.2061     8.2061   123.2287     0.0000    -999.25    95.5709     3.2565     3.2565     3.4243  1513.3600     0.6021    -999.25    -999.25     0.0224     0.0224 18914.1562     2.3298     3.2565    10.6051    37.3662     1.0000     1.0000 -1437.3600    82.8230     0.0224    18.0000
  1513.4844  5710.4062 5710406.5000    -999.25     8.1993     8.1993   123.8140     0.0000    -999.25    95.4808     3.2837     3.2798     3.4795  1513.4844     0.6134    -999.25    -999.25     0.0224     0.0224 18734.9297     2.3196     3.2837    10.7830    37.1317     1.0000     1.0000 -1437.4844    82.8230     0.0224    18.0000
  1513.5124  5702.8730 5706448.0000    -999.25     8.1977     8.1977   123.8559     0.0000    -999.25    95.4604     3.2898     3.2850     3.4920  1513.5123     0.6159    -999.25    -999.25     0.0224     0.0224 18721.9414     2.3174     3.2898    10.8231    37.0789     1.0000     1.0000 -1437.5123    82.8230     0.0224    18.0000
  1513.6368  5688.8599 5688860.0000    -999.25     8.1900     8.1900   124.0420     0.0000    -999.25    96.5269     3.3182     3.3177     3.5597  1513.6368     0.6211    -999.25    -999.25     0.0224     0.0224 18664.2383     2.3151     3.3182    11.0105    36.7752     1.0000     1.0000 -1437.6368    82.8230     0.0224    18.0000
  1513.6648  5687.7583 5692361.5000    -999.25     8.1883     8.1883   124.0392     0.0000    -999.25    96.7669     3.3245     3.3251     3.5750  1513.6648     0.6223    -999.25    -999.25     0.0224     0.0224 18675.7266     2.3146     3.3245    11.0526    36.7068     1.0000     1.0000 -1437.6648    82.8230     0.0224    18.0000
  1513.7892  5707.9189 5707919.0000    -999.25     8.1811     8.1811   124.0270     0.0000    -999.25    97.8626     3.3548     3.3591     3.6244  1513.7892     0.6222    -999.25    -999.25     0.0224     0.0224 18726.7676     2.3226     3.3548    11.2546    36.4028     1.0000     1.0000 -1437.7892    82.8230     0.0224    18.0000
  1513.8172  5713.6074 5718979.5000    -999.25     8.1795     8.1795   123.9993     0.0000    -999.25    98.1093     3.3616     3.3668     3.6355  1513.8171     0.6222    -999.25    -999.25     0.0224     0.0224 18763.0547     2.3244     3.3616    11.3000    36.3344     1.0000     1.0000 -1437.8171    82.8230     0.0224    18.0000
  1513.9417  5768.1587 5768158.5000    -999.25     8.1744     8.1744   123.8760     0.0000    -999.25    98.1938     3.3909     3.3999     3.6781  1513.9418     0.6203    -999.25    -999.25     0.0224     0.0224 18924.4043     2.3443     3.3909    11.4984    36.0709     1.0000     1.0000 -1437.9418    82.8173     0.0224    18.0000
  1513.9696  5781.6655 5785911.5000    -999.25     8.1733     8.1733   123.8212     0.0000    -999.25    98.2127     3.3975     3.4073     3.6876  1513.9696     0.6199    -999.25    -999.25     0.0224     0.0224 18982.6484     2.3487     3.3975    11.5429    36.0119     1.0000     1.0000 -1437.9696    82.8160     0.0224    18.0000
  1514.0940  5865.0679 5865068.0000    -999.25     8.1675     8.1675   123.5770     0.0000    -999.25    96.9085     3.4237     3.4364     3.7464  1514.0940     0.6162    -999.25    -999.25     0.0226     0.0226 19242.3496     2.3779     3.4237    11.7220    35.8262     1.0000     1.0000 -1438.0940    82.6887     0.0226    18.0000
  1514.1220  5888.1094 5888088.0000    -999.25     8.1662     8.1662   123.4334     0.0000    -999.25    96.6150     3.4296     3.4430     3.7596  1514.1219     0.6154    -999.25    -999.25     0.0226     0.0226 19317.8750     2.3845     3.4296    11.7623    35.7844     1.0000     1.0000 -1438.1219    82.6600     0.0226    18.0000
  1514.2465  5990.4448 5990445.0000    -999.25     8.1606     8.1606   122.7950     0.0000    -999.25    93.9682     3.4527     3.4659     3.8122  1514.2466     0.6105    -999.25    -999.25     0.0233     0.0233 19653.6914     2.4134     3.4527    11.9211    35.6557     1.0000     1.0000 -1438.2466    82.1314     0.0233    18.0000
  1514.2744  6017.6045 6011178.5000    -999.25     8.1593     8.1593   122.5688     0.0000    -999.25    93.3751     3.4578     3.4710     3.8240  1514.2744     0.6094    -999.25    -999.25     0.0235     0.0235 19721.7148     2.4199     3.4578    11.9567    35.6269     1.0000     1.0000 -1438.2744    82.0130     0.0235    18.0000
  1514.3988  6103.6245 6103624.5000    -999.25     8.1563     8.1563   121.5600     0.0000    -999.25    90.7176     3.4783     3.4894     3.8489  1514.3988     0.6044    -999.25    -999.25     0.0239     0.0239 20025.0156     2.4342     3.4783    12.0985    35.5463     1.0000     1.0000 -1438.3988    81.6677     0.0239    18.0000
  1514.4268  6126.6821 6115424.5000    -999.25     8.1556     8.1556   121.2637     0.0000    -999.25    90.1195     3.4829     3.4935     3.8546  1514.4268     0.6032    -999.25    -999.25     0.0240     0.0240 20063.7285     2.4375     3.4829    12.1304    35.5282     1.0000     1.0000 -1438.4268    81.5900     0.0240    18.0000
  1514.5513  6167.8916 6167891.5000    -999.25     8.1512     8.1512   119.9460     0.0000    -999.25    88.5544     3.5027     3.5117     3.8868  1514.5513     0.6022    -999.25    -999.25     0.0240     0.0240 20235.8652     2.4272     3.5027    12.2693    35.5168     1.0000     1.0000 -1438.5513    81.6014     0.0240    18.0000
  1514.5792  6175.9004 6166610.0000    -999.25     8.1502     8.1502   119.6769     0.0000    -999.25    88.2036     3.5072     3.5158     3.8940  1514.5791     0.6019    -999.25    -999.25     0.0240     0.0240 20231.6602     2.4249     3.5072    12.3005    35.5142     1.0000     1.0000 -1438.5791    81.6040     0.0240    18.0000
  1514.7036  6160.8950 6160895.0000    -999.25     8.1434     8.1434   118.4770     0.0000    -999.25    88.0378     3.5270     3.5383     3.9160  1514.7036     0.6059    -999.25    -999.25     0.0233     0.0233 20212.9102     2.3948     3.5270    12.4400    35.5391     1.0000     1.0000 -1438.7036    82.1509     0.0233    18.0000
  1514.7316  6152.8188 6150402.0000    -999.25     8.1419     8.1419   118.2964     0.0000    -999.25    88.0005     3.5315     3.5434     3.9210  1514.7316     0.6068    -999.25    -999.25     0.0231     0.0231 20178.4844     2.3880     3.5315    12.4714    35.5448     1.0000     1.0000 -1438.7316    82.2740     0.0231    18.0000
  1514.8560  6103.7832 6103783.0000    -999.25     8.1346     8.1346   117.4940     0.0000    -999.25    88.5426     3.5477     3.5700     3.9344  1514.8560     0.6196    -999.25    -999.25    -999.25    -999.25 20025.5352     2.3529     3.5477    12.5860    35.6973    -999.25    -999.25 -1438.8560    -999.25    -999.25    18.0000
  1514.8840  6087.8198    -999.25    -999.25     8.1330     8.1330   117.4065     0.0000    -999.25    88.6646     3.5513     3.5759     3.9375  1514.8839     0.6224    -999.25    -999.25    -999.25    -999.25    -999.25     2.3450     3.5513    12.6118    35.7316    -999.25    -999.25 -1438.8839    -999.25    -999.25    18.0000
