~Version ---------------------------------------------------
VERS. 2.0 : CWLS log ASCII Standard -VERSION 2.0
WRAP.  NO : 
~Well ------------------------------------------------------
STRT.m                                                1239.5456 : 
STOP.m                                                  1697.66 : 
STEP.m                                                   0.1524 : 
NULL.                                                   -999.25 : 
COMP.                                                           : COMPANY
WELL.                                                   Well-16 : WELL
FLD .                                                           : FIELD
LOC .                                                           : LOCATION
SRVC.                                                           : SERVICE COMPANY
DATE. 2021-01-20 14:34:07   : Log Export Date {yyyy-MM-dd HH:mm : ss}
PROV.                                                           : PROVINCE
UWI .                                                   Well-16 : UNIQUE WELL ID
API .                                                           : API NUMBER
~Curve Information -----------------------------------------
DEPTH             .m        : DEPTH
ACOUSTICIMPEDANCE1.kPa.s/m  : ACOUSTICIMPEDANCE1
AI                .kPa.s/m  : AI
AVG_PIGN          .m3/m3    : AVG_PIGN
BIT               .m        : BIT
CALI              .in       : CALI
CALI_1            .in       : CALI_1
NPHI              .m3/m3    : NPHI
DT                .us/ft    : DT
FACIES            ._        : FACIES
FLD1              ._        : FLD1
GR                .gAPI     : GR
M2R2              .ohm.m    : M2R2
LLS               .ohm.m    : LLS
LLD               .ohm.m    : LLD
DEPTH_1           .m        : DEPTH_1
NPHI_1            .m3/m3    : NPHI_1
PEF               .b/e      : PEF
PIGN_MODELLING    .m3/m3    : PIGN_MODELLING
PIMP              .kPa.s/m  : PIMP
RHOB              .g/cm3    : RHOB
RT_MODELLING      .ohm.m    : RT_MODELLING
RT_POWER          .ohm.m    : RT_POWER
SP                .mV       : SP
SUWI_MODELLING    ._        : SUWI_MODELLING
TDVSS             .m        : TDVSS
ZCOR              .g/cm3    : ZCOR
RHOB_1            .g/cm3    : RHOB_1
ZLT               ._        : ZLT
~Params ----------------------------------------------------
~Other -----------------------------------------------------
~ASCII -----------------------------------------------------
  1239.5456  4567.1758 4567176.0000    -999.25     0.2159     9.0885     9.3885     0.5651   147.1219    -999.25    -999.25    84.3455     0.8554     0.8429     0.8420  1239.5457     0.5651     5.1139    -999.25 14984.1729     2.2045     0.8420     0.7090   193.3365    -999.25 -1158.8256     0.0882     2.2045    -999.25
  1239.6980  4480.5957 4480595.5000    -999.25     0.2159     9.1638     9.4638     0.5628   149.7063    -999.25    -999.25    85.9392     1.0141     0.9976     0.9968  1239.6980     0.5628     4.9854    -999.25 14700.1162     2.2007     0.9968     0.9936   193.2721    -999.25 -1158.9780     0.0948     2.2007    -999.25
  1239.8504  4506.1494 4506149.0000    -999.25     0.2159     9.1926     9.4926     0.5731   149.2226    -999.25    -999.25    86.8729     1.1238     1.1056     1.1052  1239.8505     0.5731     4.9641    -999.25 14783.9541     2.2061     1.1052     1.2215   193.1976    -999.25 -1159.1304     0.0849     2.2061    -999.25
  1240.0028  4549.9058 4549906.0000    -999.25     0.2159     9.1997     9.4997     0.5884   147.8076    -999.25    -999.25    85.5047     1.1594     1.1437     1.1440  1240.0028     0.5884     5.1240    -999.25 14927.5127     2.2064     1.1440     1.3087   193.2108    -999.25 -1159.2828     0.0750     2.2064    -999.25
  1240.1552  4571.0166 4571016.5000    -999.25     0.2159     9.2050     9.5050     0.5880   146.0114    -999.25    -999.25    82.9608     1.1708     1.1598     1.1609  1240.1553     0.5880     5.3940    -999.25 14996.7734     2.1897     1.1609     1.3477   193.3030    -999.25 -1159.4352     0.0846     2.1897    -999.25
  1240.3076  4538.3628 4538362.5000    -999.25     0.2159     9.2028     9.5028     0.5579   145.1076    -999.25    -999.25    82.9649     1.1866     1.1797     1.1817  1240.3076     0.5579     5.5554    -999.25 14889.6416     2.1606     1.1817     1.3964   193.4286    -999.25 -1159.5876     0.1087     2.1606    -999.25
  1240.4600  4482.9888 4482988.5000    -999.25     0.2159     9.1935     9.4935     0.5272   145.1526    -999.25    -999.25    86.4677     1.2053     1.2004     1.2034  1240.4600     0.5272     5.5708    -999.25 14707.9678     2.1349     1.2034     1.4482   193.5555    -999.25 -1159.7400     0.1238     2.1349    -999.25
  1240.6124  4458.5020 4458502.0000    -999.25     0.2159     9.1817     9.4817     0.5192   145.4234    -999.25    -999.25    89.6745     1.2178     1.2125     1.2168  1240.6124     0.5192     5.5672    -999.25 14627.6309     2.1272     1.2168     1.4806   193.6474    -999.25 -1159.8925     0.1171     2.1272    -999.25
  1240.7648  4494.2178 4494218.0000    -999.25     0.2159     9.1706     9.4706     0.5224   145.0273    -999.25    -999.25    89.4759     1.2140     1.2069     1.2126  1240.7648     0.5224     5.5066    -999.25 14744.8096     2.1384     1.2126     1.4704   193.7116    -999.25 -1160.0448     0.1040     2.1384    -999.25
  1240.9172  4704.1357 4704136.0000    -999.25     0.2159     9.1545     9.4545     0.5217   139.7802    -999.25    -999.25    87.2699     1.1920     1.1833     1.1905  1240.9172     0.5217     5.3260    -999.25 15433.5166     2.1573     1.1905     1.4173   193.7721    -999.25 -1160.1973     0.0980     2.1573    -999.25
  1241.0696  4902.2378 4902237.5000    -999.25     0.2159     9.1061     9.4061     0.5182   135.1948    -999.25    -999.25    85.4360     1.1664     1.1571     1.1658  1241.0696     0.5182     5.1692    -999.25 16083.4570     2.1744     1.1658     1.3591   193.8004    -999.25 -1160.3496     0.0927     2.1744    -999.25
  1241.2220  4933.9590 4933959.0000    -999.25     0.2159     9.0262     9.3262     0.5070   135.0484    -999.25    -999.25    83.3652     1.1484     1.1394     1.1494  1241.2220     0.5070     5.2234    -999.25 16187.5293     2.1861     1.1494     1.3211   193.7468    -999.25 -1160.5021     0.0815     2.1861    -999.25
  1241.3744  4886.9180 4886918.0000    -999.25     0.2159     8.9607     9.2607     0.4953   136.6228    -999.25    -999.25    80.9501     1.1303     1.1222     1.1332  1241.3744     0.4953     5.4167    -999.25 16033.1953     2.1905     1.1332     1.2841   193.6144    -999.25 -1160.6544     0.0731     2.1905    -999.25
  1241.5268  4701.8794 4701879.5000    -999.25     0.2159     8.9355     9.2355     0.5110   141.7661    -999.25    -999.25    79.8798     1.1032     1.0959     1.1075  1241.5269     0.5110     5.4660    -999.25 15426.1133     2.1869     1.1075     1.2266   193.4685    -999.25 -1160.8068     0.0792     2.1869    -999.25
  1241.6792  4565.3223 4565322.5000    -999.25     0.2159     8.9221     9.2221     0.5375   145.4925    -999.25    -999.25    80.1749     1.0733     1.0664     1.0779  1241.6792     0.5375     5.4694    -999.25 14978.0918     2.1792     1.0779     1.1619   193.3376    -999.25 -1160.9592     0.0985     2.1792    -999.25
  1241.8316  4536.0776 4536077.5000    -999.25     0.2159     8.8958     9.1958     0.5441   145.9803    -999.25    -999.25    80.5048     1.0508     1.0438     1.0547  1241.8317     0.5441     5.4742    -999.25 14882.1445     2.1725     1.0547     1.1124   193.2433    -999.25 -1161.1116     0.1132     2.1725    -999.25
  1241.9840  4520.7573 4520757.5000    -999.25     0.2159     8.8700     9.1700     0.5390   146.2660    -999.25    -999.25    81.2501     1.0398     1.0318     1.0419  1241.9840     0.5390     5.4045    -999.25 14831.8809     2.1694     1.0419     1.0856   193.2196    -999.25 -1161.2640     0.1170     2.1694    -999.25
  1242.1364  4528.2217 4528221.5000    -999.25     0.2159     8.8614     9.1614     0.5417   146.1326    -999.25    -999.25    82.9788     1.0406     1.0314     1.0402  1242.1365     0.5417     5.3752    -999.25 14856.3701     2.1710     1.0402     1.0820   193.2504    -999.25 -1161.4164     0.1187     2.1710    -999.25
  1242.2888  4558.1641 4558164.0000    -999.25     0.2159     8.8636     9.1636     0.5473   145.5538    -999.25    -999.25    84.1265     1.0521     1.0412     1.0489  1242.2888     0.5473     5.3671    -999.25 14954.6064     2.1767     1.0489     1.1002   193.2330    -999.25 -1161.5688     0.1197     2.1767    -999.25
  1242.4412  4577.6123 4577612.5000    -999.25     0.2159     8.8598     9.1599     0.5423   145.3882    -999.25    -999.25    83.9962     1.0688     1.0562     1.0626  1242.4412     0.5423     5.3286    -999.25 15018.4131     2.1835     1.0626     1.1291   193.1334    -999.25 -1161.7212     0.1169     2.1835    -999.25
  1242.5936  4588.6729 4588673.0000    -999.25     0.2159     8.8517     9.1517     0.5240   145.3101    -999.25    -999.25    83.6522     1.0838     1.0695     1.0747  1242.5936     0.5240     5.2423    -999.25 15054.7012     2.1876     1.0747     1.1550   193.0504    -999.25 -1161.8737     0.1115     2.1876    -999.25
  1242.7460  4615.9995 4615999.5000    -999.25     0.2159     8.8454     9.1454     0.5185   144.7536    -999.25    -999.25    85.2481     1.0994     1.0836     1.0876  1242.7460     0.5185     5.2323    -999.25 15144.3555     2.1922     1.0876     1.1829   193.0244    -999.25 -1162.0260     0.1020     2.1922    -999.25
  1242.8984  4651.3931 4651393.0000    -999.25     0.2159     8.8462     9.1462     0.5383   144.6023    -999.25    -999.25    88.3335     1.1234     1.1057     1.1088  1242.8984     0.5383     5.2215    -999.25 15260.4756     2.2067     1.1088     1.2294   192.9692    -999.25 -1162.1785     0.0854     2.2067    -999.25
  1243.0508  4774.9780 4774978.0000    -999.25     0.2159     8.8640     9.1640     0.5482   142.5896    -999.25    -999.25    88.6656     1.1516     1.1320     1.1344  1243.0508     0.5482     5.2283    -999.25 15665.9385     2.2338     1.1344     1.2869   192.8344    -999.25 -1162.3308     0.0690     2.2338    -999.25
  1243.2032  4987.3325 4987332.5000    -999.25     0.2159     8.9078     9.2078     0.5240   138.1012    -999.25    -999.25    84.5806     1.1689     1.1479     1.1498  1243.2032     0.5240     5.1673    -999.25 16362.6396     2.2597     1.1498     1.3220   192.6608    -999.25 -1162.4833     0.0542     2.2597    -999.25
