~Version ---------------------------------------------------
VERS. 2.0 : CWLS log ASCII Standard -VERSION 2.0
WRAP.  NO : 
~Well ------------------------------------------------------
STRT.m                                                   1300.0 : 
STOP.m                                                 1514.884 : 
STEP.m                                                   0.1524 : 
NULL.                                                   -999.25 : 
COMP.                                                           : COMPANY
WELL.                                                    Well-2 : WELL
FLD .                                                           : FIELD
LOC .                                                           : LOCATION
SRVC.                                                           : SERVICE COMPANY
DATE. 2021-01-20 14:33:59   : Log Export Date {yyyy-MM-dd HH:mm : ss}
PROV.                                                           : PROVINCE
UWI .                                                    Well-2 : UNIQUE WELL ID
API .                                                           : API NUMBER
~Curve Information -----------------------------------------
DEPTH             .m        : DEPTH
ACOUSTICIMPEDANCE1.kPa.s/m  : ACOUSTICIMPEDANCE1
AI                .kPa.s/m  : AI
AVG_PIGN          .m3/m3    : AVG_PIGN
CALI              .in       : CALI
CALI[DERIVED]1    .in       : CALI[DERIVED]1
DT                .us/ft    : DT
FACIES            ._        : FACIES
FLD1              ._        : FLD1
GR                .gAPI     : GR
LLD               .ohm.m    : LLD
LLS               .ohm.m    : LLS
LL3               .ohm.m    : LL3
DEPTH_1           .m        : DEPTH_1
NPHI              .m3/m3    : NPHI
PERF_INT          ._        : PERF_INT
PERMEABILITY      .mD       : PERMEABILITY
PIGN              .m3/m3    : PIGN
PIGN_MODELLING    .m3/m3    : PIGN_MODELLING
PIMP              .kPa.s/m  : PIMP
RHOB              .g/cm3    : RHOB
RT_MODELLING      .ohm.m    : RT_MODELLING
RT_POWER          .ohm.m    : RT_POWER
SP                .mV       : SP
SUWI              ._        : SUWI
SUWI_MODELLING    ._        : SUWI_MODELLING
TDVSS             .m        : TDVSS
VCL               .%        : VCL
WATER_VOL         ._        : WATER_VOL
ZLT               ._        : ZLT
~Params ----------------------------------------------------
~Other -----------------------------------------------------
~ASCII -----------------------------------------------------
# ...
  1370.5332  5743.8960 5743896.0000    -999.25     9.8945     9.8945   121.6630     0.0000    -999.25    81.1920     1.5166     1.5583     1.7575  1370.5332     0.4769    -999.25     0.1064     0.0384     0.0384 18844.8027     2.2927     1.5166     2.3001    50.1014     1.0000     1.0000 -1294.5332    70.5844     0.0384     2.0000
  1370.5612  5714.3276 5714407.5000    -999.25     9.9047     9.9047   122.2426     0.0000    -999.25    81.2505     1.5122     1.5458     1.7433  1370.5612     0.4784    -999.25     0.1022     0.0380     0.0380 18748.0547     2.2918     1.5122     2.2867    50.0987     1.0000     1.0000 -1294.5612    70.8420     0.0380     2.0000
  1370.6857  5583.2886 5583288.5000    -999.25     9.9564     9.9564   124.8200     0.0000    -999.25    81.6313     1.4848     1.4900     1.6255  1370.6857     0.4975    -999.25     0.0665     0.0343     0.0343 18317.8750     2.2864     1.4848     2.2047    50.2872     1.0000     1.0000 -1294.6857    73.6939     0.0343     2.0000
  1370.7136  5551.7656 5554586.5000    -999.25     9.9681     9.9681   125.4630     0.0000    -999.25    81.7166     1.4786     1.4775     1.5991  1370.7135     0.5017    -999.25     0.0586     0.0335     0.0335 18223.7070     2.2852     1.4786     2.1863    50.3294     1.0000     1.0000 -1294.7135    74.3330     0.0335     2.0000
  1370.8380  5426.6094 5426609.5000    -999.25    10.0100    10.0100   128.3300     0.0000    -999.25    82.5203     1.4445     1.4348     1.4967  1370.8380     0.5207    -999.25     0.0364     0.0297     0.0297 17803.8379     2.2848     1.4445     2.0868    50.6944     1.0000     1.0000 -1294.8380    77.2030     0.0297     2.0000
  1370.8660  5411.4116 5414160.5000    -999.25    10.0195    10.0195   128.6844     0.0000    -999.25    82.7012     1.4368     1.4252     1.4736  1370.8660     0.5250    -999.25     0.0314     0.0289     0.0289 17762.9961     2.2847     1.4368     2.0644    50.7766     1.0000     1.0000 -1294.8660    77.8490     0.0289     2.0000
  1370.9904  5358.8525 5358852.5000    -999.25    10.0518    10.0518   130.2590     0.0000    -999.25    82.9440     1.3980     1.3944     1.4221  1370.9904     0.5335    -999.25     0.0244     0.0270     0.0270 17581.5371     2.2902     1.3980     1.9547    51.2575     1.0000     1.0000 -1294.9904    79.2840     0.0270     2.0000
  1371.0184  5355.9966 5357531.5000    -999.25    10.0591    10.0591   130.3988     0.0000    -999.25    82.9986     1.3893     1.3875     1.4105  1371.0183     0.5354    -999.25     0.0228     0.0266     0.0266 17577.2031     2.2914     1.3893     1.9300    51.3658     1.0000     1.0000 -1295.0183    79.6070     0.0266     2.0000
  1371.1428  5351.6631 5351663.5000    -999.25    10.0656    10.0656   131.0200     0.0000    -999.25    83.5617     1.3521     1.3615     1.4095  1371.1428     0.5337    -999.25     0.0232     0.0265     0.0265 17557.9512     2.3004     1.3521     1.8284    51.8626     1.0000     1.0000 -1295.1428    79.6764     0.0265     2.0000
  1371.1708  5353.6182 5354080.0000    -999.25    10.0671    10.0671   131.0882     0.0000    -999.25    83.6885     1.3437     1.3556     1.4092  1371.1708     0.5333    -999.25     0.0234     0.0265     0.0265 17565.8789     2.3025     1.3437     1.8055    51.9745     1.0000     1.0000 -1295.1708    79.6920     0.0265     2.0000
  1371.2952  5364.8149 5364815.0000    -999.25    10.0347    10.0347   131.3910     0.0000    -999.25    84.2884     1.3154     1.3319     1.4221  1371.2952     0.5298    -999.25     0.0252     0.0267     0.0267 17601.0996     2.3126     1.3154     1.7305    52.4025     1.0000     1.0000 -1295.2952    79.5059     0.0267     2.0000
  1371.3232  5369.9102 5370020.5000    -999.25    10.0274    10.0274   131.3960     0.0000    -999.25    84.4234     1.3090     1.3265     1.4250  1371.3231     0.5291    -999.25     0.0256     0.0268     0.0268 17618.1777     2.3149     1.3090     1.7136    52.4988     1.0000     1.0000 -1295.3231    79.4640     0.0268     2.0000
  1371.4476  5393.1479 5393148.0000    -999.25    10.0327    10.0327   131.4180     0.0000    -999.25    84.4515     1.2932     1.3097     1.4175  1371.4476     0.5289    -999.25     0.0252     0.0265     0.0265 17694.0547     2.3253     1.2932     1.6725    52.7750     1.0000     1.0000 -1295.4476    79.6828     0.0265     2.0000
  1371.4756  5399.2075 5398796.5000    -999.25    10.0339    10.0339   131.4028     0.0000    -999.25    84.4578     1.2897     1.3060     1.4158  1371.4756     0.5289    -999.25     0.0251     0.0264     0.0264 17712.5859     2.3277     1.2897     1.6633    52.8372     1.0000     1.0000 -1295.4756    79.7320     0.0264     2.0000
  1371.6000  5423.8921 5423892.5000    -999.25    10.0392    10.0392   131.3350     0.0000    -999.25    84.0146     1.2854     1.3011     1.4126  1371.6000     0.5348    -999.25     0.0210     0.0252     0.0252 17794.9219     2.3371     1.2854     1.6523    52.9745     1.0000     1.0000 -1295.6000    80.6903     0.0252     2.0000
  1371.6280  5437.1348 5435850.0000    -999.25    10.0404    10.0404   131.1342     0.0000    -999.25    83.9149     1.2845     1.3000     1.4119  1371.6279     0.5361    -999.25     0.0201     0.0249     0.0249 17834.1523     2.3392     1.2845     1.6498    53.0054     1.0000     1.0000 -1295.6279    80.9060     0.0249     2.0000
  1371.7524  5488.9756 5488975.5000    -999.25    10.0350    10.0350   130.2420     0.0000    -999.25    83.6138     1.2878     1.3055     1.4258  1371.7524     0.5435    -999.25     0.0161     0.0235     0.0235 18008.4492     2.3455     1.2878     1.6584    53.0128     1.0000     1.0000 -1295.7524    81.9672     0.0235     2.0000
  1371.7804  5507.9556 5505105.0000    -999.25    10.0338    10.0338   129.8709     0.0000    -999.25    83.5460     1.2885     1.3068     1.4289  1371.7804     0.5452    -999.25     0.0152     0.0232     0.0232 18061.3672     2.3469     1.2885     1.6603    53.0145     1.0000     1.0000 -1295.7804    82.2060     0.0232     2.0000
  1371.9048  5576.7671 5576767.0000    -999.25    10.0327    10.0327   128.2220     0.0000    -999.25    82.7146     1.2956     1.3163     1.4454  1371.9048     0.5488    -999.25     0.0138     0.0227     0.0227 18296.4785     2.3460     1.2956     1.6785    52.9529     1.0000     1.0000 -1295.9048    82.5954     0.0227     2.0000
  1371.9328  5588.3555 5585495.5000    -999.25    10.0324    10.0324   127.9457     0.0000    -999.25    82.5274     1.2972     1.3185     1.4491  1371.9327     0.5497    -999.25     0.0135     0.0226     0.0226 18325.1152     2.3458     1.2972     1.6826    52.9390     1.0000     1.0000 -1295.9327    82.6830     0.0226     2.0000
  1372.0573  5624.3066 5624306.5000    -999.25    10.0443    10.0443   126.7170     0.0000    -999.25    82.1788     1.3079     1.3263     1.4554  1372.0574     0.5477    -999.25     0.0147     0.0232     0.0232 18452.4492     2.3382     1.3079     1.7107    52.8106     1.0000     1.0000 -1296.0574    82.1994     0.0232     2.0000
  1372.0852  5619.8218 5618788.0000    -999.25    10.0470    10.0470   126.7260     0.0000    -999.25    82.1007     1.3103     1.3281     1.4568  1372.0852     0.5472    -999.25     0.0150     0.0234     0.0234 18434.3438     2.3365     1.3103     1.7169    52.7818     1.0000     1.0000 -1296.0852    82.0910     0.0234     2.0000
  1372.2096  5594.1812 5594181.5000    -999.25    10.0178    10.0178   126.7660     0.0000    -999.25    82.0412     1.3282     1.3357     1.4738  1372.2096     0.5405    -999.25     0.0191     0.0249     0.0249 18353.6133     2.3266     1.3282     1.7642    52.5167     1.0000     1.0000 -1296.2096    80.8895     0.0249     2.0000
  1372.2376  5581.1382 5583372.5000    -999.25    10.0113    10.0113   126.9402     0.0000    -999.25    82.0278     1.3322     1.3374     1.4777  1372.2375     0.5390    -999.25     0.0200     0.0253     0.0253 18318.1504     2.3244     1.3322     1.7749    52.4571     1.0000     1.0000 -1296.2375    80.6190     0.0253     2.0000
  1372.3621  5535.3101 5535310.0000    -999.25     9.9990     9.9990   127.7150     0.0000    -999.25    81.5210     1.3612     1.3516     1.4819  1372.3622     0.5300    -999.25     0.0269     0.0272     0.0272 18160.4668     2.3194     1.3612     1.8531    51.9887     1.0000     1.0000 -1296.3622    79.1101     0.0272     2.0000
