~Version ---------------------------------------------------
VERS. 2.0 : CWLS log ASCII Standard -VERSION 2.0
WRAP.  NO : 
~Well ------------------------------------------------------
STRT.m                                                1333.6522 : 
STOP.m                                                1778.5078 : 
STEP.m                                                   0.1524 : 
NULL.                                                   -999.25 : 
COMP.                                                           : COMPANY
WELL.                                                   Well-15 : WELL
FLD .                                                           : FIELD
LOC .                                                           : LOCATION
SRVC.                                                           : SERVICE COMPANY
DATE. 2021-01-20 14:34:07   : Log Export Date {yyyy-MM-dd HH:mm : ss}
PROV.                                                           : PROVINCE
UWI .                                                   Well-15 : UNIQUE WELL ID
API .                                                           : API NUMBER
~Curve Information -----------------------------------------
DEPTH             .m        : DEPTH
ACOUSTICIMPEDANCE1.kPa.s/m  : ACOUSTICIMPEDANCE1
AI                .kPa.s/m  : AI
BS                .in       : BS
CALI              .in       : CALI
CALI[DERIVED]1    .in       : CALI[DERIVED]1
DRES              .ohm.m    : DRES
DT                .us/ft    : DT
DT2               .us/ft    : DT2
DT4P              .us/ft    : DT4P
FACIES            ._        : FACIES
FLD1              ._        : FLD1
GR                .gAPI     : GR
GR_EDTC           .gAPI     : GR_EDTC
LLD               .ohm.m    : LLD
LLS               .ohm.m    : LLS
M2R2              .ohm.m    : M2R2
LLS_1             .ohm.m    : LLS_1
LLD_1             .ohm.m    : LLD_1
DEPTH_1           .m        : DEPTH_1
MSFL              .ohm.m    : MSFL
NPHI              .m3/m3    : NPHI
PERF_INT          ._        : PERF_INT
PIMP              .kPa.s/m  : PIMP
PR                ._        : PR
RHOB              .g/cm3    : RHOB
RT_MODELLING      .ohm.m    : RT_MODELLING
RT_POWER          .ohm.m    : RT_POWER
SP                .mV       : SP
TDVSS             .m        : TDVSS
TENS              .t        : TENS
VPVS              ._        : VPVS
ZLT               ._        : ZLT
~Params ----------------------------------------------------
~Other -----------------------------------------------------
~ASCII -----------------------------------------------------
# ...
  1692.5542  8041.7148 8041753.0000     8.5000     9.1549     9.1549     7.9101    97.4280   204.1955    97.4280     0.0000    -999.25    43.4082    77.7049     7.9101     5.7847    -999.25    -999.25    -999.25  1692.5542     5.8303     0.4090    -999.25 26383.7031     0.3526     2.5705     7.9101    62.5697   -83.7094 -1363.0094  2102.9253     2.0959    17.0000
  1692.7067  7958.9893 7958934.0000     8.5000     9.2246     9.2246     7.4950    98.9577   217.2668    98.9577     0.0000    -999.25    44.2925    78.7655     7.4950     5.5024    -999.25    -999.25    -999.25  1692.7067     5.4108     0.4094    -999.25 26111.9883     0.3691     2.5840     7.4950    56.1750   -83.2429 -1363.0623  2156.9646     2.1955    17.0000
  1692.8590  7929.0747 7929030.5000     8.5000     9.1803     9.1803     7.1376    98.7813   211.9633    98.7813     0.0000    -999.25    44.4266    78.1461     7.1376     5.2672    -999.25    -999.25    -999.25  1692.8590     4.5491     0.4302    -999.25 26013.8789     0.3613     2.5697     7.1376    50.9453   -83.0901 -1363.1149  2098.0774     2.1458    17.0000
  1693.0115  7750.1113 7750128.5000     8.5000     9.0984     9.0984     7.1290   100.0674   191.8959   100.0674     0.0000    -999.25    44.6393    75.7656     7.1290     5.2793    -999.25    -999.25    -999.25  1693.0115     4.2650     0.4435    -999.25 25426.9297     0.3132     2.5444     7.1290    50.8226   -83.1183 -1363.1677  2043.0361     1.9176    17.0000
  1693.1638  7713.7290 7713796.0000     8.5000     8.9716     8.9716     7.4868    99.8518   188.9663    99.8518     0.0000    -999.25    44.3797    72.7843     7.4867     5.5566    -999.25    -999.25    -999.25  1693.1637     4.5417     0.4463    -999.25 25307.7305     0.3063     2.5270     7.4867    56.0507   -83.0140 -1363.2203  2207.7834     1.8924    17.0000
  1693.3162  7884.2983 7884229.5000     8.5000     8.8073     8.8073     8.1258    97.6723   187.0152    97.6723     0.0000    -999.25    44.1262    73.4505     8.1257     6.0345    -999.25    -999.25    -999.25  1693.3162     6.1129     0.4465    -999.25 25866.8945     0.3125     2.5265     8.1257    66.0270   -82.8061 -1363.2731  2153.0723     1.9148    17.0000
  1693.4686  7968.0894 7967999.0000     8.5000     8.7550     8.7550     8.5209    95.9375   182.2919    95.9375     0.0000    -999.25    45.6290    75.6040     8.5208     6.3412    -999.25    -999.25    -999.25  1693.4685     6.3510     0.4433    -999.25 26141.7305     0.3085     2.5080     8.5208    72.6040   -82.3690 -1363.3258  2165.9829     1.9001    17.0000
  1693.6210  7609.4448 7609465.5000     8.5000     8.7998     8.7998     8.3042    98.8329   184.2292    98.8329     0.0000    -999.25    46.6395    79.4913     8.3043     6.2150    -999.25    -999.25    -999.25  1693.6210     4.9256     0.4352    -999.25 24965.4375     0.2979     2.4674     8.3043    68.9614   -81.7850 -1363.3785  2146.0264     1.8640    17.0000
  1693.7734  7490.7378 7490808.0000     8.5000     8.8510     8.8510     7.8579    98.8081   178.4297    98.8081     0.0000    -999.25    46.8194    81.4853     7.8579     5.9209    -999.25    -999.25    -999.25  1693.7733     4.1559     0.4282    -999.25 24576.1406     0.2788     2.4283     7.8579    61.7466   -81.2650 -1363.4313  2103.0564     1.8058    17.0000
  1693.9258  7370.8442 7370927.5000     8.5000     8.8862     8.8862     7.4756    99.5139   173.9302    99.5139     0.0000    -999.25    47.5534    81.0161     7.4756     5.6602    -999.25    -999.25    -999.25  1693.9258     4.1488     0.4317    -999.25 24182.8320     0.2566     2.4065     7.4756    55.8846   -80.9914 -1363.4841  2099.0054     1.7478    17.0000
  1694.0782  7330.7593 7330803.5000     8.5000     8.9598     8.9598     7.0901   100.0040   175.9570   100.0040     0.0000    -999.25    47.9393    78.7599     7.0901     5.3909    -999.25    -999.25    -999.25  1694.0781     4.8486     0.4405    -999.25 24051.1914     0.2614     2.4052     7.0901    50.2695   -81.2444 -1363.5369  2092.0093     1.7595    17.0000
  1694.2306  7447.3604 7447305.5000     8.5000     8.9338     8.9338     6.9531    98.8311   175.6785    98.8311     0.0000    -999.25    48.1742    76.1470     6.9531     5.3068    -999.25    -999.25    -999.25  1694.2306     6.2387     0.4519    -999.25 24433.4180     0.2685     2.4148     6.9531    48.3456   -81.1310 -1363.5896  2095.9946     1.7776    17.0000
  1694.3831  7435.1987 7435175.0000     8.5000     8.8927     8.8927     7.2588    98.8124   174.8990    98.8124     0.0000    -999.25    48.0092    79.1787     7.2588     5.5568    -999.25    -999.25    -999.25  1694.3831     5.1117     0.4552    -999.25 24393.6191     0.2656     2.4104     7.2588    52.6902   -81.2363 -1363.6425  2046.0328     1.7700    17.0000
  1694.5354  7387.1919 7387318.5000     8.5000     8.9089     8.9089     7.6707    98.7985   180.3761    98.7985     0.0000    -999.25    47.5772    82.0203     7.6707     5.8939    -999.25    -999.25    -999.25  1694.5354     4.2817     0.4445    -999.25 24236.6094     0.2857     2.3945     7.6707    58.8396   -81.3402 -1363.6951  2047.9973     1.8257    17.0000
  1694.6879  7505.3433 7505505.0000     8.5000     8.9217     8.9217     7.8757    97.8686   179.5880    97.8686     0.0000    -999.25    46.4894    85.2196     7.8757     6.0897    -999.25    -999.25    -999.25  1694.6879     4.8390     0.4211    -999.25 24624.3613     0.2888     2.4099     7.8757    62.0266   -81.4578 -1363.7479  2043.0033     1.8350    17.0000
  1694.8402  7828.7397 7829013.5000     8.5000     8.9099     8.9099     8.1314    97.4855   179.0411    97.4855     0.0000    -999.25    45.1085    80.2135     8.1314     6.3294    -999.25    -999.25    -999.25  1694.8402     4.8506     0.4053    -999.25 25685.7402     0.2893     2.5039     8.1314    66.1197   -81.5359 -1363.8005  2045.9961     1.8366    17.0000
  1694.9926  8269.9795 8269780.0000     8.5000     8.8983     8.8983     8.2310    98.1960   179.3875    98.1960     0.0000    -999.25    43.2522    76.3008     8.2310     6.4536    -999.25    -999.25    -999.25  1694.9926    15.7552     0.4006    -999.25 27131.8223     0.2861     2.6643     8.2310    67.7494   -81.2632 -1363.8535  2018.0367     1.8268    17.0000
  1695.1450  8529.1416 8528489.0000     8.5000     8.8725     8.8725     8.0042    99.2218   175.8851    99.2218     0.0000    -999.25    40.4341    74.8616     8.0042     6.3182    -999.25    -999.25    -999.25  1695.1449    19.5288     0.4021    -999.25 27980.6055     0.2666     2.7765     8.0042    64.0672   -81.2641 -1363.9070  2007.0144     1.7727    17.0000
  1695.2974  8416.2480 8415808.0000     8.5000     8.8755     8.8755     7.7800    98.7746   178.2330    98.7746     0.0000    -999.25    40.5721    74.0509     7.7800     6.1662    -999.25    -999.25    -999.25  1695.2974     9.1404     0.4138    -999.25 27610.9160     0.2784     2.7274     7.7800    60.5284   -81.1674 -1363.9606  2034.9633     1.8045    17.0000
  1695.4498  7769.8140 7769829.5000     8.5000     8.9005     8.9005     7.8252   100.7982   171.3678   100.7982     0.0000    -999.25    43.5578    78.9444     7.8252     6.2272    -999.25    -999.25    -999.25  1695.4497     4.0322     0.4314    -999.25 25491.5684     0.2355     2.5695     7.8252    61.2338   -80.5712 -1364.0140  2044.9868     1.7001    17.0000
  1695.6022  7094.1245 7094010.5000     8.5000     8.9114     8.9114     7.9791   103.6018   168.8482   103.6018     0.0000    -999.25    44.5522    76.6015     7.9791     6.3839    -999.25    -999.25    -999.25  1695.6022     5.7281     0.4519    -999.25 23274.3125     0.1980     2.4113     7.9791    63.6660   -79.7014 -1364.0675  2100.9265     1.6298    17.0000
  1695.7546  6684.6460 6684222.5000     8.5000     8.9063     8.9063     7.9376   101.1023   167.8582   101.1023     0.0000    -999.25    42.8627    78.7544     7.9376     6.3953    -999.25    -999.25    -999.25  1695.7545     6.4045     0.4756    -999.25 21929.8633     0.2154     2.2173     7.9376    63.0055   -79.4507 -1364.1210  2065.0474     1.6603    17.0000
