~Version ---------------------------------------------------
VERS. 2.0 : CWLS log ASCII Standard -VERSION 2.0
WRAP.  NO : 
~Well ------------------------------------------------------
STRT.m                                                   1250.0 : 
STOP.m                                                1661.9372 : 
STEP.m                                                   0.1524 : 
NULL.                                                   -999.25 : 
COMP.                                                           : COMPANY
WELL.                                                    Well-7 : WELL
FLD .                                                           : FIELD
LOC .                                                           : LOCATION
SRVC.                                                           : SERVICE COMPANY
DATE. 2021-01-20 14:34:01   : Log Export Date {yyyy-MM-dd HH:mm : ss}
PROV.                                                           : PROVINCE
UWI .                                                    Well-7 : UNIQUE WELL ID
API .                                                           : API NUMBER
~Curve Information -----------------------------------------
DEPTH             .m        : DEPTH
ACOUSTICIMPEDANCE1.kPa.s/m  : ACOUSTICIMPEDANCE1
AI                .kPa.s/m  : AI
AVG_PIGN          .m3/m3    : AVG_PIGN
CALI              .in       : CALI
CALI[DERIVED]1    .in       : CALI[DERIVED]1
DEVI              .deg      : DEVI
DFL               .ohm.m    : DFL
DT                .us/ft    : DT
FACIES            ._        : FACIES
FLD1              ._        : FLD1
GR                .gAPI     : GR
HDRS              .ohm.m    : HDRS
HMRS              .ohm.m    : HMRS
DEPTH_1           .m        : DEPTH_1
NPHI              .m3/m3    : NPHI
PEF               .b/e      : PEF
PERF_INT          ._        : PERF_INT
PERMEABILITY      .mD       : PERMEABILITY
PIGN              .m3/m3    : PIGN
PIGN_MODELLING    .m3/m3    : PIGN_MODELLING
PIMP              .kPa.s/m  : PIMP
RHOB              .g/cm3    : RHOB
LLD               .ohm.m    : LLD
RT_MODELLING      .ohm.m    : RT_MODELLING
RT_POWER          .ohm.m    : RT_POWER
SP                .mV       : SP
SUWI              ._        : SUWI
SUWI_MODELLING    ._        : SUWI_MODELLING
SXWI              ._        : SXWI
TDVSS             .m        : TDVSS
VCL               .%        : VCL
WATER_VOL         ._        : WATER_VOL
ZLT               ._        : ZLT
~Params ----------------------------------------------------
~Other -----------------------------------------------------
~ASCII -----------------------------------------------------
# ...
  1633.8956  6460.4844 6465392.5000    -999.25     8.9105     8.9105     2.0036     2.6160   118.6277     0.0000    -999.25    84.8574     2.0961     2.1411  1633.8956     0.5786     5.5897    -999.25     0.0625     0.0158     0.0158 21211.9180     2.5144     2.2351     2.2351     4.9955  -197.9313     1.0000     1.0000     1.0000 -1546.5256    87.1340     0.0158    23.0000
  1633.9196  6485.1772 6485177.5000    -999.25     8.9195     8.9195     2.0088     2.6575   118.5368     0.0000    -999.25    83.7772     2.1257     2.1691  1633.9196     0.5816     5.6249    -999.25     0.0623     0.0159     0.0159 21276.8281     2.5221     2.2632     2.2632     5.1264  -197.9318     1.0000     1.0000     1.0000 -1546.5496    86.5965     0.0159    23.0000
  1634.0480  6687.3403 6687472.0000    -999.25     8.9677     8.9677     2.0331     2.8800   116.8254     0.0000    -999.25    77.9983     2.2838     2.3188  1634.0480     0.5978     5.8159    -999.25     0.0614     0.0166     0.0166 21940.5254     2.5632     2.4138     2.4138     5.8265  -197.9314     1.0000     1.0000     1.0000 -1546.6780    83.7210     0.0166    23.0000
  1634.0720  6725.2837 6725284.0000    -999.25     8.9741     8.9741     2.0376     2.9145   116.5055     0.0000    -999.25    76.9093     2.3109     2.3450  1634.0720     0.5939     5.8516    -999.25     0.0612     0.0172     0.0172 22064.5801     2.5706     2.4420     2.4420     5.9674  -197.9313     1.0000     1.0000     1.0000 -1546.7020    82.7243     0.0172    23.0000
  1634.2004  6970.9844 6968603.5000    -999.25     9.0085     9.0085     2.0442     3.0991   114.1501     0.0000    -999.25    71.0834     2.4558     2.4851  1634.2004     0.5733     6.0122    -999.25     0.0603     0.0205     0.0205 22862.8730     2.6107     2.5925     2.5925     6.7211  -197.9218     1.0000     1.0000     1.0000 -1546.8304    77.3920     0.0205    23.0000
  1634.2244  7014.0835 7014083.5000    -999.25     9.0104     9.0104     2.0454     3.1435   113.7098     0.0000    -999.25    70.1415     2.4851     2.5141  1634.2244     0.5687     6.0422    -999.25     0.0601     0.0210     0.0210 23012.0859     2.6167     2.6189     2.6189     6.8622  -197.9200     1.0000     1.0000     1.0000 -1546.8544    76.8512     0.0210    23.0000
  1634.3528  7219.5571 7208048.0000    -999.25     9.0206     9.0206     2.0211     3.3815   111.8309     0.0000    -999.25    65.1026     2.6418     2.6690  1634.3528     0.5440     6.1626    -999.25     0.0591     0.0237     0.0237 23648.4512     2.6489     2.7600     2.7600     7.6175  -197.9200     1.0000     1.0000     1.0000 -1546.9828    73.9580     0.0237    23.0000
  1634.3768  7244.3032 7244303.0000    -999.25     9.0215     9.0215     2.0166     3.4526   111.4797     0.0000    -999.25    64.3427     2.6683     2.6966  1634.3768     0.5428     6.1851    -999.25     0.0590     0.0237     0.0237 23767.3984     2.6496     2.7701     2.7701     7.6739  -197.9200     1.0000     1.0000     1.0000 -1547.0068    73.9840     0.0237    23.0000
  1634.5052  7270.8452 7258857.5000    -999.25     9.0262     9.0262     1.9896     3.8331   111.2370     0.0000    -999.25    60.2775     2.8102     2.8438  1634.5052     0.5365     6.1464    -999.25     0.0580     0.0238     0.0238 23815.1484     2.6535     2.8241     2.8241     7.9757  -197.9232     1.0000     1.0000     1.0000 -1547.1353    74.1230     0.0238    23.0000
  1634.5292  7261.5781 7261578.0000    -999.25     9.0264     9.0264     1.9846     3.8847   111.1916     0.0000    -999.25    60.0175     2.8133     2.8506  1634.5292     0.5368     6.1392    -999.25     0.0579     0.0240     0.0240 23824.0742     2.6490     2.8091     2.8091     7.8923  -197.9238     1.0000     1.0000     1.0000 -1547.1592    74.3665     0.0240    23.0000
  1634.6576  7106.7520 7099108.5000    -999.25     9.0277     9.0277     1.8834     4.1609   112.5899     0.0000    -999.25    58.6267     2.8302     2.8872  1634.6576     0.5381     5.9849    -999.25     0.0569     0.0250     0.0250 23291.0391     2.6252     2.7287     2.7287     7.4457  -197.9363     1.0000     1.0000     1.0000 -1547.2876    75.6690     0.0250    23.0000
  1634.6816  7068.7402 7068740.5000    -999.25     9.0276     9.0276     1.8645     4.1210   112.8513     0.0000    -999.25    58.9183     2.8077     2.8674  1634.6816     0.5385     5.9560    -999.25     0.0568     0.0251     0.0251 23191.4062     2.6172     2.6995     2.6995     7.2918  -197.9387     1.0000     1.0000     1.0000 -1547.3116    76.2503     0.0251    23.0000
  1634.8100  6792.3179 6789861.0000    -999.25     9.0274     9.0274     1.8921     3.9075   115.5282     0.0000    -999.25    60.4780     2.6874     2.7614  1634.8099     0.5408     5.7086    -999.25     0.0558     0.0256     0.0256 22276.4473     2.5745     2.5433     2.5433     6.4684  -197.9437     1.0000     1.0000     1.0000 -1547.4399    79.3600     0.0256    23.0000
  1634.8340  6737.7339 6737734.0000    -999.25     9.0275     9.0275     1.8972     3.8339   116.0286     0.0000    -999.25    60.9886     2.6568     2.7309  1634.8340     0.5453     5.6623    -999.25     0.0557     0.0257     0.0257 22105.4258     2.5649     2.5113     2.5113     6.3120  -197.9446     1.0000     1.0000     1.0000 -1547.4640    79.8457     0.0257    23.0000
  1634.9624  6421.0190 6430309.0000    -999.25     9.0279     9.0279     2.0149     3.4397   119.3065     0.0000    -999.25    63.7203     2.4932     2.5679  1634.9624     0.5696     5.3896    -999.25     0.0547     0.0267     0.0267 21096.8145     2.5134     2.3399     2.3399     5.4753  -197.9407     1.0000     1.0000     1.0000 -1547.5924    82.4440     0.0267    23.0000
  1634.9865  6372.6074 6372607.0000    -999.25     9.0271     9.0271     2.0370     3.3836   119.9217     0.0000    -999.25    64.3852     2.4603     2.5343  1634.9865     0.5695     5.3384    -999.25     0.0545     0.0272     0.0272 20907.5039     2.5073     2.3105     2.3105     5.3429  -197.9400     1.0000     1.0000     1.0000 -1547.6165    82.3641     0.0272    23.0000
  1635.1148  6156.8696 6167837.0000    -999.25     9.0230     9.0230     2.0840     3.0849   122.5196     0.0000    -999.25    67.9251     2.2851     2.3557  1635.1147     0.5689     5.2002    -999.25     0.0536     0.0301     0.0301 20235.6875     2.4749     2.1535     2.1535     4.6378  -197.9423     1.0000     1.0000     1.0000 -1547.7448    81.9390     0.0301    23.0000
  1635.1388  6129.5327 6129532.5000    -999.25     9.0228     9.0228     2.0928     3.0321   123.0056     0.0000    -999.25    68.5169     2.2561     2.3260  1635.1388     0.5669     5.1744    -999.25     0.0534     0.0302     0.0302 20110.0156     2.4736     2.1382     2.1382     4.5733  -197.9427     1.0000     1.0000     1.0000 -1547.7688    81.8332     0.0302    23.0000
  1635.2672  6062.4561 6071515.0000    -999.25     9.0220     9.0220     2.1429     2.7495   124.0395     0.0000    -999.25    71.6829     2.1013     2.1673  1635.2672     0.5563     5.1892    -999.25     0.0525     0.0309     0.0309 19919.6680     2.4671     2.0563     2.0563     4.2285  -197.9510     1.0000     1.0000     1.0000 -1547.8972    81.2670     0.0309    23.0000
  1635.2913  6060.6255 6060625.5000    -999.25     9.0220     9.0220     2.1523     2.7023   124.2336     0.0000    -999.25    71.8604     2.0915     2.1561  1635.2913     0.5550     5.1920    -999.25     0.0523     0.0305     0.0305 19883.9414     2.4703     2.0626     2.0626     4.2545  -197.9525     1.0000     1.0000     1.0000 -1547.9213    81.2162     0.0305    23.0000
  1635.4196  6136.1582 6141069.5000    -999.25     9.0220     9.0220     2.1891     2.4508   123.5277     0.0000    -999.25    72.8052     2.0391     2.0961  1635.4196     0.5483     5.3569    -999.25     0.0514     0.0281     0.0281 20147.8652     2.4868     2.0959     2.0959     4.3929  -197.9529     1.0000     1.0000     1.0000 -1548.0496    80.9460     0.0281    23.0000
  1635.4436  6156.1177 6156117.5000    -999.25     9.0211     9.0211     2.1960     2.4547   123.3957     0.0000    -999.25    72.7151     2.0517     2.1070  1635.4436     0.5489     5.3877    -999.25     0.0512     0.0280     0.0280 20197.2363     2.4923     2.1163     2.1163     4.4808  -197.9530     1.0000     1.0000     1.0000 -1548.0736    80.5687     0.0280    23.0000
