~Version ---------------------------------------------------
VERS. 2.0 : CWLS log ASCII Standard -VERSION 2.0
WRAP.  NO : 
~Well ------------------------------------------------------
STRT.m                                                   1300.0 : 
STOP.m                                                1481.9656 : 
STEP.m                                                   0.1524 : 
NULL.                                                   -999.25 : 
COMP.                                                           : COMPANY
WELL.                                                    Well-3 : WELL
FLD .                                                           : FIELD
LOC .                                                           : LOCATION
SRVC.                                                           : SERVICE COMPANY
DATE. 2021-01-20 14:34:00   : Log Export Date {yyyy-MM-dd HH:mm : ss}
PROV.                                                           : PROVINCE
UWI .                                                    Well-3 : UNIQUE WELL ID
API .                                                           : API NUMBER
~Curve Information -----------------------------------------
DEPTH             .m        : DEPTH
ACOUSTICIMPEDANCE1.kPa.s/m  : ACOUSTICIMPEDANCE1
AI                .kPa.s/m  : AI
AVG_PIGN          .m3/m3    : AVG_PIGN
BS                .in       : BS
CALI              .in       : CALI
CALI[DERIVED]1    .in       : CALI[DERIVED]1
CALI1             .in       : CALI1
DEVI              .deg      : DEVI
DFL               .ohm.m    : DFL
DT                .us/ft    : DT
DT1               .us/ft    : DT1
FACIES            ._        : FACIES
FLD1              ._        : FLD1
GR                .gAPI     : GR
HDRS              .ohm.m    : HDRS
HMRS              .ohm.m    : HMRS
DEPTH_1           .m        : DEPTH_1
NPHI              .m3/m3    : NPHI
PERF_INT          ._        : PERF_INT
PERMEABILITY      .mD       : PERMEABILITY
PIGN              .m3/m3    : PIGN
PIGN_MODELLING    .m3/m3    : PIGN_MODELLING
PIMP              .kPa.s/m  : PIMP
RHOB              .g/cm3    : RHOB
RT_MODELLING      .ohm.m    : RT_MODELLING
RT_POWER          .ohm.m    : RT_POWER
SP                .mV       : SP
SUWI              ._        : SUWI
SUWI_MODELLING    ._        : SUWI_MODELLING
TDVSS             .m        : TDVSS
VCL               .%        : VCL
WATER_VOL         ._        : WATER_VOL
ZLT               ._        : ZLT
~Params ----------------------------------------------------
~Other -----------------------------------------------------
~ASCII -----------------------------------------------------
# ...
  1444.1704  5512.3281 5513796.0000    -999.25     8.5000     8.6171     8.6171     8.6171     0.1372     2.0763   137.8568   137.8564     0.0000    -999.25    83.5459     1.8592     1.8853  1444.1704     0.5532    -999.25     0.0063     0.1129     0.1129 18089.8809     2.4931     2.0763     4.3110   334.9394     1.0000     1.0000 -1368.0104    51.0390     0.1129    10.0000
  1444.1970  5506.4009 5506400.5000    -999.25     8.5000     8.6128     8.6128     8.6150     0.1322     2.0954   138.7083   138.3367     0.0000    -999.25    82.1866     1.8987     1.9250  1444.1970     0.5526    -999.25     0.0064     0.1077     0.1077 18065.6191     2.5059     2.0954     4.3923   334.8082     1.0000     1.0000 -1368.0370    50.7489     0.1077    10.0000
  1444.3228  5562.1914 5562587.0000    -999.25     8.5000     8.6049     8.6049     8.6049     0.1395     2.1856   140.6087   140.6085     0.0000    -999.25    75.7580     2.0854     2.1130  1444.3228     0.5497    -999.25     0.0067     0.0835     0.0835 18249.9570     2.5659     2.1856     4.7770   334.1877     1.0000     1.0000 -1368.1627    49.3770     0.0835    10.0000
  1444.3494  5574.4673 5574467.5000    -999.25     8.5000     8.6032     8.6032     8.6046     0.1410     2.3170   141.0105   139.9123     0.0000    -999.25    74.3824     2.1521     2.1770  1444.3494     0.5491    -999.25     0.0092     0.0801     0.0801 18288.9355     2.5789     2.3170     5.4502   334.2068     1.0000     1.0000 -1368.1893    49.1038     0.0801    10.0000
  1444.4752  5890.9229 5885586.5000    -999.25     8.5000     8.6031     8.6031     8.6031     0.1074     2.9384   136.6196   136.6200     0.0000    -999.25    67.8769     2.4679     2.4800  1444.4751     0.5460    -999.25     0.0212     0.0641     0.0641 19309.6680     2.6405     2.9384     8.6343   334.2974     1.0000     1.0000 -1368.3152    47.8120     0.0641    10.0000
  1444.5018  5951.3716 5951371.5000    -999.25     8.5000     8.6031     8.6031     8.6014     0.1003     3.1354   135.6911   135.0929     0.0000    -999.25    67.0236     2.5161     2.5254  1444.5017     0.5454    -999.25     0.0263     0.0648     0.0648 19525.4980     2.6494     3.1354    10.0144   334.4871     1.0000     1.0000 -1368.3418    47.6174     0.0648    10.0000
  1444.6276  6416.4839 6395527.0000    -999.25     8.5000     8.5930     8.5930     8.5930     0.0977     4.0671   127.8695   127.8704     0.0000    -999.25    62.9880     2.7441     2.7400  1444.6276     0.5427    -999.25     0.0505     0.0679     0.0679 20982.6992     2.6918     4.0671    16.5413   335.3844     1.0000     1.0000 -1368.4675    46.6970     0.0679    10.0000
  1444.6542  6489.4424 6489442.0000    -999.25     8.5000     8.5909     8.5909     8.5835     0.0971     4.1170   126.2157   127.1544     0.0000    -999.25    62.8558     2.7368     2.7350  1444.6542     0.5417    -999.25     0.0509     0.0708     0.0708 21290.8203     2.6872     4.1170    16.9616   335.7050     0.9996     0.9996 -1368.4941    47.2747     0.0708    10.0000
  1444.7800  6564.1553 6569233.0000    -999.25     8.5000     8.5384     8.5384     8.5384     0.0826     4.3531   123.7680   123.7682     0.0000    -999.25    62.2303     2.7022     2.7118  1444.7799     0.5368    -999.25     0.0530     0.0846     0.0846 21552.6016     2.6655     4.3531    18.9493   337.2215     0.9978     0.9978 -1368.6200    50.0070     0.0844    10.0000
  1444.8066  6586.1045 6586104.5000    -999.25     8.5000     8.5273     8.5273     8.5261     0.0795     4.2113   123.2504   124.7390     0.0000    -999.25    62.5618     2.6430     2.6593  1444.8065     0.5348    -999.25     0.0527     0.0892     0.0892 21607.9551     2.6632     4.2113    17.8302   337.5280     0.9961     0.9961 -1368.6466    52.3046     0.0888    10.0000
  1444.9324  6251.1489 6264791.0000    -999.25     8.5000     8.4679     8.4679     8.4680     0.0842     3.5408   129.3309   129.3302     0.0000    -999.25    64.1297     2.3630     2.4113  1444.9324     0.5255    -999.25     0.0513     0.1107     0.1107 20553.7754     2.6524     3.5408    12.5374   338.9774     0.9885     0.9885 -1368.7723    63.1710     0.1095    10.0000
  1444.9590  6196.8501 6196850.5000    -999.25     8.5000     8.4554     8.4554     8.4589     0.0852     3.3800   130.6166   130.3888     0.0000    -999.25    64.3842     2.3153     2.3694  1444.9590     0.5222    -999.25     0.0471     0.1121     0.1121 20330.8730     2.6555     3.3800    11.5466   339.1831     0.9893     0.9893 -1368.7990    64.3835     0.1109    10.0000
  1445.0848  6011.2505 6011486.5000    -999.25     8.5000     8.4158     8.4158     8.4158     0.0873     2.6193   135.3928   135.3954     0.0000    -999.25    65.5882     2.0900     2.1711  1445.0847     0.5066    -999.25     0.0276     0.1185     0.1185 19722.7246     2.6702     2.6193     6.8610   340.1560     0.9931     0.9931 -1368.9248    70.1180     0.1176    10.0000
  1445.1115  5972.1445 5972144.5000    -999.25     8.5000     8.4074     8.4074     8.4146     0.0877     2.6247   136.4065   134.7762     0.0000    -999.25    65.6235     2.0763     2.1633  1445.1115     0.5031    -999.25     0.0232     0.1158     0.1158 19593.6504     2.6727     2.6247     6.8890   340.2370     0.9943     0.9943 -1368.9515    70.3615     0.1151    10.0000
  1445.2372  6205.1113 6218868.5000    -999.25     8.5000     8.4089     8.4089     8.4089     0.1000     2.6497   131.8613   131.8612     0.0000    -999.25    65.7898     2.0120     2.1267  1445.2372     0.4866    -999.25     0.0024     0.1032     0.1032 20403.1113     2.6844     2.6497     7.0208   340.6182     1.0000     1.0000 -1369.0771    71.5080     0.1032    10.0000
  1445.2638  6271.0791 6271079.0000    -999.25     8.5000     8.4092     8.4092     8.4109     0.1026     2.7221   130.8995   129.9473     0.0000    -999.25    65.6179     2.0171     2.1355  1445.2638     0.4844    -999.25     0.0033     0.1002     0.1002 20574.4062     2.6932     2.7221     7.4348   340.6308     1.0000     1.0000 -1369.1038    72.0381     0.1002    10.0000
  1445.3896  6893.9966 6906545.0000    -999.25     8.5000     8.4204     8.4204     8.4204     0.1187     3.0647   120.9014   120.8960     0.0000    -999.25    64.8048     2.0408     2.1773  1445.3895     0.4744    -999.25     0.0075     0.0863     0.0863 22659.2695     2.7346     3.0647     9.3924   340.6906     1.0000     1.0000 -1369.2296    74.5450     0.0863    10.0000
  1445.4163  7041.4175 7041417.5000    -999.25     8.5000     8.4228     8.4228     8.4226     0.1221     3.1170   118.7794   118.8338     0.0000    -999.25    64.4028     2.0416     2.1790  1445.4163     0.4739    -999.25     0.0098     0.0838     0.0838 23101.7637     2.7440     3.1170     9.7284   340.6805     1.0000     1.0000 -1369.2563    75.1564     0.0838    10.0000
  1445.5420  7788.6372 7798734.5000    -999.25     8.5000     8.4330     8.4330     8.4330     0.1378     3.3631   109.1258   109.1255     0.0000    -999.25    62.5100     2.0450     2.1872  1445.5420     0.4715    -999.25     0.0208     0.0723     0.0723 25586.4004     2.7885     3.3631    11.3102   340.6333     1.0000     1.0000 -1369.3820    78.0350     0.0723    10.0000
  1445.5686  7958.9941 7958994.0000    -999.25     8.5000     8.4352     8.4352     8.4327     0.1411     3.3118   107.0829   107.3570     0.0000    -999.25    62.2928     2.0444     2.1847  1445.5686     0.4721    -999.25     0.0210     0.0692     0.0692 26112.1855     2.7962     3.3118    10.9806   340.6480     1.0000     1.0000 -1369.4086    78.8562     0.0692    10.0000
  1445.6944  8720.4043 8745320.0000    -999.25     8.5000     8.4313     8.4313     8.4313     0.1582     3.0694    98.9974    98.9930     0.0000    -999.25    61.2657     2.0412     2.1726  1445.6943     0.4754    -999.25     0.0223     0.0542     0.0542 28691.9941     2.8323     3.0694     9.4214   340.7176     1.0000     1.0000 -1369.5343    82.7400     0.0542    10.0000
  1445.7211  8912.2109 8912211.0000    -999.25     8.5000     8.4305     8.4305     8.4255     0.1618     3.0502    97.2813    97.3773     0.0000    -999.25    61.3642     2.0454     2.1736  1445.7211     0.4764    -999.25     0.0214     0.0511     0.0511 29239.5371     2.8445     3.0502     9.3052   340.7202     1.0000     1.0000 -1369.5610    83.4818     0.0511    10.0000
