~Version ---------------------------------------------------
VERS. 2.0 : CWLS log ASCII Standard -VERSION 2.0
WRAP.  NO : 
~Well ------------------------------------------------------
STRT.m                                                   1300.0 : 
STOP.m                                                 1514.884 : 
STEP.m                                                   0.1524 : 
NULL.                                                   -999.25 : 
COMP.                                                           : COMPANY
WELL.                                                    Well-2 : WELL
FLD .                                                           : FIELD
LOC .                                                           : LOCATION
SRVC.                                                           : SERVICE COMPANY
DATE. 2021-01-20 14:33:59   : Log Export Date {yyyy-MM-dd HH:mm : ss}
PROV.                                                           : PROVINCE
UWI .                                                    Well-2 : UNIQUE WELL ID
API .                                                           : API NUMBER
~Curve Information -----------------------------------------
DEPTH             .m        : DEPTH
ACOUSTICIMPEDANCE1.kPa.s/m  : ACOUSTICIMPEDANCE1
AI                .kPa.s/m  : AI
AVG_PIGN          .m3/m3    : AVG_PIGN
CALI              .in       : CALI
CALI[DERIVED]1    .in       : CALI[DERIVED]1
DT                .us/ft    : DT
FACIES            ._        : FACIES
FLD1              ._        : FLD1
GR                .gAPI     : GR
LLD               .ohm.m    : LLD
LLS               .ohm.m    : LLS
LL3               .ohm.m    : LL3
DEPTH_1           .m        : DEPTH_1
NPHI              .m3/m3    : NPHI
PERF_INT          ._        : PERF_INT
PERMEABILITY      .mD       : PERMEABILITY
PIGN              .m3/m3    : PIGN
PIGN_MODELLING    .m3/m3    : PIGN_MODELLING
PIMP              .kPa.s/m  : PIMP
RHOB              .g/cm3    : RHOB
RT_MODELLING      .ohm.m    : RT_MODELLING
RT_POWER          .ohm.m    : RT_POWER
SP                .mV       : SP
SUWI              ._        : SUWI
SUWI_MODELLING    ._        : SUWI_MODELLING
TDVSS             .m        : TDVSS
VCL               .%        : VCL
WATER_VOL         ._        : WATER_VOL
ZLT               ._        : ZLT
~Params ----------------------------------------------------
~Other -----------------------------------------------------
~ASCII -----------------------------------------------------
# ...
  1341.9100  5879.9004 5879062.0000    -999.25     9.9472     9.9472   122.9765     0.0000    -999.25    71.0006     1.2700     1.3396     1.5592  1341.9099     0.4791    -999.25    -999.25     0.0349     0.0349 19288.2617     2.3723     1.2700     1.6130    49.6326     1.0000     1.0000 -1265.9099    72.6290     0.0349     0.0000
  1342.0344  5848.3721 5848372.0000    -999.25     9.9448     9.9448   123.4050     0.0000    -999.25    71.5918     1.2804     1.3481     1.5805  1342.0344     0.4908    -999.25    -999.25     0.0334     0.0334 19187.5723     2.3678     1.2804     1.6395    49.4990     1.0000     1.0000 -1266.0344    74.3056     0.0334     0.0000
  1342.0624  5831.8838 5832236.5000    -999.25     9.9443     9.9443   123.7010     0.0000    -999.25    71.7248     1.2828     1.3500     1.5853  1342.0624     0.4934    -999.25    -999.25     0.0330     0.0330 19134.6348     2.3668     1.2828     1.6455    49.4689     1.0000     1.0000 -1266.0624    74.6830     0.0330     0.0000
  1342.1868  5760.5493 5760549.5000    -999.25     9.9606     9.9606   125.0160     0.0000    -999.25    73.5749     1.2872     1.3449     1.5608  1342.1868     0.5196    -999.25    -999.25     0.0284     0.0284 18899.4395     2.3627     1.2872     1.6570    49.5754     1.0000     1.0000 -1266.1868    78.2248     0.0284     0.0000
  1342.2148  5737.1543 5738068.0000    -999.25     9.9642     9.9642   125.4768     0.0000    -999.25    73.9913     1.2882     1.3437     1.5553  1342.2147     0.5254    -999.25    -999.25     0.0274     0.0274 18825.6816     2.3618     1.2882     1.6596    49.5994     1.0000     1.0000 -1266.2147    79.0220     0.0274     0.0000
  1342.3392  5638.1851 5638185.0000    -999.25     9.9989     9.9989   127.5240     0.0000    -999.25    75.5159     1.2834     1.3270     1.5025  1342.3392     0.5607    -999.25    -999.25     0.0233     0.0233 18497.9824     2.3589     1.2834     1.6472    49.9219     1.0000     1.0000 -1266.3392    82.1247     0.0233     0.0000
  1342.3672  5612.3174 5612954.5000    -999.25    10.0068    10.0068   128.0766     0.0000    -999.25    75.8591     1.2823     1.3233     1.4906  1342.3672     0.5686    -999.25    -999.25     0.0224     0.0224 18415.2051     2.3583     1.2823     1.6444    49.9945     1.0000     1.0000 -1266.3672    82.8230     0.0224     0.0000
  1342.4916  5500.8579 5500858.0000    -999.25    10.0592    10.0592   130.5320     0.0000    -999.25    76.3971     1.2696     1.2992     1.4345  1342.4916     0.5977    -999.25    -999.25     0.0224     0.0224 18047.4355     2.3558     1.2696     1.6119    50.4509     1.0000     1.0000 -1266.4916    82.8230     0.0224     0.0000
  1342.5196  5478.6963 5478555.5000    -999.25    10.0710    10.0710   131.0284     0.0000    -999.25    76.5182     1.2667     1.2937     1.4219  1342.5195     0.6043    -999.25    -999.25     0.0224     0.0224 17974.2637     2.3552     1.2667     1.6046    50.5536     1.0000     1.0000 -1266.5195    82.8230     0.0224     0.0000
  1342.6440  5379.4673 5379467.5000    -999.25    10.1374    10.1374   133.2340     0.0000    -999.25    76.1680     1.2506     1.2680     1.3711  1342.6440     0.6184    -999.25    -999.25     0.0224     0.0224 17649.1699     2.3515     1.2506     1.5642    51.0990     1.0000     1.0000 -1266.6440    82.8230     0.0224     0.0000
  1342.6720  5362.3208 5361987.0000    -999.25    10.1524    10.1524   133.6123     0.0000    -999.25    76.0892     1.2470     1.2622     1.3597  1342.6720     0.6216    -999.25    -999.25     0.0224     0.0224 17591.8203     2.3506     1.2470     1.5551    51.2218     1.0000     1.0000 -1266.6720    82.8230     0.0224     0.0000
  1342.7964  5284.3232 5284323.5000    -999.25    10.2037    10.2037   135.2930     0.0000    -999.25    75.7194     1.2329     1.2405     1.3184  1342.7964     0.6289    -999.25    -999.25     0.0224     0.0224 17337.0195     2.3456     1.2329     1.5201    51.7562     1.0000     1.0000 -1266.7964    82.8230     0.0224     0.0000
  1342.8244  5271.2812 5271164.5000    -999.25    10.2153    10.2153   135.5620     0.0000    -999.25    75.6362     1.2298     1.2356     1.3092  1342.8243     0.6305    -999.25    -999.25     0.0224     0.0224 17293.8477     2.3444     1.2298     1.5123    51.8765     1.0000     1.0000 -1266.8243    82.8230     0.0224     0.0000
  1342.9489  5212.6553 5212655.0000    -999.25    10.2554    10.2554   136.7580     0.0000    -999.25    74.7786     1.2225     1.2224     1.2926  1342.9490     0.6393    -999.25    -999.25     0.0224     0.0224 17101.8867     2.3388     1.2225     1.4945    52.2929     1.0000     1.0000 -1266.9490    82.8230     0.0224     0.0000
  1342.9768  5205.8174 5205953.5000    -999.25    10.2644    10.2644   136.8639     0.0000    -999.25    74.5864     1.2209     1.2194     1.2889  1342.9768     0.6413    -999.25    -999.25     0.0224     0.0224 17079.9004     2.3376     1.2209     1.4906    52.3862     1.0000     1.0000 -1266.9768    82.8230     0.0224     0.0000
  1343.1012  5176.0732 5176073.5000    -999.25    10.2752    10.2752   137.3360     0.0000    -999.25    73.1966     1.2237     1.2179     1.2859  1343.1012     0.6444    -999.25    -999.25     0.0224     0.0224 16981.8672     2.3322     1.2237     1.4974    52.6381     1.0000     1.0000 -1267.1012    82.8230     0.0224     0.0000
  1343.1292  5174.9419 5175941.5000    -999.25    10.2776    10.2776   137.2952     0.0000    -999.25    72.8838     1.2243     1.2175     1.2853  1343.1292     0.6450    -999.25    -999.25     0.0224     0.0224 16981.4336     2.3310     1.2243     1.4989    52.6948     1.0000     1.0000 -1267.1291    82.8230     0.0224     0.0000
  1343.2537  5175.3535 5175353.5000    -999.25    10.2572    10.2572   137.1140     0.0000    -999.25    71.9504     1.2384     1.2301     1.2936  1343.2537     0.6346    -999.25    -999.25     0.0224     0.0224 16979.5078     2.3281     1.2384     1.5338    52.6824     1.0000     1.0000 -1267.2537    82.8230     0.0224     0.0000
  1343.2816  5182.3813 5184559.0000    -999.25    10.2526    10.2526   136.8900     0.0000    -999.25    71.7413     1.2416     1.2329     1.2955  1343.2815     0.6323    -999.25    -999.25     0.0224     0.0224 17009.7090     2.3275     1.2416     1.5416    52.6797     1.0000     1.0000 -1267.2815    82.8230     0.0224     0.0000
  1343.4060  5225.6045 5225604.5000    -999.25    10.2188    10.2188   135.8910     0.0000    -999.25    71.9563     1.2668     1.2609     1.3186  1343.4060     0.6135    -999.25    -999.25     0.0224     0.0224 17144.3711     2.3298     1.2668     1.6050    52.4557     1.0000     1.0000 -1267.4060    82.8230     0.0224     0.0000
  1343.4340  5243.9043 5246840.5000    -999.25    10.2112    10.2112   135.4467     0.0000    -999.25    72.0046     1.2725     1.2671     1.3238  1343.4340     0.6092    -999.25    -999.25     0.0224     0.0224 17214.0430     2.3303     1.2725     1.6192    52.4053     1.0000     1.0000 -1267.4340    82.8230     0.0224     0.0000
  1343.5585  5341.2632 5341263.5000    -999.25    10.1641    10.1641   133.4710     0.0000    -999.25    73.0554     1.3062     1.3098     1.3699  1343.5585     0.5898    -999.25    -999.25     0.0224     0.0224 17523.8301     2.3389     1.3062     1.7064    51.9997     1.0000     1.0000 -1267.5585    82.8189     0.0224     0.0000
  1343.5864  5369.6978 5372442.5000    -999.25    10.1536    10.1536   132.8742     0.0000    -999.25    73.2909     1.3138     1.3194     1.3802  1343.5863     0.5854    -999.25    -999.25     0.0224     0.0224 17626.1230     2.3409     1.3138     1.7259    51.9088     1.0000     1.0000 -1267.5863    82.8180     0.0224     0.0000
  1343.7108  5511.4624 5511462.5000    -999.25    10.0925    10.0925   130.2130     0.0000    -999.25    74.0750     1.3521     1.3734     1.4471  1343.7108     0.5685    -999.25    -999.25     0.0235     0.0235 18082.2266     2.3545     1.3521     1.8286    51.4054     1.0000     1.0000 -1267.7108    82.5805     0.0235     0.0000
  1343.7388  5547.3799 5548472.5000    -999.25    10.0788    10.0788   129.5391     0.0000    -999.25    74.2515     1.3608     1.3855     1.4622  1343.7388     0.5646    -999.25    -999.25     0.0237     0.0237 18203.6504     2.3576     1.3608     1.8517    51.2921     1.0000     1.0000 -1267.7388    82.5270     0.0237     0.0000
