~Version ---------------------------------------------------
VERS. 2.0 : CWLS log ASCII Standard -VERSION 2.0
WRAP.  NO : 
~Well ------------------------------------------------------
STRT.m                                                   1280.0 : 
STOP.m                                                 1564.988 : 
STEP.m                                                   0.1524 : 
NULL.                                                   -999.25 : 
COMP.                                                           : COMPANY
WELL.                                                   Well-11 : WELL
FLD .                                                           : FIELD
LOC .                                                           : LOCATION
SRVC.                                                           : SERVICE COMPANY
DATE. 2021-01-20 14:34:05   : Log Export Date {yyyy-MM-dd HH:mm : ss}
PROV.                                                           : PROVINCE
UWI .                                                   Well-11 : UNIQUE WELL ID
API .                                                           : API NUMBER
~Curve Information -----------------------------------------
DEPTH             .m        : DEPTH
ACOUSTICIMPEDANCE1.kPa.s/m  : ACOUSTICIMPEDANCE1
AI                .kPa.s/m  : AI
AVG_PIGN          .m3/m3    : AVG_PIGN
CALI              .in       : CALI
CALI[DERIVED]1    .in       : CALI[DERIVED]1
DFL               .ohm.m    : DFL
DT                .us/ft    : DT
DT1               .us/ft    : DT1
FACIES            ._        : FACIES
FLD1              ._        : FLD1
GR                .gAPI     : GR
HDRS              .ohm.m    : HDRS
HMRS              .ohm.m    : HMRS
DEPTH_1           .m        : DEPTH_1
NPHI              .m3/m3    : NPHI
PERF_INT          ._        : PERF_INT
PERMEABILITY      .mD       : PERMEABILITY
PIGN              .m3/m3    : PIGN
PIGN_MODELLING    .m3/m3    : PIGN_MODELLING
PIMP              .kPa.s/m  : PIMP
RHOB              .g/cm3    : RHOB
LLD               .ohm.m    : LLD
RT_MODELLING      .ohm.m    : RT_MODELLING
RT_POWER          .ohm.m    : RT_POWER
SP                .mV       : SP
SUWI              ._        : SUWI
SUWI_MODELLING    ._        : SUWI_MODELLING
SXWI              ._        : SXWI
TDVSS             .m        : TDVSS
VCL               .%        : VCL
WATER_VOL         ._        : WATER_VOL
ZLT               ._        : ZLT
~Params ----------------------------------------------------
~Other -----------------------------------------------------
~ASCII -----------------------------------------------------
# ...
  1449.3164  5500.4453 5518479.5000    -999.25     9.3210     9.3210     4.3327   126.9877   126.9895     0.0000    -999.25   110.1673     2.9940     2.9634  1449.3164     0.5099    -999.25     0.1095     0.0375     0.0375 18105.2480     2.2916     2.9635     2.9635     8.7823   136.2782     1.0000     1.0000     1.0000 -1369.1964    77.4810     0.0375    13.0000
  1449.3361  5491.4238 5491424.0000    -999.25     9.3445     9.3445     4.2786   127.4876   127.1193     0.0000    -999.25   109.7454     2.9685     2.9409  1449.3361     0.5074    -999.25     0.1088     0.0382     0.0382 18016.4824     2.2969     2.9388     2.9388     8.6406   136.2913     1.0000     1.0000     1.0000 -1369.2161    77.0790     0.0382    13.0000
  1449.4688  5553.9214 5578073.5000    -999.25     9.5032     9.5032     3.9148   127.9931   127.9931     0.0000    -999.25   106.9040     2.7970     2.7900  1449.4689     0.4907    -999.25     0.1042     0.0427     0.0427 18300.7676     2.3322     2.7724     2.7724     7.6862   136.3799     1.0000     1.0000     1.0000 -1369.3489    74.3710     0.0427    13.0000
  1449.4884  5590.8721 5590872.0000    -999.25     9.4903     9.4903     3.8740   128.0678   127.9794     0.0000    -999.25   105.9074     2.7740     2.7643  1449.4884     0.4891    -999.25     0.1035     0.0414     0.0414 18342.7559     2.3491     2.7497     2.7497     7.5643   136.4047     1.0000     1.0000     1.0000 -1369.3684    74.4801     0.0414    13.0000
  1449.6212  5871.4917 5872184.0000    -999.25     9.4030     9.4030     3.5973   127.8864   127.8863     0.0000    -999.25    99.1551     2.6185     2.5901  1449.6212     0.4780    -999.25     0.0988     0.0323     0.0323 19265.6953     2.4635     2.5958     2.5958     6.7382   136.5726     1.0000     1.0000     1.0000 -1369.5012    75.2190     0.0323    13.0000
  1449.6409  5913.9146 5913914.5000    -999.25     9.3789     9.3789     3.6023   127.8595   127.6981     0.0000    -999.25    98.1615     2.6189     2.5869  1449.6409     0.4781    -999.25     0.0981     0.0331     0.0331 19402.6074     2.4808     2.5996     2.5996     6.7582   136.5723     1.0000     1.0000     1.0000 -1369.5209    74.6320     0.0331    13.0000
  1449.7736  6261.3345 6228604.5000    -999.25     9.2168     9.2168     3.6358   126.4305   126.4305     0.0000    -999.25    91.4683     2.6216     2.5652  1449.7737     0.4789    -999.25     0.0935     0.0382     0.0382 20435.0527     2.5972     2.6254     2.6254     6.8927   136.5699     1.0000     1.0000     1.0000 -1369.6537    70.6780     0.0382    14.0000
  1449.7932  6275.0845 6275084.5000    -999.25     9.2167     9.2167     3.6604   126.2194   125.8095     0.0000    -999.25    90.6740     2.6638     2.6036  1449.7932     0.4804    -999.25     0.0933     0.0382     0.0382 20587.5469     2.5985     2.6733     2.6733     7.1620   136.5580     1.0000     1.0000     1.0000 -1369.6732    70.7291     0.0382    14.0000
  1449.9260  6536.4341 6509155.5000    -999.25     9.2164     9.2164     3.8272   121.6018   121.6023     0.0000    -999.25    85.2926     2.9498     2.8634  1449.9260     0.4902    -999.25     0.0917     0.0377     0.0377 21355.4961     2.6077     2.9977     2.9977     8.9862   136.4776     1.0000     1.0000     1.0000 -1369.8060    71.0750     0.0377    14.0000
  1449.9456  6543.7021 6543702.0000    -999.25     9.2432     9.2432     3.9397   120.9203   120.6694     0.0000    -999.25    84.7970     2.9881     2.9003  1449.9456     0.4922    -999.25     0.0838     0.0372     0.0372 21468.8379     2.5960     3.0346     3.0346     9.2180   136.4742     1.0000     1.0000     1.0000 -1369.8256    71.5375     0.0372    14.0000
  1450.0784  6707.9448 6715911.5000    -999.25     9.4248     9.4248     4.7019   114.3477   114.3485     0.0000    -999.25    81.4395     3.2477     3.1505  1450.0785     0.5060    -999.25     0.0300     0.0337     0.0337 22033.8320     2.5165     3.2846     3.2846    10.7886   136.4508     1.0000     1.0000     1.0000 -1369.9584    74.6710     0.0337    14.0000
  1450.0980  6741.3281 6741328.0000    -999.25     9.4201     9.4201     4.7156   113.3777   113.6994     0.0000    -999.25    81.5351     3.2250     3.1320  1450.0980     0.5085    -999.25     0.0271     0.0338     0.0338 22117.2188     2.5076     3.2532     3.2532    10.5899   136.4491     1.0000     1.0000     1.0000 -1369.9779    75.2239     0.0338    14.0000
  1450.2308  6823.9966 6845150.5000    -999.25     9.3877     9.3877     4.8086   109.3015   109.3020     0.0000    -999.25    82.1831     3.0717     3.0070  1450.2308     0.5254    -999.25     0.0073     0.0351     0.0351 22457.8418     2.4471     3.0403     3.0403     9.2434   136.4372     1.0000     1.0000     1.0000 -1370.1108    78.9700     0.0351    14.0000
  1450.2504  6860.4731 6860473.5000    -999.25     9.3609     9.3609     4.7421   108.6999   109.2038     0.0000    -999.25    82.6920     3.0401     2.9781  1450.2504     0.5277    -999.25     0.0064     0.0342     0.0342 22508.1152     2.4466     3.0086     3.0086     9.0585   136.4307     1.0000     1.0000     1.0000 -1370.1304    79.4816     0.0342    14.0000
  1450.3832  6861.8965 6878297.0000    -999.25     9.1788     9.1788     4.2912   108.5388   108.5388     0.0000    -999.25    86.1402     2.8256     2.7819  1450.3832     0.5431    -999.25     0.0003     0.0284     0.0284 22566.5918     2.4435     2.7939     2.7939     7.8059   136.3866     1.0000     1.0000     1.0000 -1370.2632    82.9480     0.0284    14.0000
  1450.4028  6880.9277 6880927.5000    -999.25     9.1795     9.1795     4.2438   108.5150   108.8553     0.0000    -999.25    86.5317     2.8229     2.7789  1450.4027     0.5439    -999.25     0.0003     0.0271     0.0271 22575.2227     2.4498     2.7954     2.7954     7.8144   136.3794     1.0000     1.0000     1.0000 -1370.2827    83.3125     0.0271    14.0000
  1450.5356  6842.9834 6847605.0000    -999.25     9.1842     9.1842     3.9228   110.9999   110.9997     0.0000    -999.25    89.1848     2.8042     2.7582  1450.5356     0.5495    -999.25     0.0001     0.0185     0.0185 22465.8945     2.4920     2.8057     2.8057     7.8720   136.3310     1.0000     1.0000     1.0000 -1370.4156    85.7820     0.0185    14.0000
  1450.5552  6842.6870 6842687.0000    -999.25     9.1975     9.1975     3.8995   111.3667   111.0298     0.0000    -999.25    89.1019     2.8128     2.7647  1450.5552     0.5484    -999.25     0.0006     0.0194     0.0194 22449.7598     2.5002     2.8154     2.8154     7.9270   136.3234     1.0000     1.0000     1.0000 -1370.4352    85.1014     0.0194    14.0000
  1450.6880  7001.7085 6981477.5000    -999.25     9.2869     9.2869     3.7414   111.2340   111.2340     0.0000    -999.25    88.5402     2.8712     2.8090  1450.6880     0.5411    -999.25     0.0036     0.0255     0.0255 22905.1094     2.5552     2.8809     2.8809     8.2996   136.2721     1.0000     1.0000     1.0000 -1370.5680    80.4900     0.0255    14.0000
  1450.7076  7001.9614 7001961.5000    -999.25     9.2887     9.2887     3.7274   111.2144   110.6107     0.0000    -999.25    87.9554     2.8742     2.8110  1450.7075     0.5392    -999.25     0.0048     0.0259     0.0259 22972.3145     2.5549     2.8828     2.8828     8.3108   136.2763     1.0000     1.0000     1.0000 -1370.5875    80.1226     0.0259    14.0000
  1450.8404  7312.7129 7314839.5000    -999.25     9.3011     9.3011     3.6326   106.3874   106.3879     0.0000    -999.25    83.9931     2.8941     2.8248  1450.8405     0.5264    -999.25     0.0128     0.0292     0.0292 23998.8184     2.5524     2.8960     2.8960     8.3868   136.3051     1.0000     1.0000     1.0000 -1370.7205    77.6330     0.0292    14.0000
  1450.8600  7361.0176 7361017.5000    -999.25     9.3058     9.3058     3.6456   105.6750   105.7345     0.0000    -999.25    83.2722     2.9094     2.8407  1450.8600     0.5248    -999.25     0.0153     0.0297     0.0297 24150.3203     2.5521     2.9134     2.9134     8.4898   136.3028     1.0000     1.0000     1.0000 -1370.7400    77.2581     0.0297    14.0000
