~Version ---------------------------------------------------
VERS. 2.0 : CWLS log ASCII Standard -VERSION 2.0
WRAP.  NO : 
~Well ------------------------------------------------------
STRT.m                                                   1250.0 : 
STOP.m                                                1661.9372 : 
STEP.m                                                   0.1524 : 
NULL.                                                   -999.25 : 
COMP.                                                           : COMPANY
WELL.                                                    Well-7 : WELL
FLD .                                                           : FIELD
LOC .                                                           : LOCATION
SRVC.                                                           : SERVICE COMPANY
DATE. 2021-01-20 14:34:01   : Log Export Date {yyyy-MM-dd HH:mm : ss}
PROV.                                                           : PROVINCE
UWI .                                                    Well-7 : UNIQUE WELL ID
API .                                                           : API NUMBER
~Curve Information -----------------------------------------
DEPTH             .m        : DEPTH
ACOUSTICIMPEDANCE1.kPa.s/m  : ACOUSTICIMPEDANCE1
AI                .kPa.s/m  : AI
AVG_PIGN          .m3/m3    : AVG_PIGN
CALI              .in       : CALI
CALI[DERIVED]1    .in       : CALI[DERIVED]1
DEVI              .deg      : DEVI
DFL               .ohm.m    : DFL
DT                .us/ft    : DT
FACIES            ._        : FACIES
FLD1              ._        : FLD1
GR                .gAPI     : GR
HDRS              .ohm.m    : HDRS
HMRS              .ohm.m    : HMRS
DEPTH_1           .m        : DEPTH_1
NPHI              .m3/m3    : NPHI
PEF               .b/e      : PEF
PERF_INT          ._        : PERF_INT
PERMEABILITY      .mD       : PERMEABILITY
PIGN              .m3/m3    : PIGN
PIGN_MODELLING    .m3/m3    : PIGN_MODELLING
PIMP              .kPa.s/m  : PIMP
RHOB              .g/cm3    : RHOB
LLD               .ohm.m    : LLD
RT_MODELLING      .ohm.m    : RT_MODELLING
RT_POWER          .ohm.m    : RT_POWER
SP                .mV       : SP
SUWI              ._        : SUWI
SUWI_MODELLING    ._        : SUWI_MODELLING
SXWI              ._        : SXWI
TDVSS             .m        : TDVSS
VCL               .%        : VCL
WATER_VOL         ._        : WATER_VOL
ZLT               ._        : ZLT
~Params ----------------------------------------------------
~Other -----------------------------------------------------
~ASCII -----------------------------------------------------
  1250.0000  4757.4897    -999.25    -999.25     9.0971     9.0971     0.3031     0.8548   140.5645    -999.25    -999.25    64.1390     0.7114     0.7100  1250.0000     0.6026     5.1644    -999.25    -999.25    -999.25    -999.25    -999.25     2.1940    -999.25    -999.25    -999.25  -197.9458    -999.25    -999.25    -999.25 -1162.6300    -999.25    -999.25    -999.25
  1250.0240  4755.4829 4755483.0000    -999.25     9.0974     9.0974     0.2898     0.8722   140.5775    -999.25    -999.25    64.2345     0.7172     0.7151  1250.0239     0.6040     5.1601    -999.25    -999.25    -999.25    -999.25 15601.9785     2.1933    -999.25    -999.25    -999.25  -197.9485    -999.25    -999.25    -999.25 -1162.6539    -999.25    -999.25    -999.25
  1250.1524  4729.6709 4729760.0000    -999.25     9.0990     9.0990     0.3624     0.9653   141.0955    -999.25    -999.25    64.7452     0.7487     0.7424  1250.1523     0.6115     5.1576    -999.25    -999.25    -999.25    -999.25 15517.5850     2.1894    -999.25    -999.25    -999.25  -197.9484    -999.25    -999.25    -999.25 -1162.7823    -999.25    -999.25    -999.25
  1250.1764  4724.9521 4724952.0000    -999.25     9.1122     9.1122     0.3760     0.9717   141.1923    -999.25    -999.25    64.8554     0.7519     0.7460  1250.1764     0.6101     5.1571    -999.25    -999.25    -999.25    -999.25 15501.8105     2.1887    -999.25    -999.25    -999.25  -197.9484    -999.25    -999.25    -999.25 -1162.8064    -999.25    -999.25    -999.25
  1250.3048  4697.9175 4698644.5000    -999.25     9.1832     9.1832     0.3613     1.0060   141.7676    -999.25    -999.25    65.4449     0.7695     0.7649  1250.3048     0.6025     5.1871    -999.25    -999.25     0.0304     0.0304 15415.5010     2.1851     0.7828     0.7828     0.6128  -197.9487     1.0000     1.0000     1.0000 -1162.9348    81.7800     0.0304    -999.25
  1250.3288  4693.7275 4693727.5000    -999.25     9.1997     9.1997     0.3585     0.9989   141.8751    -999.25    -999.25    65.3817     0.7720     0.7682  1250.3287     0.6000     5.1927    -999.25    -999.25     0.0311     0.0311 15399.3682     2.1848     0.7880     0.7880     0.6210  -197.9487     1.0000     1.0000     1.0000 -1162.9587    81.3443     0.0311    -999.25
  1250.4572  4695.2124 4694959.0000    -999.25     9.2876     9.2876     0.3122     0.9614   141.7285    -999.25    -999.25    65.0439     0.7854     0.7857  1250.4572     0.5864     5.2602    -999.25    -999.25     0.0350     0.0350 15403.4092     2.1832     0.8156     0.8156     0.6651  -197.9523     1.0000     1.0000     1.0000 -1163.0872    79.0130     0.0350    -999.25
  1250.4812  4695.1895 4695189.0000    -999.25     9.2674     9.2674     0.3036     0.9586   141.7011    -999.25    -999.25    64.8690     0.7916     0.7926  1250.4812     0.5833     5.2728    -999.25    -999.25     0.0347     0.0347 15404.1641     2.1828     0.8254     0.8254     0.6818  -197.9530     1.0000     1.0000     1.0000 -1163.1112    79.1549     0.0347    -999.25
  1250.6096  4726.8994 4726292.0000    -999.25     9.1597     9.1597     0.3137     0.9439   140.6011     0.0000    -999.25    63.9337     0.8252     0.8296  1250.6096     0.5666     5.3278    -999.25    -999.25     0.0335     0.0335 15506.2070     2.1805     0.8781     0.8781     0.7711  -197.9589     1.0000     1.0000     1.0000 -1163.2396    79.9140     0.0335    -999.25
  1250.6336  4732.1055 4732105.5000    -999.25     9.1613     9.1613     0.3156     0.9504   140.3955     0.0000    -999.25    63.7849     0.8367     0.8410  1250.6335     0.5697     5.3381    -999.25    -999.25     0.0324     0.0324 15525.2803     2.1797     0.8903     0.8903     0.7935  -197.9600     1.0000     1.0000     1.0000 -1163.2635    80.5783     0.0324    -999.25
  1250.7620  4761.2734 4760936.5000    -999.25     9.1699     9.1699     0.2394     0.9850   139.2647     0.0000    -999.25    62.9892     0.8980     0.9022  1250.7620     0.5864     5.3384    -999.25    -999.25     0.0265     0.0265 15619.8701     2.1754     0.9554     0.9554     0.9128  -197.9600     1.0000     1.0000     1.0000 -1163.3920    84.1320     0.0265    -999.25
  1250.7860  4766.3257 4766325.5000    -999.25     9.1822     9.1822     0.2252     1.0097   139.0533     0.0000    -999.25    62.9377     0.9104     0.9147  1250.7860     0.5901     5.3385    -999.25    -999.25     0.0257     0.0257 15637.5508     2.1745     0.9656     0.9656     0.9329  -197.9600     1.0000     1.0000     1.0000 -1163.4160    84.6114     0.0257    -999.25
  1250.9144  4772.0562 4771715.5000    -999.25     9.2482     9.2482     0.2405     1.1418   138.5457     0.0000    -999.25    62.6618     0.9766     0.9811  1250.9144     0.6098     5.3615    -999.25    -999.25     0.0214     0.0214 15655.2344     2.1691     1.0197     1.0197     1.0399  -197.9600     1.0000     1.0000     1.0000 -1163.5444    87.1760     0.0214    -999.25
  1250.9384  4772.7231 4772723.0000    -999.25     9.2707     9.2707     0.2434     1.1666   138.4508     0.0000    -999.25    62.7428     0.9859     0.9902  1250.9384     0.6125     5.3658    -999.25    -999.25     0.0215     0.0215 15658.5400     2.1679     1.0253     1.0253     1.0514  -197.9600     1.0000     1.0000     1.0000 -1163.5684    87.1042     0.0215    -999.25
  1251.0668  4761.8477 4762630.0000    -999.25     9.3910     9.3910     0.2538     1.2996   138.3620     0.0000    -999.25    63.1763     1.0355     1.0388  1251.0668     0.6270     5.4299    -999.25    -999.25     0.0221     0.0221 15625.4268     2.1616     1.0550     1.0550     1.1131  -197.9501     1.0000     1.0000     1.0000 -1163.6968    86.7200     0.0221    -999.25
  1251.0908  4760.7437 4760743.5000    -999.25     9.4060     9.4060     0.2557     1.3078   138.3454     0.0000    -999.25    63.4358     1.0395     1.0433  1251.0908     0.6250     5.4419    -999.25    -999.25     0.0232     0.0232 15619.2373     2.1608     1.0565     1.0565     1.1161  -197.9482     1.0000     1.0000     1.0000 -1163.7208    86.0691     0.0232    -999.25
  1251.2192  4733.5010 4734923.0000    -999.25     9.4862     9.4862     0.1918     1.3519   138.8796     0.0000    -999.25    64.8243     1.0611     1.0672  1251.2192     0.6139     5.5395    -999.25    -999.25     0.0290     0.0290 15534.5244     2.1568     1.0641     1.0641     1.1324  -197.9472     1.0000     1.0000     1.0000 -1163.8492    82.5870     0.0290    -999.25
  1251.2432  4730.0972 4730097.0000    -999.25     9.4636     9.4636     0.1799     1.3519   138.9794     0.0000    -999.25    65.1514     1.0617     1.0687  1251.2432     0.6094     5.5578    -999.25    -999.25     0.0301     0.0301 15518.6904     2.1568     1.0632     1.0632     1.1305  -197.9470     1.0000     1.0000     1.0000 -1163.8732    81.9358     0.0301    -999.25
  1251.3716  4692.6553 4692532.0000    -999.25     9.3428     9.3428     0.1232     1.3520   140.0877     0.0000    -999.25    66.9013     1.0650     1.0768  1251.3716     0.5850     5.6800    -999.25    -999.25     0.0359     0.0359 15395.4463     2.1568     1.0583     1.0583     1.1201  -197.9518     1.0000     1.0000     1.0000 -1164.0016    78.4520     0.0359    -999.25
  1251.3956  4685.5107 4685510.5000    -999.25     9.3293     9.3293     0.1126     1.3468   140.2949     0.0000    -999.25    67.1812     1.0635     1.0761  1251.3956     0.5813     5.7028    -999.25    -999.25     0.0361     0.0361 15372.4102     2.1567     1.0560     1.0560     1.1151  -197.9527     1.0000     1.0000     1.0000 -1164.0256    78.3306     0.0361    -999.25
  1251.5240  4645.0083 4645452.0000    -999.25     9.2570     9.2570     0.1599     1.3192   141.4834     0.0000    -999.25    68.6785     1.0559     1.0726  1251.5240     0.5615     5.7229    -999.25    -999.25     0.0372     0.0372 15240.9834     2.1561     1.0433     1.0433     1.0884  -197.9672     1.0000     1.0000     1.0000 -1164.1541    77.6810     0.0372    -999.25
  1251.5480  4637.9644 4637964.5000    -999.25     9.2777     9.2777     0.1688     1.3154   141.7055     0.0000    -999.25    68.8667     1.0532     1.0702  1251.5480     0.5620     5.7267    -999.25    -999.25     0.0363     0.0363 15216.4180     2.1563     1.0401     1.0401     1.0819  -197.9699     1.0000     1.0000     1.0000 -1164.1780    78.1977     0.0363    -999.25
