~Version ---------------------------------------------------
VERS. 2.0 : CWLS log ASCII Standard -VERSION 2.0
WRAP.  NO : 
~Well ------------------------------------------------------
STRT.m                                                   1280.0 : 
STOP.m                                                 1564.988 : 
STEP.m                                                   0.1524 : 
NULL.                                                   -999.25 : 
COMP.                                                           : COMPANY
WELL.                                                   Well-11 : WELL
FLD .                                                           : FIELD
LOC .                                                           : LOCATION
SRVC.                                                           : SERVICE COMPANY
DATE. 2021-01-20 14:34:05   : Log Export Date {yyyy-MM-dd HH:mm : ss}
PROV.                                                           : PROVINCE
UWI .                                                   Well-11 : UNIQUE WELL ID
API .                                                           : API NUMBER
~Curve Information -----------------------------------------
DEPTH             .m        : DEPTH
ACOUSTICIMPEDANCE1.kPa.s/m  : ACOUSTICIMPEDANCE1
AI                .kPa.s/m  : AI
AVG_PIGN          .m3/m3    : AVG_PIGN
CALI              .in       : CALI
CALI[DERIVED]1    .in       : CALI[DERIVED]1
DFL               .ohm.m    : DFL
DT                .us/ft    : DT
DT1               .us/ft    : DT1
FACIES            ._        : FACIES
FLD1              ._        : FLD1
GR                .gAPI     : GR
HDRS              .ohm.m    : HDRS
HMRS              .ohm.m    : HMRS
DEPTH_1           .m        : DEPTH_1
NPHI              .m3/m3    : NPHI
PERF_INT          ._        : PERF_INT
PERMEABILITY      .mD       : PERMEABILITY
PIGN              .m3/m3    : PIGN
PIGN_MODELLING    .m3/m3    : PIGN_MODELLING
PIMP              .kPa.s/m  : PIMP
RHOB              .g/cm3    : RHOB
LLD               .ohm.m    : LLD
RT_MODELLING      .ohm.m    : RT_MODELLING
RT_POWER          .ohm.m    : RT_POWER
SP                .mV       : SP
SUWI              ._        : SUWI
SUWI_MODELLING    ._        : SUWI_MODELLING
SXWI              ._        : SXWI
TDVSS             .m        : TDVSS
VCL               .%        : VCL
WATER_VOL         ._        : WATER_VOL
ZLT               ._        : ZLT
~Params ----------------------------------------------------
~Other -----------------------------------------------------
~ASCII -----------------------------------------------------
# ...
  1393.9952  7307.1841 7329928.5000    -999.25     9.4913     9.4913     5.6759    99.2458    99.2459     0.0000    -999.25    60.3202     3.3326     3.5031  1393.9952     0.5101    -999.25     0.1340     0.0459     0.0459 24048.3223     2.3793     3.3297     3.3297    11.0869   132.2593     1.0000     1.0000     1.0000 -1313.8752    72.4860     0.0459     2.0000
  1394.0148  7297.6768 7297677.0000    -999.25     9.5050     9.5050     5.6575    99.1730    99.6593     0.0000    -999.25    60.6603     3.2877     3.4479  1394.0148     0.5099    -999.25     0.1338     0.0459     0.0459 23942.5098     2.3745     3.2786     3.2786    10.7668   132.2582     1.0000     1.0000     1.0000 -1313.8948    72.4913     0.0459     2.0000
  1394.1476  6965.9937 6976519.0000    -999.25     9.5975     9.5975     5.5327   102.4603   102.4600     0.0000    -999.25    62.9650     2.9834     3.0736  1394.1476     0.5091    -999.25     0.1322     0.0458     0.0458 22888.8418     2.3417     2.9322     2.9322     8.5978   132.2507     1.0000     1.0000     1.0000 -1314.0276    72.5270     0.0458     2.0000
  1394.1672  6929.1191 6929119.0000    -999.25     9.5726     9.5726     5.4089   102.9455   103.1654     0.0000    -999.25    63.5493     2.9287     3.0109  1394.1671     0.5078    -999.25     0.1371     0.0461     0.0461 22733.3301     2.3403     2.8771     2.8771     8.2980   132.1914     1.0000     1.0000     1.0000 -1314.0471    72.3512     0.0461     2.0000
  1394.3000  6582.0381 6586912.0000    -999.25     9.4043     9.4043     4.5701   107.9454   107.9449     0.0000    -999.25    67.5081     2.5586     2.5864  1394.3000     0.4988    -999.25     0.1703     0.0481     0.0481 21610.6016     2.3310     2.5034     2.5034     6.2670   131.7896     1.0000     1.0000     1.0000 -1314.1801    71.1600     0.0481     2.0000
  1394.3196  6536.4053 6536405.5000    -999.25     9.3638     9.3638     4.4652   108.6834   108.6261     0.0000    -999.25    68.1235     2.5171     2.5438  1394.3196     0.4972    -999.25     0.1764     0.0483     0.0483 21444.8984     2.3307     2.4640     2.4640     6.0816   131.6648     1.0000     1.0000     1.0000 -1314.1996    70.9971     0.0483     2.0000
  1394.4524  6267.1816 6266037.5000    -999.25     9.0896     9.0896     3.7541   113.2416   113.2411     0.0000    -999.25    72.2926     2.2362     2.2550  1394.4524     0.4867    -999.25     0.2176     0.0502     0.0502 20557.8652     2.3284     2.1967     2.1967     4.8255   130.8193     1.0000     1.0000     1.0000 -1314.3324    69.8930     0.0502     2.0000
  1394.4720  6226.1338 6226134.0000    -999.25     9.0641     9.0641     3.6753   113.9143   113.6591     0.0000    -999.25    72.8503     2.2219     2.2466  1394.4719     0.4864    -999.25     0.2166     0.0501     0.0501 20426.9473     2.3269     2.1861     2.1861     4.7798   130.6696     1.0000     1.0000     1.0000 -1314.3519    69.9478     0.0501     2.0000
  1394.6048  6061.6304 6020251.5000    -999.25     8.8910     8.8910     3.1418   116.4918   116.4915     0.0000    -999.25    76.6292     2.1249     2.1891  1394.6049     0.4849    -999.25     0.2101     0.0495     0.0495 19751.4805     2.3167     2.1143     2.1143     4.4703   129.6553     1.0000     1.0000     1.0000 -1314.4849    70.3190     0.0495     2.0000
  1394.6244  5989.8647 5989865.0000    -999.25     8.8912     8.8912     3.1547   116.8722   116.6249     0.0000    -999.25    76.8753     2.1387     2.2133  1394.6244     0.4873    -999.25     0.1964     0.0488     0.0488 19651.7871     2.2967     2.1318     2.1318     4.5464   129.5150     1.0000     1.0000     1.0000 -1314.5044    70.7428     0.0488     2.0000
  1394.7572  5605.8384 5568425.5000    -999.25     8.8927     8.8927     3.2419   117.5281   117.5285     0.0000    -999.25    78.5426     2.2325     2.3770  1394.7572     0.5035    -999.25     0.1030     0.0440     0.0440 18269.1133     2.1616     2.2500     2.2500     5.0625   128.5640     1.0000     1.0000     1.0000 -1314.6372    73.6140     0.0440     2.0000
  1394.7769  5505.9077 5505908.0000    -999.25     8.8935     8.8935     3.2822   117.6254   117.5505     0.0000    -999.25    78.4992     2.2626     2.4174  1394.7769     0.5077    -999.25     0.0923     0.0427     0.0427 18064.0020     2.1248     2.2819     2.2819     5.2141   128.4719     1.0000     1.0000     1.0000 -1314.6569    74.3817     0.0427     2.0000
  1394.9096  4860.9800 4869187.0000    -999.25     8.8987     8.8987     3.5537   117.6987   117.6987     0.0000    -999.25    78.2068     2.4652     2.6897  1394.9097     0.5366    -999.25     0.0197     0.0341     0.0341 15975.0234     1.8771     2.4970     2.4970     6.2350   127.8512     1.0000     1.0000     1.0000 -1314.7897    79.5530     0.0341     2.0000
  1394.9292  4775.1426 4775142.5000    -999.25     8.8989     8.8989     3.6112   117.7095   117.9054     0.0000    -999.25    77.8027     2.5091     2.7413  1394.9292     0.5419    -999.25     0.0173     0.0326     0.0326 15666.4775     1.8441     2.5427     2.5427     6.4794   127.8167     1.0000     1.0000     1.0000 -1314.8092    80.4439     0.0326     2.0000
  1395.0620  4140.4502 4162532.5000    -999.25     8.9003     8.9003     4.0008   119.3052   119.3061     0.0000    -999.25    75.0645     2.8065     3.0911  1395.0620     0.5776    -999.25     0.0010     0.0225     0.0225 13656.6025     1.6207     2.8522     2.8522     8.1350   127.5832     1.0000     1.0000     1.0000 -1314.9420    86.4800     0.0225     2.0000
  1395.0817  4071.6558 4071655.7500    -999.25     8.9044     8.9044     4.0602   119.5419   119.8975     0.0000    -999.25    74.2055     2.8960     3.1825  1395.0817     0.5824    -999.25     0.0012     0.0216     0.0216 13358.4512     1.5969     2.9482     2.9482     8.7540   127.5896     1.0000     1.0000     1.0000 -1314.9617    87.2137     0.0216     2.0000
  1395.2144  3535.1543 3556863.5000    -999.25     8.9320     8.9320     4.4604   123.8814   123.8813     0.0000    -999.25    68.4191     3.4993     3.7984  1395.2145     0.6144    -999.25     0.0025     0.0150     0.0150 11669.5000     1.4368     3.5949     3.5949    12.9233   127.6327     1.0000     1.0000     1.0000 -1315.0945    92.1560     0.0150     2.0000
  1395.2340  3480.8279 3480827.7500    -999.25     8.9366     8.9366     4.6273   124.5223   124.7693     0.0000    -999.25    66.9313     3.6931     3.9704  1395.2340     0.6174    -999.25     0.0027     0.0150     0.0150 11420.0391     1.4220     3.8032     3.8032    14.7585   127.6636     1.0000     1.0000     1.0000 -1315.1140    92.5188     0.0150     2.0000
  1395.3668  3081.1409 3103425.5000    -999.25     8.9674     8.9674     5.7585   130.7820   130.7855     0.0000    -999.25    56.8510     5.0062     5.1357  1395.3668     0.6378    -999.25     0.0040     0.0150     0.0150 10181.8428     1.3220     5.2147     5.2147    27.1931   127.8732     1.0000     1.0000     1.0000 -1315.2468    94.9770     0.0150     2.0000
  1395.3865  3047.4404 3047440.5000    -999.25     8.9708     8.9708     6.2383   131.7106   131.7354     0.0000    -999.25    54.8738     5.4571     5.4948  1395.3865     0.6397    -999.25     0.0042     0.0150     0.0150  9998.1641     1.3169     5.7012     5.7012    34.0978   127.9026     1.0000     1.0000     1.0000 -1315.2665    95.1329     0.0150     2.0000
  1395.5192  2828.7947 2839419.0000    -999.25     8.9942     8.9942     9.4701   138.1343   138.1343     3.0000    -999.25    41.5557     8.4938     7.9138  1395.5193     0.6525    -999.25     0.0055     0.0150     0.0150  9315.6787     1.2820     8.9782     8.9782    80.6081   128.1005     1.0000     1.0000     1.0000 -1315.3993    96.1830     0.0150     3.0000
  1395.5388  2808.6938 2808694.0000    -999.25     8.9904     8.9904    10.7964   139.0831   138.9315     3.0000    -999.25    39.6503     9.2673     8.5247  1395.5388     0.6553    -999.25     0.0057     0.0150     0.0150  9214.8750     1.2816     9.7944     9.7944   100.4437   128.1019     1.0000     1.0000     1.0000 -1315.4188    96.5448     0.0150     3.0000
