~Version ---------------------------------------------------
VERS. 2.0 : CWLS log ASCII Standard -VERSION 2.0
WRAP.  NO : 
~Well ------------------------------------------------------
STRT.m                                                1239.5456 : 
STOP.m                                                  1697.66 : 
STEP.m                                                   0.1524 : 
NULL.                                                   -999.25 : 
COMP.                                                           : COMPANY
WELL.                                                   Well-16 : WELL
FLD .                                                           : FIELD
LOC .                                                           : LOCATION
SRVC.                                                           : SERVICE COMPANY
DATE. 2021-01-20 14:34:07   : Log Export Date {yyyy-MM-dd HH:mm : ss}
PROV.                                                           : PROVINCE
UWI .                                                   Well-16 : UNIQUE WELL ID
API .                                                           : API NUMBER
~Curve Information -----------------------------------------
DEPTH             .m        : DEPTH
ACOUSTICIMPEDANCE1.kPa.s/m  : ACOUSTICIMPEDANCE1
AI                .kPa.s/m  : AI
AVG_PIGN          .m3/m3    : AVG_PIGN
BIT               .m        : BIT
CALI              .in       : CALI
CALI_1            .in       : CALI_1
NPHI              .m3/m3    : NPHI
DT                .us/ft    : DT
FACIES            ._        : FACIES
FLD1              ._        : FLD1
GR                .gAPI     : GR
M2R2              .ohm.m    : M2R2
LLS               .ohm.m    : LLS
LLD               .ohm.m    : LLD
DEPTH_1           .m        : DEPTH_1
NPHI_1            .m3/m3    : NPHI_1
PEF               .b/e      : PEF
PIGN_MODELLING    .m3/m3    : PIGN_MODELLING
PIMP              .kPa.s/m  : PIMP
RHOB              .g/cm3    : RHOB
RT_MODELLING      .ohm.m    : RT_MODELLING
RT_POWER          .ohm.m    : RT_POWER
SP                .mV       : SP
SUWI_MODELLING    ._        : SUWI_MODELLING
TDVSS             .m        : TDVSS
ZCOR              .g/cm3    : ZCOR
RHOB_1            .g/cm3    : RHOB_1
ZLT               ._        : ZLT
~Params ----------------------------------------------------
~Other -----------------------------------------------------
~ASCII -----------------------------------------------------
# ...
  1601.4957  2414.9358 2414935.7500    -999.25     0.2159     8.8351     9.1351     0.6235   150.2710     3.0000    -999.25    19.4300    78.4080    96.9203   118.7848  1601.4957     0.6235     2.4627     0.0000  7923.0181     1.1906   118.7848 14109.8281   153.9545     1.0000 -1520.7756    -0.0204     1.1906    19.0000
  1601.6480  2414.4919 2414492.0000    -999.25     0.2159     8.8270     9.1270     0.6382   150.0588     3.0000    -999.25    19.7850    77.5637    95.0974   114.5183  1601.6481     0.6382     2.4620     0.0000  7921.5615     1.1887   114.5183 13114.4414   155.1509     1.0000 -1520.9280    -0.0220     1.1887    19.0000
  1601.8004  2414.6567 2414656.7500    -999.25     0.2159     8.8262     9.1262     0.6422   149.6825     3.0000    -999.25    18.1796    76.8036    93.1297   109.7308  1601.8004     0.6422     2.4806     0.0000  7922.1025     1.1858   109.7308 12040.8477   156.4201     1.0000 -1521.0804    -0.0239     1.1858    19.0000
  1601.9528  2413.3931 2413393.2500    -999.25     0.2159     8.8353     9.1353     0.6059   149.4325     3.0000    -999.25    15.6853    76.1787    91.4148   105.5303  1601.9528     0.6059     2.5245     0.0000  7917.9565     1.1832   105.5303 11136.6436   157.8035     1.0000 -1521.2328    -0.0245     1.1832    19.0000
  1602.1052  2411.0657 2411065.7500    -999.25     0.2159     8.8446     9.1446     0.5908   149.3492     3.0000    -999.25    14.2278    75.1428    87.3526    99.2910  1602.1052     0.5908     2.5655     0.0000  7910.3208     1.1814    99.2910  9858.7031   159.2595     1.0000 -1521.3853    -0.0243     1.1814    19.0000
  1602.2576  2409.8923 2409892.5000    -999.25     0.2159     8.8481     9.1481     0.6227   149.1816     3.0000    -999.25    14.4057    73.1576    81.7511    91.9110  1602.2576     0.6227     2.5807     0.0000  7906.4712     1.1795    91.9110  8447.6328   160.7798     1.0000 -1521.5376    -0.0251     1.1795    19.0000
  1602.4100  2402.8850 2402885.0000    -999.25     0.2159     8.8489     9.1489     0.6383   149.2488     3.0000    -999.25    15.5461    70.2883    76.7354    86.1010  1602.4100     0.6383     2.5796     0.0000  7883.4805     1.1766    86.1010  7413.3818   162.3906     1.0000 -1521.6901    -0.0274     1.1766    19.0000
  1602.5624  2392.2263 2392226.2500    -999.25     0.2159     8.8527     9.1527     0.6171   149.3022     3.0000    -999.25    16.2194    66.8564    69.6588    77.0792  1602.5624     0.6171     2.5737     0.0000  7848.5112     1.1718    77.0792  5941.2031   164.1080     1.0000 -1521.8424    -0.0318     1.1718    19.0000
  1602.7148  2387.6104 2387610.5000    -999.25     0.2159     8.8546     9.1545     0.6049   148.6717     3.0000    -999.25    16.2532    63.9580    66.4091    73.2984  1602.7148     0.6049     2.5487     0.0000  7833.3677     1.1646    73.2984  5372.6558   165.9597     1.0000 -1521.9949    -0.0414     1.1646    19.0000
  1602.8672  2388.6687 2388668.7500    -999.25     0.2159     8.8501     9.1501     0.6051   147.8785     3.0000    -999.25    16.3691    57.8447    55.6599    61.1703  1602.8672     0.6051     2.5015     0.0000  7836.8394     1.1589    61.1703  3741.8057   167.9678     1.0000 -1522.1472    -0.0517     1.1589    19.0000
  1603.0196  2416.9036 2416903.5000    -999.25     0.2159     8.8416     9.1416     0.5935   146.6680     3.0000    -999.25    16.6323    49.1365    44.7132    50.1670  1603.0197     0.5935     2.5147     0.0000  7929.4731     1.1630    50.1670  2516.7278   170.1393     1.0000 -1522.2996    -0.0515     1.1630    19.0000
  1603.1721  2477.1794 2477179.2500    -999.25     0.2159     8.8379     9.1379     0.5873   144.7849     3.0000    -999.25    16.9397    38.7570    35.5271    39.8685  1603.1721     0.5873     2.6223     0.0000  8127.2290     1.1767    39.8685  1589.4973   172.5033     1.0000 -1522.4520    -0.0466     1.1767    19.0000
  1603.3244  2570.1995 2570199.5000    -999.25     0.2159     8.8421     9.1421     0.6103   142.6282     3.0000    -999.25    18.1434    27.2003    26.2288    28.8323  1603.3245     0.6103     2.7883     0.0000  8432.4131     1.2027    28.8323   831.3015   175.1437     1.0000 -1522.6044    -0.0555     1.2027    19.0000
  1603.4769  2809.6350 2809635.0000    -999.25     0.2159     8.8495     9.1495     0.6246   139.9116     3.0000    -999.25    23.9045    17.4675    17.7802    19.1348  1603.4769     0.6246     3.0522     0.0000  9217.9619     1.2897    19.1348   366.1406   178.1664     1.0000 -1522.7568    -0.0582     1.2897    19.0000
  1603.6292  3360.5085 3360508.5000    -999.25     0.2159     8.8564     9.1564     0.6007   135.7606     3.0000    -999.25    40.0448     8.6534     8.8471     9.2357  1603.6293     0.6007     3.5316     0.0000 11025.2900     1.4968     9.2357    85.2981   181.6352     1.0000 -1522.9092    -0.0377     1.4968    19.0000
  1603.7816  4372.6611 4372661.0000    -999.25     0.2159     8.8617     9.1617     0.5641   127.5826     3.0000    -999.25    63.6881     4.5850     4.6655     4.7780  1603.7816     0.5641     4.2696     0.0000 14346.0010     1.8303     4.7780    22.8293   185.4461     1.0000 -1523.0616    -0.0029     1.8303    19.0000
  1603.9340  5717.6714 5717671.5000    -999.25     0.2159     8.8631     9.1631     0.5262   117.5344     3.0000    -999.25    82.0913     3.1457     3.2105     3.2642  1603.9340     0.5262     4.9060     0.0000 18758.7637     2.2048     3.2642    10.6550   189.1310     1.0000 -1523.2140     0.0459     2.2048    19.0000
  1604.0864  6780.4175 6780417.5000    -999.25     0.2159     8.8600     9.1600     0.4903   110.2472     3.0000    -999.25    88.5155     2.6996     2.7640     2.7920  1604.0864     0.4903     5.0155     0.0000 22245.4648     2.4525     2.7920     7.7953   191.9924     1.0000 -1523.3665     0.0717     2.4525    19.0000
  1604.2388  7188.4258 7188425.5000    -999.25     0.2159     8.8542     9.1542     0.4747   107.2037     3.0000    -999.25    89.1051     2.6147     2.6856     2.6981  1604.2388     0.4747     4.8183     0.0000 23584.0742     2.5283     2.6981     7.2797   193.7429     1.0000 -1523.5188     0.0704     2.5283    19.0000
  1604.3912  7123.8784 7123878.5000    -999.25     0.2159     8.8499     9.1499     0.4771   107.8456     3.0000    -999.25    90.3870     2.5785     2.6604     2.6604  1604.3912     0.4771     4.5331     0.0000 23372.3047     2.5206     2.6604     7.0777   194.6730     1.0000 -1523.6713     0.0823     2.5206    19.0000
  1604.5436  6933.5137 6933514.0000    -999.25     0.2159     8.8518     9.1518     0.4803   109.1053     0.0000    -999.25    92.5896     2.4780     2.5696     2.5602  1604.5436     0.4803     4.2163     0.0000 22747.7480     2.4819     2.5602     6.5546   195.1633     1.0000 -1523.8236     0.0898     2.4819    20.0000
  1604.6960  6816.7354 6816735.5000    -999.25     0.2159     8.8598     9.1598     0.4872   108.7432     0.0000    -999.25    94.4544     2.3902     2.4918     2.4743  1604.6960     0.4872     4.1031     0.0000 22364.6172     2.4320     2.4743     6.1222   195.4165     1.0000 -1523.9761     0.0737     2.4320    20.0000
  1604.8484  6752.0996 6752099.5000    -999.25     0.2159     8.8675     9.1675     0.4967   108.0101     0.0000    -999.25    95.7606     2.3707     2.4825     2.4572  1604.8484     0.4967     4.4517     0.0000 22152.5566     2.3927     2.4572     6.0378   195.5463     1.0000 -1524.1284     0.0550     2.3927    20.0000
  1605.0008  6617.5898 6617590.0000    -999.25     0.2159     8.8723     9.1723     0.5057   109.4870     0.0000    -999.25    95.2223     2.4504     2.5719     2.5373  1605.0009     0.5057     5.0614     0.0000 21711.2539     2.3771     2.5373     6.4379   195.5570     1.0000 -1524.2808     0.0505     2.3771    20.0000
  1605.1533  6428.9434 6428943.5000    -999.25     0.2159     8.8782     9.1782     0.5203   112.9747     0.0000    -999.25    90.7084     2.6675     2.7975     2.7511  1605.1533     0.5203     5.3725     0.0000 21092.3340     2.3829     2.7511     7.5686   195.4323     1.0000 -1524.4332     0.0454     2.3829    20.0000
