~Version ---------------------------------------------------
VERS. 2.0 : CWLS log ASCII Standard -VERSION 2.0
WRAP.  NO : 
~Well ------------------------------------------------------
STRT.m                                                1333.6522 : 
STOP.m                                                1778.5078 : 
STEP.m                                                   0.1524 : 
NULL.                                                   -999.25 : 
COMP.                                                           : COMPANY
WELL.                                                   Well-15 : WELL
FLD .                                                           : FIELD
LOC .                                                           : LOCATION
SRVC.                                                           : SERVICE COMPANY
DATE. 2021-01-20 14:34:07   : Log Export Date {yyyy-MM-dd HH:mm : ss}
PROV.                                                           : PROVINCE
UWI .                                                   Well-15 : UNIQUE WELL ID
API .                                                           : API NUMBER
~Curve Information -----------------------------------------
DEPTH             .m        : DEPTH
ACOUSTICIMPEDANCE1.kPa.s/m  : ACOUSTICIMPEDANCE1
AI                .kPa.s/m  : AI
BS                .in       : BS
CALI              .in       : CALI
CALI[DERIVED]1    .in       : CALI[DERIVED]1
DRES              .ohm.m    : DRES
DT                .us/ft    : DT
DT2               .us/ft    : DT2
DT4P              .us/ft    : DT4P
FACIES            ._        : FACIES
FLD1              ._        : FLD1
GR                .gAPI     : GR
GR_EDTC           .gAPI     : GR_EDTC
LLD               .ohm.m    : LLD
LLS               .ohm.m    : LLS
M2R2              .ohm.m    : M2R2
LLS_1             .ohm.m    : LLS_1
LLD_1             .ohm.m    : LLD_1
DEPTH_1           .m        : DEPTH_1
MSFL              .ohm.m    : MSFL
NPHI              .m3/m3    : NPHI
PERF_INT          ._        : PERF_INT
PIMP              .kPa.s/m  : PIMP
PR                ._        : PR
RHOB              .g/cm3    : RHOB
RT_MODELLING      .ohm.m    : RT_MODELLING
RT_POWER          .ohm.m    : RT_POWER
SP                .mV       : SP
TDVSS             .m        : TDVSS
TENS              .t        : TENS
VPVS              ._        : VPVS
ZLT               ._        : ZLT
~Params ----------------------------------------------------
~Other -----------------------------------------------------
~ASCII -----------------------------------------------------
  1333.6522  9286.8916    -999.25     8.5000     8.7746     8.7746     1.2181    68.3158   237.1930    68.3158    -999.25    -999.25    69.8744    52.8601    60.5200    89.1710     1.3160     1.1980     1.2190  1333.6521    17.9963     0.5340    -999.25    -999.25     0.4548     2.0815    60.5200  3662.6704   233.0696 -1178.6877  2156.4922     3.4720    -999.25
  1333.8046  9559.7959 9559701.0000     8.5000     8.7751     8.7751     1.2205    66.3656   234.3918    66.3656    -999.25    -999.25    70.1039    53.5451    60.5200    98.6000     1.3260     1.2000     1.2200  1333.8046    32.2073     0.5319    -999.25 31363.8477     0.4564     2.0815    60.5200  3662.6704   233.0909 -1178.8082  2063.1233     3.5318    -999.25
  1333.9570  9497.2393 9497190.0000     8.5000     8.7743     8.7743     1.2346    66.2411   233.6058    66.2411     0.0000    -999.25    69.3718    50.8249    60.5200    98.6000     1.3400     1.2110     1.2300  1333.9569    34.9200     0.5320    -999.25 31158.7598     0.4563     2.0640    60.5200  3662.6704   233.0747 -1178.9287  1983.1050     3.5266    -999.25
  1334.1094  9101.2080 9101241.0000     8.5000     8.7738     8.7738     1.2737    68.2661   233.4708    68.2661     0.0000    -999.25    68.1369    50.4540    60.5200    98.6000     1.3829     1.2519     1.2719  1334.1094    42.7725     0.5243    -999.25 29859.7148     0.4533     2.0384    60.5200  3662.6704   233.0234 -1179.0492  1916.0879     3.4200    -999.25
  1334.2618  9246.2207 9246272.0000     8.5000     8.7734     8.7734     1.3082    66.4505   234.8620    66.4505     0.0000    -999.25    67.2326    53.7300    60.5200    93.2095     1.4240     1.2969     1.3180  1334.2617    23.4505     0.5139    -999.25 30335.5391     0.4565     2.0158    60.5200  3662.6704   232.9573 -1179.1697  1823.1221     3.5343    -999.25
  1334.4142  9269.9355 9269979.0000     8.5000     8.7741     8.7741     1.2772    65.7906   233.5958    65.7906     0.0000    -999.25    66.9640    53.9386    60.5200    78.3335     1.3691     1.2681     1.2891  1334.4142    11.0799     0.5127    -999.25 30413.3164     0.4569     2.0009    60.5200  3662.6704   232.9269 -1179.2902  1813.0132     3.5506    -999.25
  1334.5666  8973.2480 8973323.0000     8.5000     8.7718     8.7718     1.1860    67.7009   233.5820    67.7009     0.0000    -999.25    67.5472    54.4900    60.5200    76.3564     1.2342     1.1661     1.1851  1334.5665    14.7363     0.5251    -999.25 29440.0371     0.4541     1.9931    60.5200  3662.6704   232.9711 -1179.4106  1808.0066     3.4502    -999.25
  1334.7190  9121.6396 9121705.0000     8.5000     8.7715     8.7715     1.0986    66.7031   231.9283    66.7031     0.0000    -999.25    69.0814    51.3631    60.5200    83.0660     1.1191     1.0751     1.0921  1334.7190    10.5461     0.5351    -999.25 29926.8535     0.4549     1.9962    60.5200  3662.6704   233.0590 -1179.5311  1812.9934     3.4771    -999.25
  1334.8714  9346.1875 9346184.0000     8.5000     8.7739     8.7739     1.0496    65.5375   232.6739    65.5375     0.0000    -999.25    71.1465    50.4200    60.5200    72.3773     1.0581     1.0280     1.0440  1334.8713     6.0434     0.5302    -999.25 30663.3340     0.4569     2.0096    60.5200  3662.6704   233.1008 -1179.6516  1861.9357     3.5502    -999.25
  1335.0238  9394.3281 9394269.0000     8.5000     8.7757     8.7757     1.0371    65.5845   233.1367    65.5845     0.0000    -999.25    72.9061    52.8058    60.5200    79.7446     1.0400     1.0160     1.0340  1335.0238     8.7113     0.5203    -999.25 30821.0938     0.4570     2.0214    60.5200  3662.6704   233.0509 -1179.7721  1865.9948     3.5548    -999.25
  1335.1762  9380.7178 9380648.0000     8.5000     8.7739     8.7739     1.0449    65.7447   234.8237    65.7447     0.0000    -999.25    73.4669    53.8825    60.5200    94.6220     1.0480     1.0260     1.0450  1335.1761    14.1409     0.5255    -999.25 30776.4043     0.4575     2.0234    60.5200  3662.6704   232.9404 -1179.8926  1854.0157     3.5718    -999.25
  1335.3286  9232.1523 9232156.0000     8.5000     8.7737     8.7737     1.0523    66.4923   236.0820    66.4923     0.0000    -999.25    72.7375    53.0606    60.5200    92.4472     1.0570     1.0340     1.0540  1335.3286    14.0104     0.5299    -999.25 30289.2266     0.4569     2.0140    60.5200  3662.6704   232.8100 -1180.0131  1796.0762     3.5505    -999.25
  1335.4810  8829.0928 8829192.0000     8.5000     8.7729     8.7729     1.0602    69.2136   234.5132    69.2136     0.0000    -999.25    71.1786    51.1868    57.2563    83.0798     1.0620     1.0360     1.0560  1335.4810     7.5480     0.5243    -999.25 28967.1660     0.4523     2.0049    57.2563  3278.2842   232.6877 -1180.1335  1738.0762     3.3882    -999.25
  1335.6334  9220.1299 9220157.0000     8.5000     8.7730     8.7730     1.0999    66.4303   236.9397    66.4303     0.0000    -999.25    68.9460    49.8630    52.2875    81.2394     1.1019     1.0699     1.0909  1335.6333     6.8116     0.5110    -999.25 30249.8574     0.4574     2.0095    52.2875  2733.9824   232.6034 -1180.2540  1700.0499     3.5668    -999.25
  1335.7858  9292.4111 9292399.0000     8.5000     8.7723     8.7723     1.1847    66.0939   236.0069    66.0939     0.0000    -999.25    66.2100    50.8751    57.2381    61.2961     1.2048     1.1599     1.1859  1335.7858     6.9975     0.5068    -999.25 30486.8711     0.4574     2.0150    57.2381  3276.2000   232.5709 -1180.3745  1639.0801     3.5708    -999.25
  1335.9382  9404.8877 9404861.0000     8.5000     8.7731     8.7731     1.2385    65.4072   242.2427    65.4072     0.0000    -999.25    64.0709    47.4928    59.3605    64.3604     1.2849     1.2299     1.2579  1335.9381     9.0680     0.5101    -999.25 30855.8457     0.4607     2.0182    59.3605  3523.6689   232.5824 -1180.4950  1601.0499     3.7036    -999.25
  1336.0906  9456.9814 9456962.0000     8.5000     8.7757     8.7757     1.1839    65.0082   236.1961    65.0082     0.0000    -999.25    63.8875    45.9793    57.5951    75.3607     1.2231     1.1701     1.1961  1336.0906     6.5261     0.5014    -999.25 31026.7773     0.4590     2.0170    57.5951  3317.1956   232.6093 -1180.6155  1666.9133     3.6333    -999.25
  1336.2430  8987.0693 8987109.0000     8.5000     8.7747     8.7747     1.0728    68.2513   230.7808    68.2513     0.0000    -999.25    65.4696    45.3933    59.3540    47.0177     1.0862     1.0442     1.0642  1336.2429     6.8089     0.4951    -999.25 29485.2637     0.4521     2.0124    59.3540  3522.8972   232.6167 -1180.7360  1741.9016     3.3813    -999.25
  1336.3954  9386.4248 9386558.0000     8.5000     8.7734     8.7734     1.0062    65.2533   231.9649    65.2533     0.0000    -999.25    67.0568    45.4439    60.5200    36.1005     1.0121     0.9761     0.9941  1336.3954     3.8371     0.5074    -999.25 30795.7949     0.4570     2.0095    60.5200  3662.6704   232.5848 -1180.8564  1881.8163     3.5549    -999.25
  1336.5478  9194.3525 9194585.0000     8.5000     8.7718     8.7718     1.0168    67.1105   233.1790    67.1105     0.0000    -999.25    67.7293    44.4174    60.5200    62.8560     1.0260     0.9900     1.0090  1336.5477     3.8303     0.5246    -999.25 30165.9609     0.4548     2.0244    60.5200  3662.6704   232.5199 -1180.9771  1998.8464     3.4746    -999.25
  1336.7002  9342.2500 9342512.0000     8.5000     8.7725     8.7725     1.0734    67.7739   231.7359    67.7739     0.0000    -999.25    68.2470    43.6372    60.5200    90.8025     1.0939     1.0529     1.0749  1336.7002     9.7281     0.5221    -999.25 30651.2891     0.4532     2.0773    60.5200  3662.6704   232.4524 -1181.0975  2004.9921     3.4193    -999.25
  1336.8526  9848.4707 9848385.0000     8.5000     8.7783     8.7783     1.1174    67.3140   230.0641    67.3140     0.0000    -999.25    69.1328    45.5651    60.5200    95.7682     1.1480     1.1010     1.1250  1336.8525     5.8547     0.5075    -999.25 32310.9727     0.4532     2.1750    60.5200  3662.6704   232.3986 -1181.2180  1985.0262     3.4178    -999.25
