~Version ---------------------------------------------------
VERS. 2.0 : CWLS log ASCII Standard -VERSION 2.0
WRAP.  NO : 
~Well ------------------------------------------------------
STRT.m                                                 998.5724 : 
STOP.m                                                  1489.91 : 
STEP.m                                                   0.1524 : 
NULL.                                                   -999.25 : 
COMP.                                                           : COMPANY
WELL.                                                    Well-4 : WELL
FLD .                                                           : FIELD
LOC .                                                           : LOCATION
SRVC.                                                           : SERVICE COMPANY
DATE. 2021-01-20 14:34:00   : Log Export Date {yyyy-MM-dd HH:mm : ss}
PROV.                                                           : PROVINCE
UWI .                                                    Well-4 : UNIQUE WELL ID
API .                                                           : API NUMBER
~Curve Information -----------------------------------------
DEPTH             .m        : DEPTH
ACOUSTICIMPEDANCE1.kPa.s/m  : ACOUSTICIMPEDANCE1
AVG_PIGN          .m3/m3    : AVG_PIGN
CALI              .in       : CALI
CALI[DERIVED]1    .in       : CALI[DERIVED]1
DFL               .ohm.m    : DFL
DT                .us/ft    : DT
FACIES            ._        : FACIES
FLD1              ._        : FLD1
GR                .gAPI     : GR
HDRS              .ohm.m    : HDRS
HMRS              .ohm.m    : HMRS
NPHI              .m3/m3    : NPHI
PERF_INT          ._        : PERF_INT
PIGN              .m3/m3    : PIGN
PIGN_MODELLING    .m3/m3    : PIGN_MODELLING
RHOB              .g/cm3    : RHOB
SP                .mV       : SP
SUWI              ._        : SUWI
SUWI_MODELLING    ._        : SUWI_MODELLING
TDVSS             .m        : TDVSS
VCL               .%        : VCL
ZLT               ._        : ZLT
~Params ----------------------------------------------------
~Other -----------------------------------------------------
~ASCII -----------------------------------------------------
# ...
  1486.2524  6833.4116    -999.25     8.7182     8.7182     2.1687   114.3388     0.0000    -999.25   117.0041     2.0322     1.9982     0.5580    -999.25     0.0275     0.0275     2.5634   314.5105     1.0000     1.0000 -1407.6324    67.8980    17.0000
  1486.4048  7511.9185    -999.25     8.7040     8.7040     2.5525   109.2212     0.0000    -999.25   117.0041     2.6334     2.5032     0.5372    -999.25     0.0141     0.0141     2.6918   314.5122     1.0000     1.0000 -1407.7848    65.8360    17.0000
  1486.5572  7904.4697    -999.25     8.6452     8.6452     3.1332   105.0429     0.0000    -999.25   117.0041     2.6092     2.5765     0.5282    -999.25     0.0085     0.0085     2.7241   314.5994     1.0000     1.0000 -1407.9373    64.0870    17.0000
  1486.7096  8013.1284    -999.25     8.6282     8.6282     3.3073   102.1381     0.0000    -999.25   117.0041     2.4367     2.5594     0.5363    -999.25     0.0179     0.0179     2.6852   314.6724     1.0000     1.0000 -1408.0896    61.7390    17.0000
  1486.8620  7987.8042    -999.25     8.6522     8.6522     3.4746   100.3178     0.0000    -999.25   117.0041     2.5063     2.6612     0.5562    -999.25     0.0330     0.0330     2.6290   314.4201     1.0000     1.0000 -1408.2421    59.0210    17.0000
  1487.0144  7975.6543    -999.25     8.6744     8.6744     3.2760    96.9051     0.0000    -999.25   117.0041     2.1383     2.2482     0.5771    -999.25     0.0457     0.0457     2.5357   313.9066     1.0000     1.0000 -1408.3944    57.0100    17.0000
  1487.1668  7898.8560    -999.25     8.6793     8.6793     2.6871    94.9674     0.0000    -999.25   117.0041     1.8574     1.9079     0.5907    -999.25     0.0523     0.0523     2.4611   313.2012     1.0000     1.0000 -1408.5468    56.7200    17.0000
  1487.3192  7190.5957    -999.25     8.6744     8.6744     2.3550   102.8375     0.0000    -999.25   117.0041     1.9326     1.9869     0.5931    -999.25     0.0518     0.0518     2.4261   312.6137     1.0000     1.0000 -1408.6992    59.5190    17.0000
  1487.4716  6433.1245    -999.25     8.6547     8.6547     2.4510   115.4266     0.0000    -999.25   117.0041     2.1412     2.2003     0.5870    -999.25     0.0454     0.0454     2.4362   312.3554     1.0000     1.0000 -1408.8516    64.6830    17.0000
  1487.6240  6200.3447    -999.25     8.6325     8.6325     2.6560   120.8052     0.0000    -999.25   117.0041     2.3337     2.3510     0.5816    -999.25     0.0394     0.0394     2.4575   312.1815     1.0000     1.0000 -1409.0040    68.2420    17.0000
  1487.7764  6222.4863    -999.25     8.6127     8.6127     2.7508   121.3178     0.0000    -999.25   117.0041     2.3058     2.3262     0.5827    -999.25     0.0338     0.0338     2.4767   312.1390     1.0000     1.0000 -1409.1564    70.5820    17.0000
  1487.9288  6313.6558    -999.25     8.5810     8.5810     2.7559   122.8835     0.0000    -999.25   117.0041     2.2414     2.2750     0.5852    -999.25     0.0227     0.0227     2.5454   312.1591     1.0000     1.0000 -1409.3088    75.1810    17.0000
  1488.0812  6135.1729    -999.25     8.5599     8.5599     2.6882   128.3115     0.0000    -999.25   117.0041     2.2571     2.2724     0.5795    -999.25     0.0101     0.0101     2.5827   312.0652     1.0000     1.0000 -1409.4612    81.2570    17.0000
  1488.2336  5474.5498    -999.25     8.5723     8.5723     2.6810   140.5491     0.0000    -999.25   117.0041     2.2237     2.2673     0.5727    -999.25     0.0036     0.0036     2.5244   312.1049     1.0000     1.0000 -1409.6136    87.6680    17.0000
  1488.3860  5017.3799    -999.25     8.6533     8.6533     2.8974   151.4420     0.0000    -999.25   117.0041     2.3080     2.4019     0.5751    -999.25     0.0020     0.0020     2.4929   312.1914     1.0000     1.0000 -1409.7660    93.4650    17.0000
  1488.5384  4937.8726    -999.25     8.7099     8.7099     2.9301   151.3114     0.0000    -999.25   117.0041     2.2173     2.3037     0.5873    -999.25     0.0046     0.0046     2.4513   312.1599     1.0000     1.0000 -1409.9185    94.5860    18.0000
  1488.6908  5017.5547    -999.25     8.7267     8.7267     2.5831   144.2716     0.0000    -999.25   117.0041     1.8311     1.9015     0.5966    -999.25     0.0115     0.0115     2.3750   311.9005     1.0000     1.0000 -1410.0708    90.6410    18.0000
  1488.8432  5281.4541    -999.25     8.7097     8.7097     2.1238   137.1967     0.0000    -999.25   117.0041     1.6890     1.7556     0.5950    -999.25     0.0199     0.0199     2.3773   311.2522     1.0000     1.0000 -1410.2233    84.5200    18.0000
  1488.9956  5748.2646    -999.25     8.6569     8.6569     2.0951   129.4434     0.0000    -999.25   117.0041     1.9444     1.9991     0.5797    -999.25     0.0274     0.0274     2.4412   310.6093     1.0000     1.0000 -1410.3756    76.6790    18.0000
  1489.1480  6280.3730    -999.25     8.5954     8.5954     2.4874   121.1527     0.0000    -999.25   117.0041     2.3254     2.3388     0.5609    -999.25     0.0292     0.0292     2.4963   310.0690     1.0000     1.0000 -1410.5280    69.1790    18.0000
  1489.3004  6718.3794    -999.25     8.6034     8.6034     3.1194   114.8017     0.0000    -999.25   117.0041     2.6878     2.6674     0.5513    -999.25     0.0264     0.0264     2.5304   309.6034     1.0000     1.0000 -1410.6804    64.3120    18.0000
  1489.4528  6974.9619    -999.25     8.6550     8.6550     3.6886   111.1986     0.0000    -999.25   117.0041     3.1687     3.1378     0.5523    -999.25     0.0257     0.0257     2.5446   309.3167     1.0000     1.0000 -1410.8328    61.3460    18.0000
  1489.6052  7012.6235    -999.25     8.6797     8.6797     4.0797   109.6552     0.0000    -999.25   117.0041     3.2962     3.2757     0.5574    -999.25     0.0310     0.0310     2.5229   308.9355     1.0000     1.0000 -1410.9852    59.4060    18.0000
  1489.7576  6985.6528    -999.25     8.6662     8.6662     3.7785   109.1640     0.0000    -999.25   117.0041     2.9028     2.9436     0.5623    -999.25     0.0388     0.0388     2.5019   308.5203     1.0000     1.0000 -1411.1376    58.9030    18.0000
  1489.9100  7055.9312    -999.25     8.6651     8.6651     3.3574   109.1256     0.0000    -999.25   117.0041     2.7033     2.7883     0.5661    -999.25     0.0389     0.0389     2.5262   308.0830     1.0000     1.0000 -1411.2900    60.1930    18.0000
