~Version ---------------------------------------------------
VERS. 2.0 : CWLS log ASCII Standard -VERSION 2.0
WRAP.  NO : 
~Well ------------------------------------------------------
STRT.m                                                1333.6522 : 
STOP.m                                                1778.5078 : 
STEP.m                                                   0.1524 : 
NULL.                                                   -999.25 : 
COMP.                                                           : COMPANY
WELL.                                                   Well-15 : WELL
FLD .                                                           : FIELD
LOC .                                                           : LOCATION
SRVC.                                                           : SERVICE COMPANY
DATE. 2021-01-20 14:34:07   : Log Export Date {yyyy-MM-dd HH:mm : ss}
PROV.                                                           : PROVINCE
UWI .                                                   Well-15 : UNIQUE WELL ID
API .                                                           : API NUMBER
~Curve Information -----------------------------------------
DEPTH             .m        : DEPTH
ACOUSTICIMPEDANCE1.kPa.s/m  : ACOUSTICIMPEDANCE1
AI                .kPa.s/m  : AI
BS                .in       : BS
CALI              .in       : CALI
CALI[DERIVED]1    .in       : CALI[DERIVED]1
DRES              .ohm.m    : DRES
DT                .us/ft    : DT
DT2               .us/ft    : DT2
DT4P              .us/ft    : DT4P
FACIES            ._        : FACIES
FLD1              ._        : FLD1
GR                .gAPI     : GR
GR_EDTC           .gAPI     : GR_EDTC
LLD               .ohm.m    : LLD
LLS               .ohm.m    : LLS
M2R2              .ohm.m    : M2R2
LLS_1             .ohm.m    : LLS_1
LLD_1             .ohm.m    : LLD_1
DEPTH_1           .m        : DEPTH_1
MSFL              .ohm.m    : MSFL
NPHI              .m3/m3    : NPHI
PERF_INT          ._        : PERF_INT
PIMP              .kPa.s/m  : PIMP
PR                ._        : PR
RHOB              .g/cm3    : RHOB
RT_MODELLING      .ohm.m    : RT_MODELLING
RT_POWER          .ohm.m    : RT_POWER
SP                .mV       : SP
TDVSS             .m        : TDVSS
TENS              .t        : TENS
VPVS              ._        : VPVS
ZLT               ._        : ZLT
~Params ----------------------------------------------------
~Other -----------------------------------------------------
~ASCII -----------------------------------------------------
# ...
  1551.7366  5446.6494 5446710.5000     8.5000     8.0525     8.0525     6.4951   112.4145   255.4002   112.4145     1.0000     0.2127    56.5423    91.9453     6.4951     4.4307    -999.25    -999.25    -999.25  1551.7366     3.0051     0.3612    -999.25 17869.7852     0.3798     2.0088     6.4951    42.1863   -48.7897 -1312.4713  2056.1089     2.2720     8.0000
  1551.8890  5447.4751 5447515.5000     8.5000     8.1034     8.1034     6.6221   113.0129   269.3913   113.0129     1.0000     0.1992    56.5145    95.5304     6.6221     4.5347    -999.25    -999.25    -999.25  1551.8889     2.3397     0.3640    -999.25 17872.4258     0.3932     2.0198     6.6221    43.8522   -50.2830 -1312.5415  2007.0643     2.3838     8.0000
  1552.0414  5658.8960 5658874.0000     8.5000     8.0958     8.0958     6.6673   110.0026   286.4723   110.0026     1.0000     0.1857    58.6274    99.2973     6.6673     4.5984    -999.25    -999.25    -999.25  1552.0414     1.3388     0.3684    -999.25 18565.8574     0.4135     2.0423     6.6673    44.4529   -51.7897 -1312.6116  1937.0919     2.6042     8.0000
  1552.1938  5852.9067 5852909.5000     8.5000     8.1046     8.1046     6.6881   107.0957   304.1181   107.0957     1.0000     0.1722    60.2503    97.3950     6.6881     4.6566    -999.25    -999.25    -999.25  1552.1937     2.2785     0.3711    -999.25 19202.4570     0.4292     2.0565     6.6881    44.7307   -53.3317 -1312.6818  1889.0630     2.8397     8.0000
  1552.3462  6011.5527 6011594.5000     8.5000     8.2097     8.2097     7.0981   104.9336   231.8167   104.9336     1.0000     0.1587    61.1457    96.8864     7.0981     4.9910    -999.25    -999.25    -999.25  1552.3462     9.5007     0.3758    -999.25 19723.0781     0.3711     2.0696     7.0981    50.3830   -54.7831 -1312.7518  1922.9553     2.2091     8.0000
  1552.4986  6030.5723 6030592.0000     8.5000     8.4485     8.4485     8.2511   105.7601   248.1817   105.7601     1.0000     0.1452    60.4364    93.1030     8.2511     5.8287    -999.25    -999.25    -999.25  1552.4985    10.8664     0.3793    -999.25 19785.4082     0.3891     2.0925     8.2511    68.0806   -56.0406 -1312.8220  1936.9816     2.3466     8.0000
  1552.6510  6175.8135 6175773.0000     8.5000     8.6629     8.6629    10.2183   104.6646   247.0322   104.6646     1.0000     0.1318    59.8278    93.0583    10.2183     7.1695    -999.25    -999.25    -999.25  1552.6510     9.7566     0.3872    -999.25 20261.7227     0.3906     2.1207    10.2183   104.4137   -57.1166 -1312.8922  2039.8649     2.3602     8.0000
  1552.8034  6182.3940 6182341.5000     8.5000     8.7904     8.7904    12.5439   105.3864   262.2920   105.3864     1.0000     0.1183    60.3168    96.0210    12.5438     8.8098    -999.25    -999.25    -999.25  1552.8033     8.3492     0.3892    -999.25 20283.2734     0.4038     2.1376    12.5438   157.3469   -58.2761 -1312.9623  2078.9487     2.4888     8.0000
  1552.9558  6191.1973 6191147.0000     8.5000     8.8627     8.8627    14.5027   105.3892   269.2142   105.3892     1.0000     0.1048    60.4132    99.2853    14.5026    10.3439    -999.25    -999.25    -999.25  1552.9558     8.0223     0.3864    -999.25 20312.1641     0.4095     2.1407    14.5026   210.3254   -59.5195 -1313.0325  2056.0303     2.5545     8.0000
  1553.1082  6134.8906 6134853.0000     8.5000     8.8948     8.8948    15.6917   105.8547   277.9938   105.8547     1.0000     0.0913    60.1841    99.3732    15.6917    11.3603    -999.25    -999.25    -999.25  1553.1082     8.4548     0.3891    -999.25 20127.4707     0.4152     2.1306    15.6917   246.2294   -60.6033 -1313.1025  1926.1707     2.6262     8.0000
  1553.2606  6004.3564 6004337.5000     8.5000     8.9187     8.9187    15.8465   107.1356   255.2679   107.1356     1.0000     0.0778    61.9584    95.4890    15.8465    11.6574    -999.25    -999.25    -999.25  1553.2605     7.4203     0.3989    -999.25 19699.2695     0.3931     2.1105    15.8465   251.1116   -61.3537 -1313.1725  1910.0210     2.3826     8.0000
  1553.4130  5828.8442 5828866.0000     8.5000     8.9317     8.9317    15.2547   109.0124   265.0678   109.0124     1.0000     0.0644    63.2982    94.0645    15.2547    11.4298    -999.25    -999.25    -999.25  1553.4130     7.2732     0.4064    -999.25 19123.5742     0.3982     2.0847    15.2547   232.7059   -61.8259 -1313.2391  1979.9081     2.4315     8.0000
  1553.5654  5726.3403 5726372.5000     8.5000     8.9397     8.9397    14.6990   109.8407   254.2361   109.8407     1.0000     0.0509    61.8197    97.6595    14.6990    11.2185    -999.25    -999.25    -999.25  1553.5653     6.7801     0.4054    -999.25 18787.3125     0.3852     2.0636    14.6990   216.0606   -62.1943 -1313.3058  2014.9541     2.3146     8.0000
  1553.7178  5749.1694 5749207.5000     8.5000     8.9413     8.9413    14.3656   108.7365   265.2249   108.7365     1.0000    -999.25    61.2575    94.9295    14.3656    11.1546    -999.25    -999.25    -999.25  1553.7178     5.5383     0.4053    -999.25 18862.2266     0.3990     2.0510    14.3656   206.3705   -62.3959 -1313.3726  2162.8057     2.4391     9.0000
  1553.8702  5727.4321 5727496.0000     8.5000     8.9335     8.9335    13.8039   109.0268   311.7345   109.0268     0.0000    -999.25    61.4644    94.0538    13.8040    10.9202    -999.25    -999.25    -999.25  1553.8701     6.0315     0.4102    -999.25 18790.9980     0.4303     2.0487    13.8040   190.5504   -62.3823 -1313.4392  2176.9817     2.8592     9.0000
  1554.0226  5840.1235 5840186.5000     8.5000     8.9113     8.9113    13.1011   107.7111   357.0778   107.7111     3.0000    -999.25    62.2310    87.8443    13.1012    10.5947    -999.25    -999.25    -999.25  1554.0226     5.7866     0.4131    -999.25 19160.7168     0.4500     2.0638    13.1012   171.6414   -62.3397 -1313.5059  2162.0198     3.3151     9.0000
  1554.1750  5945.9438 5945869.5000     8.5000     8.8394     8.8394    12.4718   107.4192   383.7443   107.4192     3.0000    -999.25    63.0011    81.7028    12.4718    10.3504    -999.25    -999.25    -999.25  1554.1749     4.4955     0.4037    -999.25 19507.4453     0.4575     2.0955    12.4718   155.5458   -62.8729 -1313.5726  2258.8728     3.5724     9.0000
  1554.3274  5891.8945 5891484.5000     8.5000     8.7457     8.7457    11.8639   108.9943   403.0190   108.9943     3.0000    -999.25    62.7626    77.5444    11.8640    10.0797    -999.25    -999.25    -999.25  1554.3274     4.1523     0.3953    -999.25 19329.0156     0.4605     2.1069    11.8640   140.7545   -63.8819 -1313.6393  2248.0144     3.6976     9.0000
  1554.4798  5472.1465 5471691.5000     8.5000     8.7334     8.7334    11.4017   111.7403   423.9886   111.7403     3.0000    -999.25    61.5981    66.7444    11.4017     9.8869    -999.25    -999.25    -999.25  1554.4797     3.8812     0.4079    -999.25 17951.7422     0.4627     2.0061    11.4017   129.9988   -64.4715 -1313.7059  2108.1838     3.7944     9.0000
  1554.6322  4372.5220 4372565.0000     8.5000     8.7368     8.7368    11.3201   123.6830   447.7654   123.6830     3.0000    -999.25    57.4721    56.8156    11.3201    10.0372    -999.25    -999.25    -999.25  1554.6322     4.1944     0.4500    -999.25 14345.6855     0.4587     1.7743    11.3201   128.1447   -65.1235 -1313.7727  2014.1234     3.6203     9.0000
  1554.7846  3605.9194 3606177.2500     8.5000     8.7491     8.7491    11.6549   127.8650   462.3562   127.8650     3.0000    -999.25    50.2563    44.0929    11.6549    10.6142    -999.25    -999.25    -999.25  1554.7845     9.1187     0.4879    -999.25 11831.2900     0.4586     1.5127    11.6549   135.8367   -66.0756 -1313.8394  1844.2231     3.6160     9.0000
  1554.9370  3010.4087 3010711.7500     8.5000     8.8249     8.8249    12.6169   133.9723   462.5465   133.9723     3.0000    -999.25    40.8363    39.0689    12.6169    11.7500    -999.25    -999.25    -999.25  1554.9370    46.6306     0.5071    -999.25  9877.6621     0.4542     1.3232    12.6169   159.1862   -66.8327 -1313.9060  1753.1194     3.4525     9.0000
