~Version ---------------------------------------------------
VERS. 2.0 : CWLS log ASCII Standard -VERSION 2.0
WRAP.  NO : 
~Well ------------------------------------------------------
STRT.m                                                1239.5456 : 
STOP.m                                                  1697.66 : 
STEP.m                                                   0.1524 : 
NULL.                                                   -999.25 : 
COMP.                                                           : COMPANY
WELL.                                                   Well-16 : WELL
FLD .                                                           : FIELD
LOC .                                                           : LOCATION
SRVC.                                                           : SERVICE COMPANY
DATE. 2021-01-20 14:34:07   : Log Export Date {yyyy-MM-dd HH:mm : ss}
PROV.                                                           : PROVINCE
UWI .                                                   Well-16 : UNIQUE WELL ID
API .                                                           : API NUMBER
~Curve Information -----------------------------------------
DEPTH             .m        : DEPTH
ACOUSTICIMPEDANCE1.kPa.s/m  : ACOUSTICIMPEDANCE1
AI                .kPa.s/m  : AI
AVG_PIGN          .m3/m3    : AVG_PIGN
BIT               .m        : BIT
CALI              .in       : CALI
CALI_1            .in       : CALI_1
NPHI              .m3/m3    : NPHI
DT                .us/ft    : DT
FACIES            ._        : FACIES
FLD1              ._        : FLD1
GR                .gAPI     : GR
M2R2              .ohm.m    : M2R2
LLS               .ohm.m    : LLS
LLD               .ohm.m    : LLD
DEPTH_1           .m        : DEPTH_1
NPHI_1            .m3/m3    : NPHI_1
PEF               .b/e      : PEF
PIGN_MODELLING    .m3/m3    : PIGN_MODELLING
PIMP              .kPa.s/m  : PIMP
RHOB              .g/cm3    : RHOB
RT_MODELLING      .ohm.m    : RT_MODELLING
RT_POWER          .ohm.m    : RT_POWER
SP                .mV       : SP
SUWI_MODELLING    ._        : SUWI_MODELLING
TDVSS             .m        : TDVSS
ZCOR              .g/cm3    : ZCOR
RHOB_1            .g/cm3    : RHOB_1
ZLT               ._        : ZLT
~Params ----------------------------------------------------
~Other -----------------------------------------------------
~ASCII -----------------------------------------------------
# ...
  1479.5756  8142.2026 8142202.5000    -999.25     0.2159     8.7155     9.0155     0.5051   100.9536     0.0000     0.0000    73.6334     1.9055     2.0420     2.2264  1479.5756     0.5051    10.1194     0.0000 26713.2637     2.6968     2.2264     4.9569   180.3581     1.0000 -1398.8556     0.0233     2.6968     8.0000
  1479.7280  8040.3301 8040330.0000    -999.25     0.2159     8.7155     9.0155     0.5036   101.2319     0.0000     0.0000    71.9459     1.9209     2.0609     2.2534  1479.7280     0.5036     9.8865     0.0000 26379.0352     2.6704     2.2534     5.0778   180.3662     1.0000 -1399.0081     0.0170     2.6704     8.0000
  1479.8804  7935.5713 7935571.5000    -999.25     0.2159     8.7203     9.0203     0.4919   101.5850     0.0000     0.0000    71.2439     1.9555     2.0974     2.2986  1479.8804     0.4919     9.6723     0.0000 26035.3398     2.6448     2.2986     5.2836   180.3176     1.0000 -1399.1604     0.0210     2.6448     8.0000
  1480.0328  7875.6548 7875655.0000    -999.25     0.2159     8.7217     9.0217     0.4815   101.4948     0.0000     0.0000    70.9365     2.0051     2.1453     2.3552  1480.0328     0.4815     9.4398     0.0000 25838.7617     2.6225     2.3552     5.5470   180.2053     1.0000 -1399.3129     0.0374     2.6225     8.0000
  1480.1852  7957.1528 7957153.0000    -999.25     0.2159     8.7173     9.0173     0.4670    99.9688     0.0000     0.0000    69.9013     2.0705     2.2050     2.4234  1480.1852     0.4670     9.1650     0.0000 26106.1445     2.6098     2.4234     5.8729   180.0578     1.0000 -1399.4652     0.0553     2.6098     8.0000
  1480.3376  8064.0205 8064020.5000    -999.25     0.2159     8.7169     9.0169     0.4436    98.5268     0.0000     0.0000    67.5398     2.1675     2.2952     2.5239  1480.3376     0.4436     8.8577     0.0000 26456.7598     2.6067     2.5239     6.3701   179.8472     1.0000 -1399.6177     0.0575     2.6067     8.0000
  1480.4901  8055.9248 8055924.5000    -999.25     0.2159     8.7285     9.0285     0.4087    98.3534     0.0000     0.0000    66.0218     2.2490     2.3694     2.6053  1480.4901     0.4087     8.4497     0.0626 26430.1992     2.5995     2.6053     6.7876   179.5759     0.9773 -1399.7700     0.0408     2.5995     8.0000
  1480.6424  7997.7524 7997752.5000    -999.25     0.2159     8.7495     9.0496     0.3832    98.3904     0.0000     0.0000    67.1988     2.2516     2.3653     2.5992  1480.6425     0.3832     8.1296     0.1243 26239.3457     2.5817     2.5992     6.7558   179.2975     0.9573 -1399.9224     0.0272     2.5817     8.0000
  1480.7949  7870.2588 7870259.0000    -999.25     0.2159     8.7714     9.0714     0.3822    99.4111     0.0000     0.0000    69.0251     2.2033     2.3139     2.5398  1480.7949     0.3822     8.0467     0.1232 25821.0605     2.5669     2.5398     6.4506   179.0311     0.9644 -1400.0748     0.0294     2.5669     8.0000
  1480.9472  7684.7363 7684736.0000    -999.25     0.2159     8.7846     9.0846     0.3988   101.7119     0.0000     0.0000    69.2414     2.1562     2.2691     2.4863  1480.9473     0.3988     7.8633     0.1222 25212.3887     2.5644     2.4863     6.1817   178.7313     0.9707 -1400.2272     0.0278     2.5644     8.0000
  1481.0997  7579.9307 7579930.5000    -999.25     0.2159     8.7896     9.0896     0.4171   103.1303     0.0000     0.0000    69.1768     2.1634     2.2836     2.4960  1481.0997     0.4171     7.6876     0.1229 24868.5391     2.5647     2.4960     6.2300   178.4089     0.9663 -1400.3796     0.0173     2.5647     8.0000
  1481.2520  7538.6733 7538673.0000    -999.25     0.2159     8.7925     9.0925     0.4336   103.5532     0.0000     0.0000    70.7299     2.2887     2.4215     2.6387  1481.2521     0.4336     7.7512     0.1263 24733.1797     2.5612     2.6387     6.9627   177.9617     0.9449 -1400.5320     0.0193     2.5612     8.0000
  1481.4044  7532.0503 7532050.0000    -999.25     0.2159     8.7981     9.0981     0.4317   103.6483     0.0000     0.0000    72.8772     2.5228     2.6708     2.8993  1481.4044     0.4317     7.4597     0.1314 24711.4512     2.5613     2.8993     8.4059   177.1106     0.9131 -1400.6844     0.0403     2.5613     8.0000
  1481.5568  7593.8081 7593808.5000    -999.25     0.2159     8.8039     9.1039     0.4182   103.1064     0.0000     0.0000    73.9539     2.7336     2.8888     3.1221  1481.5568     0.4182     6.5393     0.1355 24914.0684     2.5688     3.1221     9.7475   175.8330     0.8876 -1400.8368     0.0494     2.5688     8.0000
  1481.7092  7622.5640 7622564.0000    -999.25     0.2159     8.8047     9.1047     0.4202   102.8534     0.0000     0.0000    73.2058     2.8092     2.9575     3.1807  1481.7092     0.4202     5.8146     0.1370 25008.4121     2.5722     3.1807    10.1169   174.6446     0.8785 -1400.9893     0.0297     2.5722     8.0000
  1481.8616  7549.3774 7549377.5000    -999.25     0.2159     8.8013     9.1013     0.4256   103.3660     0.0000     0.0000    71.4245     2.7911     2.9228     3.1272  1481.8616     0.4256     5.7057     0.1365 24768.2988     2.5602     3.1272     9.7794   174.0288     0.8812 -1401.1416     0.0151     2.5602     8.0000
  1482.0140  7518.9839 7518984.0000    -999.25     0.2159     8.7988     9.0988     0.4155   103.1920     0.0000     0.0000    69.9191     2.7893     2.9034     3.0903  1482.0140     0.4155     5.8695     0.1362 24668.5820     2.5456     3.0903     9.5500   173.9624     0.8834 -1401.2941     0.0301     2.5456     8.0000
  1482.1664  7735.9502 7735950.0000    -999.25     0.2159     8.8032     9.1032     0.4051   100.6012     0.0000     0.0000    68.1638     2.8695     2.9712     3.1468  1482.1664     0.4051     5.8194     0.1373 25380.4141     2.5533     3.1468     9.9024   174.1599     0.8770 -1401.4464     0.0435     2.5533     8.0000
  1482.3188  8111.1689 8111168.5000    -999.25     0.2159     8.8188     9.1188     0.4147    96.7779     0.0000     0.0000    65.7806     3.0137     3.1101     3.2794  1482.3188     0.4147     5.7916     0.1391 26611.4453     2.5754     3.2794    10.7545   174.4712     0.8657 -1401.5989     0.0342     2.5754     8.0000
  1482.4713  8201.1270 8201127.5000    -999.25     0.2159     8.8376     9.1376     0.4329    95.8427     0.0000     0.0000    65.2508     3.0726     3.1702     3.3307  1482.4713     0.4329     5.9042     0.1395 26906.5859     2.5788     3.3307    11.0936   174.9539     0.8631 -1401.7512     0.0231     2.5788     8.0000
  1482.6236  8098.9536 8098953.5000    -999.25     0.2159     8.8475     9.1475     0.4413    96.6943     0.0000     0.0000    68.1919     2.9351     3.0385     3.1837  1482.6237     0.4413     5.8202     0.1373 26571.3691     2.5693     3.1837    10.1359   175.6425     0.8765 -1401.9036     0.0227     2.5693     8.0000
  1482.7761  7969.0249 7969025.0000    -999.25     0.2159     8.8487     9.1487     0.4276    98.6686     0.0000     0.0000    71.4876     2.7388     2.8532     2.9841  1482.7761     0.4276     5.5024     0.1342 26145.0957     2.5797     2.9841     8.9049   176.2130     0.8956 -1402.0560     0.0219     2.5797     8.0000
  1482.9284  7819.3940 7819394.0000    -999.25     0.2159     8.8477     9.1477     0.4028   101.7378     0.0000     0.0000    71.1071     2.6660     2.7980     2.9241  1482.9285     0.4028     5.8340     0.1331 25654.1797     2.6100     2.9241     8.5504   176.1887     0.9022 -1402.2084     0.0205     2.6100     8.0000
  1483.0807  7878.6396 7878639.5000    -999.25     0.2159     8.8471     9.1471     0.3979   102.1798     0.0000     0.0000    67.2674     2.7529     2.9083     3.0387  1483.0807     0.3979     6.5633     0.1351 25848.5547     2.6412     3.0387     9.2337   175.5958     0.8899 -1402.3607     0.0263     2.6412     8.0000
  1483.2332  7974.1074 7974107.5000    -999.25     0.2159     8.8464     9.1464     0.4156   101.9006     0.0000     0.0000    63.5841     2.9332     3.1107     3.2513  1483.2333     0.4156     6.9870     0.1386 26161.7695     2.6659     3.2513    10.5710   174.9768     0.8688 -1402.5132     0.0241     2.6659     8.0000
