~Version ---------------------------------------------------
VERS. 2.0 : CWLS log ASCII Standard -VERSION 2.0
WRAP.  NO : 
~Well ------------------------------------------------------
STRT.m                                                1333.6522 : 
STOP.m                                                1778.5078 : 
STEP.m                                                   0.1524 : 
NULL.                                                   -999.25 : 
COMP.                                                           : COMPANY
WELL.                                                   Well-15 : WELL
FLD .                                                           : FIELD
LOC .                                                           : LOCATION
SRVC.                                                           : SERVICE COMPANY
DATE. 2021-01-20 14:34:07   : Log Export Date {yyyy-MM-dd HH:mm : ss}
PROV.                                                           : PROVINCE
UWI .                                                   Well-15 : UNIQUE WELL ID
API .                                                           : API NUMBER
~Curve Information -----------------------------------------
DEPTH             .m        : DEPTH
ACOUSTICIMPEDANCE1.kPa.s/m  : ACOUSTICIMPEDANCE1
AI                .kPa.s/m  : AI
BS                .in       : BS
CALI              .in       : CALI
CALI[DERIVED]1    .in       : CALI[DERIVED]1
DRES              .ohm.m    : DRES
DT                .us/ft    : DT
DT2               .us/ft    : DT2
DT4P              .us/ft    : DT4P
FACIES            ._        : FACIES
FLD1              ._        : FLD1
GR                .gAPI     : GR
GR_EDTC           .gAPI     : GR_EDTC
LLD               .ohm.m    : LLD
LLS               .ohm.m    : LLS
M2R2              .ohm.m    : M2R2
LLS_1             .ohm.m    : LLS_1
LLD_1             .ohm.m    : LLD_1
DEPTH_1           .m        : DEPTH_1
MSFL              .ohm.m    : MSFL
NPHI              .m3/m3    : NPHI
PERF_INT          ._        : PERF_INT
PIMP              .kPa.s/m  : PIMP
PR                ._        : PR
RHOB              .g/cm3    : RHOB
RT_MODELLING      .ohm.m    : RT_MODELLING
RT_POWER          .ohm.m    : RT_POWER
SP                .mV       : SP
TDVSS             .m        : TDVSS
TENS              .t        : TENS
VPVS              ._        : VPVS
ZLT               ._        : ZLT
~Params ----------------------------------------------------
~Other -----------------------------------------------------
~ASCII -----------------------------------------------------
# ...
  1665.7318  6485.5127 6485520.5000     8.5000     8.4551     8.4551    10.3791   108.2060   219.0741   108.2060     4.0000    -999.25    45.7551   108.6798    10.3791     8.4566    -999.25    -999.25    -999.25  1665.7318     5.5453     0.4686     1.0000 21277.9551     0.3386     2.3024    10.3791   107.7257   -80.6043 -1353.8400  2155.9160     2.0246    16.0000
  1665.8842  6571.3125 6571368.0000     8.5000     8.4258     8.4258    10.3478   107.1643   230.6493   107.1643     4.0000    -999.25    44.4637   102.9431    10.3478     8.4767    -999.25    -999.25    -999.25  1665.8842     6.0514     0.4608     1.0000 21559.6055     0.3624     2.3104    10.3478   107.0770   -80.2648 -1353.8915  2150.0078     2.1523    16.0000
  1666.0366  6774.8896 6774934.0000     8.5000     8.5407     8.5407    10.3999   104.9609   208.6633   104.9609     4.0000    -999.25    43.3732    97.3303    10.3999     8.5536    -999.25    -999.25    -999.25  1666.0365     6.1380     0.4496     1.0000 22227.4746     0.3306     2.3330    10.3999   108.1579   -79.7850 -1353.9430  2141.0117     1.9880    16.0000
  1666.1890  6944.3931 6944387.0000     8.5000     8.6704     8.6704    10.4861   103.8386   203.4194   103.8386     4.0000    -999.25    44.5072   100.4489    10.4861     8.6448    -999.25    -999.25    -999.25  1666.1890     6.7115     0.4458     1.0000 22783.4238     0.3238     2.3658    10.4861   109.9583   -79.5621 -1353.9945  2115.0342     1.9590    16.0000
  1666.3414  6986.7231 6986691.0000     8.5000     8.7231     8.7231    10.5981   104.5488   193.6427   104.5488     4.0000    -999.25    45.3502   101.5536    10.5981     8.7509    -999.25    -999.25    -999.25  1666.3413     7.4048     0.4481     1.0000 22922.2148     0.2942     2.3965    10.5981   112.3197   -79.7773 -1354.0459  2114.0012     1.8521    16.0000
  1666.4938  7054.0498 7054055.5000     8.5000     8.7282     8.7282    10.7910   104.5274   194.5971   104.5274     4.0000    -999.25    44.3186   101.3766    10.7910     8.9189    -999.25    -999.25    -999.25  1666.4938     7.0565     0.4539     1.0000 23143.2246     0.2972     2.4191    10.7910   116.4457   -80.1870 -1354.0977  2061.0696     1.8617    16.0000
  1666.6462  7056.3477 7056299.5000     8.5000     8.6976     8.6976    11.0840   105.5301   195.9789   105.5301     4.0000    -999.25    42.8502    98.0073    11.0840     9.1781    -999.25    -999.25    -999.25  1666.6461     7.4590     0.4601     1.0000 23150.5898     0.2958     2.4431    11.0840   122.8550   -80.5693 -1354.1494  2064.9946     1.8571    16.0000
  1666.7986  7257.6353 7257538.0000     8.5000     8.7172     8.7172    11.3819   103.0862   198.7418   103.0862     4.0000    -999.25    42.6887    95.3308    11.3819     9.4593    -999.25    -999.25    -999.25  1666.7986     9.5707     0.4610     1.0000 23810.8223     0.3160     2.4546    11.3819   129.5476   -80.7709 -1354.2012  2098.9553     1.9279    16.0000
  1666.9510  7166.4727 7166406.5000     8.5000     8.8052     8.8052    11.6544   103.7553   221.0119   103.7553     4.0000    -999.25    45.3127    96.3271    11.6544     9.7279    -999.25    -999.25    -999.25  1666.9509     8.1514     0.4570     1.0000 23511.8340     0.3586     2.4395    11.6544   135.8250   -81.0610 -1354.2529  2078.0276     2.1301    16.0000
  1667.1034  7025.2363 7025298.0000     8.5000     8.8549     8.8549    11.8769   104.4355   266.5701   104.4355     4.0000    -999.25    47.1744    95.7162    11.8769     9.9576    -999.25    -999.25    -999.25  1667.1034     7.0343     0.4488     1.0000 23048.8770     0.4093     2.4071    11.8769   141.0607   -81.7429 -1354.3047  2117.9475     2.5524    16.0000
  1667.2559  6952.1284 6952156.5000     8.5000     8.8562     8.8562    12.0059   104.8016   258.2040   104.8016     4.0000    -999.25    48.2824    97.8458    12.0059    10.1163    -999.25    -999.25    -999.25  1667.2559     7.2052     0.4463     1.0000 22808.9121     0.4014     2.3904    12.0059   144.1416   -82.0906 -1354.3566  2119.9988     2.4638    16.0000
  1667.4082  6941.9888 6941937.0000     8.5000     8.8250     8.8250    12.0538   104.8668   265.7951   104.8668     4.0000    -999.25    48.1544    97.1284    12.0538    10.1991    -999.25    -999.25    -999.25  1667.4082     7.0562     0.4540     1.0000 22775.3828     0.4078     2.3884    12.0538   145.2941   -82.0140 -1354.4082  2108.0159     2.5346    16.0000
  1667.5607  6909.0991 6909063.5000     8.5000     8.8172     8.8172    12.0373   104.6778   258.0103   104.6778     4.0000    -999.25    47.6127   101.2232    12.0373    10.2067    -999.25    -999.25    -999.25  1667.5607     7.5920     0.4663     1.0000 22667.5312     0.4015     2.3728    12.0373   144.8966   -81.8061 -1354.4601  2104.0027     2.4648    16.0000
  1667.7130  6937.8623 6937902.5000     8.5000     8.8640     8.8640    11.9161   102.7413   241.9331   102.7413     4.0000    -999.25    48.3781   101.6154    11.9161    10.1341    -999.25    -999.25    -999.25  1667.7130     8.4169     0.4733     1.0000 22762.1465     0.3900     2.3386    11.9161   141.9934   -81.4242 -1354.5117  2075.0381     2.3547    16.0000
  1667.8654  6931.8481 6931960.0000     8.5000     8.8915     8.8915    11.6817   101.7664   226.6671   101.7664     4.0000    -999.25    52.2469   104.1045    11.6817     9.9854    -999.25    -999.25    -999.25  1667.8654     8.1197     0.4626     1.0000 22742.6504     0.3737     2.3144    11.6817   136.4621   -81.1038 -1354.5635  2018.0748     2.2274    16.0000
  1668.0178  7001.9434 7002034.5000     8.5000     8.8721     8.8721    11.4862   100.9348   217.0301   100.9348     4.0000    -999.25    60.3772   101.7644    11.4862     9.8575    -999.25    -999.25    -999.25  1668.0177     7.9481     0.4509     1.0000 22972.5527     0.3620     2.3187    11.4862   131.9328   -81.1734 -1354.6152  1889.1693     2.1502    16.0000
  1668.1702  7116.0552 7116080.5000     8.5000     8.8429     8.8429    11.4325   100.4770   187.3661   100.4770     4.0000    -999.25    67.2843    97.2452    11.4325     9.8499    -999.25    -999.25    -999.25  1668.1702     8.3489     0.4376     1.0000 23346.7188     0.2982     2.3458    11.4325   130.7021   -81.3610 -1354.6669  1813.0997     1.8648    16.0000
  1668.3226  6869.4902 6869437.5000     8.5000     8.8498     8.8498    11.5440   105.5609   187.2681   105.5609     4.0000    -999.25    68.2195    93.2099    11.5440     9.9829    -999.25    -999.25    -999.25  1668.3225     8.5798     0.4334     1.0000 22537.5254     0.2671     2.3791    11.5440   133.2639   -81.4584 -1354.7186  1670.1876     1.7740    16.0000
  1668.4750  6950.2148 6950109.5000     8.5000     8.8463     8.8463    11.8137   105.0014   196.5473   105.0014     4.0000    -999.25    66.4295    91.0406    11.8137    10.2394    -999.25    -999.25    -999.25  1668.4750     8.7351     0.4401     1.0000 22802.1953     0.3003     2.3943    11.8137   139.5635   -81.4928 -1354.7704  1581.1168     1.8719    16.0000
  1668.6274  6995.8071 6995749.5000     8.5000     8.8463     8.8463    12.0850   103.7638   196.6476   103.7638     4.0000    -999.25    60.0604    94.4363    12.0850    10.4926    -999.25    -999.25    -999.25  1668.6273     9.4376     0.4502     1.0000 22951.9336     0.3071     2.3816    12.0850   146.0472   -81.6248 -1354.8221  1557.0315     1.8952    16.0000
  1668.7798  6941.6538 6941682.5000     8.5000     8.8676     8.8676    12.2406   103.3526   193.4608   103.3526     4.0000    -999.25    53.3662    98.0624    12.2405    10.6438    -999.25    -999.25    -999.25  1668.7798     9.2746     0.4485     1.0000 22774.5488     0.3003     2.3538    12.2405   149.8298   -81.8123 -1354.8739  1557.0000     1.8718    16.0000
  1668.9323  7003.2451 7003287.5000     8.5000     8.8829     8.8829    12.2090   101.5602   185.4524   101.5602     4.0000    -999.25    53.8536    96.9896    12.2090    10.6424    -999.25    -999.25    -999.25  1668.9323     8.8414     0.4302     1.0000 22976.6660     0.2858     2.3335    12.2090   149.0597   -82.0550 -1354.9258  1632.9501     1.8260    16.0000
