~Version ---------------------------------------------------
VERS. 2.0 : CWLS log ASCII Standard -VERSION 2.0
WRAP.  NO : 
~Well ------------------------------------------------------
STRT.m                                                   1250.0 : 
STOP.m                                                1661.9372 : 
STEP.m                                                   0.1524 : 
NULL.                                                   -999.25 : 
COMP.                                                           : COMPANY
WELL.                                                    Well-7 : WELL
FLD .                                                           : FIELD
LOC .                                                           : LOCATION
SRVC.                                                           : SERVICE COMPANY
DATE. 2021-01-20 14:34:01   : Log Export Date {yyyy-MM-dd HH:mm : ss}
PROV.                                                           : PROVINCE
UWI .                                                    Well-7 : UNIQUE WELL ID
API .                                                           : API NUMBER
~Curve Information -----------------------------------------
DEPTH             .m        : DEPTH
ACOUSTICIMPEDANCE1.kPa.s/m  : ACOUSTICIMPEDANCE1
AI                .kPa.s/m  : AI
AVG_PIGN          .m3/m3    : AVG_PIGN
CALI              .in       : CALI
CALI[DERIVED]1    .in       : CALI[DERIVED]1
DEVI              .deg      : DEVI
DFL               .ohm.m    : DFL
DT                .us/ft    : DT
FACIES            ._        : FACIES
FLD1              ._        : FLD1
GR                .gAPI     : GR
HDRS              .ohm.m    : HDRS
HMRS              .ohm.m    : HMRS
DEPTH_1           .m        : DEPTH_1
NPHI              .m3/m3    : NPHI
PEF               .b/e      : PEF
PERF_INT          ._        : PERF_INT
PERMEABILITY      .mD       : PERMEABILITY
PIGN              .m3/m3    : PIGN
PIGN_MODELLING    .m3/m3    : PIGN_MODELLING
PIMP              .kPa.s/m  : PIMP
RHOB              .g/cm3    : RHOB
LLD               .ohm.m    : LLD
RT_MODELLING      .ohm.m    : RT_MODELLING
RT_POWER          .ohm.m    : RT_POWER
SP                .mV       : SP
SUWI              ._        : SUWI
SUWI_MODELLING    ._        : SUWI_MODELLING
SXWI              ._        : SXWI
TDVSS             .m        : TDVSS
VCL               .%        : VCL
WATER_VOL         ._        : WATER_VOL
ZLT               ._        : ZLT
~Params ----------------------------------------------------
~Other -----------------------------------------------------
~ASCII -----------------------------------------------------
# ...
  1332.1436  4992.9375 4992795.5000    -999.25     9.0273     9.0273     0.7932     1.2750   139.1988     0.0000    -999.25    79.3500     1.2252     1.1997  1332.1436     0.6052     5.8333    -999.25    -999.25     0.0305     0.0305 16380.5625     2.2802     1.2617     1.2617     1.5920  -197.8878     1.0000     1.0000     1.0000 -1244.7736    81.6790     0.0305     0.0000
  1332.1676  5006.1597 5006160.0000    -999.25     9.0383     9.0383     0.7800     1.2885   138.9937     0.0000    -999.25    79.0148     1.2329     1.2076  1332.1676     0.6005     5.8382    -999.25    -999.25     0.0312     0.0312 16424.4082     2.2829     1.2686     1.2686     1.6095  -197.8870     1.0000     1.0000     1.0000 -1244.7976    81.2793     0.0312     0.0000
  1332.2960  5078.9053 5078372.0000    -999.25     9.0970     9.0970     0.6798     1.3608   137.8599     0.0000    -999.25    77.2214     1.2746     1.2501  1332.2960     0.5749     5.8459    -999.25    -999.25     0.0348     0.0348 16661.3262     2.2972     1.3051     1.3051     1.7032  -197.8991     1.0000     1.0000     1.0000 -1244.9260    79.1410     0.0348     0.0000
  1332.3201  5091.9263 5091926.0000    -999.25     9.1052     9.1052     0.6610     1.3701   137.6471     0.0000    -999.25    76.7367     1.2810     1.2572  1332.3201     0.5725     5.8474    -999.25    -999.25     0.0354     0.0354 16705.7949     2.2995     1.3113     1.3113     1.7196  -197.9014     1.0000     1.0000     1.0000 -1244.9501    78.7632     0.0354     0.0000
  1332.4484  5172.8594 5173136.0000    -999.25     9.1488     9.1488     0.6406     1.4196   136.2257     0.0000    -999.25    74.1559     1.3150     1.2953  1332.4484     0.5597     5.8311    -999.25    -999.25     0.0388     0.0388 16972.2324     2.3119     1.3442     1.3442     1.8068  -197.9140     1.0000     1.0000     1.0000 -1245.0784    76.7520     0.0388     0.0000
  1332.4724  5188.3276 5188327.5000    -999.25     9.1517     9.1517     0.6368     1.4237   135.9598     0.0000    -999.25    73.7347     1.3211     1.3025  1332.4724     0.5572     5.8280    -999.25    -999.25     0.0392     0.0392 17022.0723     2.3143     1.3506     1.3506     1.8244  -197.9164     1.0000     1.0000     1.0000 -1245.1024    76.4603     0.0392     0.0000
  1332.6008  5297.3174 5297853.5000    -999.25     9.1674     9.1674     0.5861     1.4459   133.8974     0.0000    -999.25    71.4814     1.3539     1.3412  1332.6008     0.5437     5.7929    -999.25    -999.25     0.0418     0.0418 17381.4102     2.3271     1.3851     1.3851     1.9186  -197.9319     1.0000     1.0000     1.0000 -1245.2308    74.9000     0.0418     0.0000
  1332.6248  5318.3257 5318325.5000    -999.25     9.1724     9.1724     0.5766     1.4576   133.5119     0.0000    -999.25    71.2287     1.3606     1.3492  1332.6248     0.5424     5.7863    -999.25    -999.25     0.0420     0.0420 17448.5762     2.3296     1.3911     1.3911     1.9353  -197.9348     1.0000     1.0000     1.0000 -1245.2548    74.7850     0.0420     0.0000
  1332.7532  5450.6880 5450829.5000    -999.25     9.1992     9.1992     0.5555     1.5204   131.0184     0.0000    -999.25    69.8766     1.3966     1.3921  1332.7532     0.5359     5.7459    -999.25    -999.25     0.0430     0.0430 17883.2988     2.3430     1.4228     1.4228     2.0244  -197.9477     1.0000     1.0000     1.0000 -1245.3832    74.1700     0.0430     0.0000
  1332.7772  5475.5962 5475596.5000    -999.25     9.2079     9.2079     0.5515     1.5474   130.5523     0.0000    -999.25    69.6799     1.4023     1.3983  1332.7772     0.5353     5.7384    -999.25    -999.25     0.0430     0.0430 17964.5547     2.3453     1.4256     1.4256     2.0324  -197.9501     1.0000     1.0000     1.0000 -1245.4072    74.1961     0.0430     0.0000
  1332.9056  5582.1313 5580645.0000    -999.25     9.2545     9.2545     0.6259     1.6920   128.7425     0.0000    -999.25    68.6275     1.4333     1.4312  1332.9056     0.5324     5.7219    -999.25    -999.25     0.0428     0.0428 18309.2031     2.3578     1.4405     1.4405     2.0752  -197.9525     1.0000     1.0000     1.0000 -1245.5356    74.3360     0.0428     0.0000
  1332.9296  5600.2808 5600280.5000    -999.25     9.2743     9.2743     0.6398     1.7113   128.4042     0.0000    -999.25    68.4119     1.4350     1.4320  1332.9296     0.5329     5.7188    -999.25    -999.25     0.0425     0.0425 18373.6230     2.3593     1.4384     1.4384     2.0689  -197.9530     1.0000     1.0000     1.0000 -1245.5596    74.4939     0.0425     0.0000
  1333.0580  5622.6914 5620012.0000    -999.25     9.3801     9.3801     0.8038     1.8148   128.3130     0.0000    -999.25    67.2587     1.4438     1.4360  1333.0580     0.5358     5.7178    -999.25    -999.25     0.0411     0.0411 18438.3594     2.3670     1.4267     1.4267     2.0355  -197.9530     1.0000     1.0000     1.0000 -1245.6880    75.3390     0.0411     0.0000
  1333.0820  5623.7002 5623700.0000    -999.25     9.3953     9.3953     0.8345     1.8049   128.2960     0.0000    -999.25    67.0721     1.4399     1.4308  1333.0820     0.5368     5.7176    -999.25    -999.25     0.0407     0.0407 18450.4590     2.3671     1.4219     1.4219     2.0218  -197.9530     1.0000     1.0000     1.0000 -1245.7120    75.5557     0.0407     0.0000
  1333.2104  5550.0962 5548433.0000    -999.25     9.4765     9.4765     0.7877     1.7522   130.0298     0.0000    -999.25    66.0737     1.4192     1.4028  1333.2104     0.5422     5.7259    -999.25    -999.25     0.0388     0.0388 18203.5195     2.3677     1.3960     1.3960     1.9488  -197.9400     1.0000     1.0000     1.0000 -1245.8403    76.7150     0.0388     0.0000
  1333.2344  5534.3643 5534364.5000    -999.25     9.4505     9.4505     0.7790     1.7235   130.3539     0.0000    -999.25    65.9911     1.4139     1.3968  1333.2344     0.5436     5.7274    -999.25    -999.25     0.0384     0.0384 18157.3633     2.3669     1.3935     1.3935     1.9418  -197.9376     1.0000     1.0000     1.0000 -1245.8644    76.9435     0.0384     0.0000
  1333.3628  5438.0532 5437662.5000    -999.25     9.3111     9.3111     0.7514     1.5695   132.4146     0.0000    -999.25    65.5496     1.3859     1.3647  1333.3628     0.5510     5.7389    -999.25    -999.25     0.0364     0.0364 17840.0996     2.3625     1.3800     1.3800     1.9043  -197.9293     1.0000     1.0000     1.0000 -1245.9928    78.1660     0.0364     0.0000
  1333.3868  5419.5874 5419587.5000    -999.25     9.2920     9.2920     0.7463     1.5552   132.7998     0.0000    -999.25    65.5815     1.3846     1.3635  1333.3868     0.5525     5.7410    -999.25    -999.25     0.0361     0.0361 17780.7988     2.3613     1.3823     1.3823     1.9108  -197.9278     1.0000     1.0000     1.0000 -1246.0167    78.3304     0.0361     0.0000
  1333.5152  5382.5244 5383295.5000    -999.25     9.1901     9.1901     0.7287     1.4788   133.3588     0.0000    -999.25    65.7521     1.3775     1.3573  1333.5151     0.5609     5.7449    -999.25    -999.25     0.0347     0.0347 17661.7305     2.3550     1.3948     1.3948     1.9454  -197.9314     1.0000     1.0000     1.0000 -1246.1451    79.2100     0.0347     0.0000
  1333.5392  5376.5117 5376512.0000    -999.25     9.1849     9.1849     0.7254     1.4774   133.4633     0.0000    -999.25    65.7637     1.3811     1.3619  1333.5392     0.5625     5.7456    -999.25    -999.25     0.0350     0.0350 17639.4746     2.3542     1.4016     1.4016     1.9648  -197.9321     1.0000     1.0000     1.0000 -1246.1692    78.9977     0.0350     0.0000
  1333.6676  5422.1929 5422902.5000    -999.25     9.1570     9.1570     0.6176     1.4700   132.1021     0.0000    -999.25    65.8256     1.4006     1.3862  1333.6676     0.5710     5.7523    -999.25    -999.25     0.0369     0.0369 17791.6758     2.3500     1.4382     1.4382     2.0685  -197.9388     1.0000     1.0000     1.0000 -1246.2976    77.8620     0.0369     0.0000
  1333.6917  5431.6104 5431610.0000    -999.25     9.1580     9.1580     0.5974     1.4797   131.8466     0.0000    -999.25    65.7149     1.4087     1.3951  1333.6917     0.5689     5.7535    -999.25    -999.25     0.0379     0.0379 17820.2441     2.3495     1.4480     1.4480     2.0973  -197.9400     1.0000     1.0000     1.0000 -1246.3217    77.2720     0.0379     0.0000
