~Version ---------------------------------------------------
VERS. 2.0 : CWLS log ASCII Standard -VERSION 2.0
WRAP.  NO : 
~Well ------------------------------------------------------
STRT.m                                                   1300.0 : 
STOP.m                                                 1514.884 : 
STEP.m                                                   0.1524 : 
NULL.                                                   -999.25 : 
COMP.                                                           : COMPANY
WELL.                                                    Well-2 : WELL
FLD .                                                           : FIELD
LOC .                                                           : LOCATION
SRVC.                                                           : SERVICE COMPANY
DATE. 2021-01-20 14:33:59   : Log Export Date {yyyy-MM-dd HH:mm : ss}
PROV.                                                           : PROVINCE
UWI .                                                    Well-2 : UNIQUE WELL ID
API .                                                           : API NUMBER
~Curve Information -----------------------------------------
DEPTH             .m        : DEPTH
ACOUSTICIMPEDANCE1.kPa.s/m  : ACOUSTICIMPEDANCE1
AI                .kPa.s/m  : AI
AVG_PIGN          .m3/m3    : AVG_PIGN
CALI              .in       : CALI
CALI[DERIVED]1    .in       : CALI[DERIVED]1
DT                .us/ft    : DT
FACIES            ._        : FACIES
FLD1              ._        : FLD1
GR                .gAPI     : GR
LLD               .ohm.m    : LLD
LLS               .ohm.m    : LLS
LL3               .ohm.m    : LL3
DEPTH_1           .m        : DEPTH_1
NPHI              .m3/m3    : NPHI
PERF_INT          ._        : PERF_INT
PERMEABILITY      .mD       : PERMEABILITY
PIGN              .m3/m3    : PIGN
PIGN_MODELLING    .m3/m3    : PIGN_MODELLING
PIMP              .kPa.s/m  : PIMP
RHOB              .g/cm3    : RHOB
RT_MODELLING      .ohm.m    : RT_MODELLING
RT_POWER          .ohm.m    : RT_POWER
SP                .mV       : SP
SUWI              ._        : SUWI
SUWI_MODELLING    ._        : SUWI_MODELLING
TDVSS             .m        : TDVSS
VCL               .%        : VCL
WATER_VOL         ._        : WATER_VOL
ZLT               ._        : ZLT
~Params ----------------------------------------------------
~Other -----------------------------------------------------
~ASCII -----------------------------------------------------
# ...
  1399.0600  2606.3508 2619930.5000    -999.25     9.6411     9.6411   148.7939     3.0000    -999.25    25.5958     9.2317    13.8342    27.7030  1399.0599     0.7079    -999.25    16.9829     0.0001     0.0100  8595.5723     1.2723     9.2317    85.2250    44.2363     1.0000     1.0000 -1323.0599     0.0000     0.0001     3.0000
  1399.1844  2770.6333 2770633.2500    -999.25     9.6484     9.6484   147.4830     3.0000    -999.25    36.1248     7.7965    10.2387    20.6103  1399.1844     0.7139    -999.25    18.5232     0.0001     0.0100  9090.0039     1.3406     7.7965    61.2492    44.7522     1.0000     1.0000 -1323.1844     0.0000     0.0001     3.0000
  1399.2124  2815.4749 2834526.7500    -999.25     9.6500     9.6500   146.7979     3.0000    -999.25    38.4946     7.4735     9.4294    19.0139  1399.2124     0.7153    -999.25    18.8699     0.0001     0.0100  9299.6289     1.3560     7.4735    55.8528    44.8684     1.0000     1.0000 -1323.2124     0.0000     0.0001     3.0000
  1399.3368  3118.3970 3118397.0000    -999.25     9.6634     9.6634   143.7540     3.0000    -999.25    51.5046     6.3670     7.1803    14.7175  1399.3368     0.6989    -999.25    20.4102     0.0012     0.0100 10230.9619     1.4707     6.3670    40.8142    45.2645     1.0000     1.0000 -1323.3368     0.1747     0.0012     3.0000
  1399.3648  3196.6533 3217720.2500    -999.25     9.6665     9.6665   142.6975     0.0000    -999.25    54.4328     6.1179     6.6741    13.7504  1399.3647     0.6952    -999.25    20.7569     0.0015     0.0100 10556.8252     1.4966     6.1179    37.4293    45.3537     1.0000     1.0000 -1323.3647     0.2140     0.0015     3.0000
  1399.4893  3659.3540 3659354.0000    -999.25     9.6716     9.6716   138.0000     0.0000    -999.25    64.9775     5.3116     5.3711    10.2275  1399.4894     0.6585    -999.25    22.2984     0.0261     0.0276 12005.7549     1.6568     5.3116    28.3583    45.6408     0.9992     0.9992 -1323.4894     4.1336     0.0261     4.0000
  1399.5172  3772.4214 3785818.2500    -999.25     9.6727     9.6727   136.7649     0.0000    -999.25    67.3405     5.1308     5.0791     9.4380  1399.5172     0.6503    -999.25    22.6439     0.0316     0.0316 12420.6641     1.6927     5.1308    26.3255    45.7051     0.9990     0.9990 -1323.5172     5.0120     0.0316     4.0000
  1399.6416  4349.6948 4349694.5000    -999.25     9.6778     9.6778   131.2580     0.0000    -999.25    73.6965     4.5544     4.3206     6.3862  1399.6416     0.6137    -999.25    24.1841     0.1149     0.1149 14270.6514     1.8731     4.5544    20.8177    45.9465     0.9809     0.9809 -1323.6416    21.1913     0.1124     4.0000
  1399.6696  4481.6553 4478736.0000    -999.25     9.6789     9.6789   130.1553     0.0000    -999.25    75.1272     4.4247     4.1498     5.6993  1399.6696     0.6055    -999.25    24.5308     0.1337     0.1337 14694.0166     1.9138     4.4247    19.5780    46.0009     0.9768     0.9768 -1323.6696    24.8330     0.1306     4.0000
  1399.7941  5052.5107 5052511.0000    -999.25     9.6839     9.6839   125.2520     0.0000    -999.25    76.9287     4.0259     3.6964     4.5709  1399.7941     0.5780    -999.25     5.4858     0.1163     0.1163 16576.4805     2.0762     4.0259    16.2437    46.1281     0.9046     0.9046 -1323.7941    36.3043     0.1055     4.0000
  1399.8220  5169.0483 5149984.0000    -999.25     9.6851     9.6851   124.5753     0.0000    -999.25    77.3324     3.9366     3.5947     4.3181  1399.8219     0.5719    -999.25     1.2178     0.1125     0.1125 16896.2734     2.1126     3.9366    15.4965    46.1566     0.8884     0.8884 -1323.8219    38.8750     0.0999     4.0000
  1399.9464  5584.5957 5584595.5000    -999.25     9.6891     9.6891   121.5580     0.0000    -999.25    78.3128     3.6932     3.3257     4.0700  1399.9464     0.5505    -999.25     0.6163     0.1016     0.1016 18322.1641     2.2272     3.6932    13.6528    46.0681     0.8515     0.8515 -1323.9464    46.4794     0.0866     4.0000
  1399.9744  5661.1934 5634815.0000    -999.25     9.6900     9.6900   121.3015     0.0000    -999.25    78.5334     3.6384     3.2652     4.0142  1399.9744     0.5457    -999.25     0.4810     0.0992     0.0992 18486.9258     2.2530     3.6384    13.2378    46.0482     0.8432     0.8432 -1323.9744    48.1910     0.0836     4.0000
  1400.0988  5857.9336 5857933.5000    -999.25     9.6867     9.6867   120.1620     0.0000    -999.25    80.9128     3.5378     3.1385     3.9653  1400.0988     0.5258    -999.25     1.7492     0.0966     0.0966 19218.9414     2.3094     3.5378    12.5185    45.8851     0.8365     0.8365 -1324.0988    50.4145     0.0808     4.0000
  1400.1268  5888.4751 5861351.5000    -999.25     9.6860     9.6860   120.1958     0.0000    -999.25    81.4483     3.5152     3.1100     3.9543  1400.1267     0.5213    -999.25     2.0346     0.0961     0.0961 19230.1543     2.3221     3.5152    12.3566    45.8484     0.8350     0.8350 -1324.1267    50.9150     0.0802     4.0000
  1400.2512  5876.5371 5876537.0000    -999.25     9.6897     9.6897   120.3460     0.0000    -999.25    82.4102     3.5508     3.1298     4.0667  1400.2512     0.5050    -999.25     2.3060     0.1002     0.1002 19279.9766     2.3203     3.5508    12.6083    45.5896     0.8525     0.8525 -1324.2512    47.5462     0.0855     4.0000
  1400.2792  5864.9116 5836970.5000    -999.25     9.6905     9.6905   120.5633     0.0000    -999.25    82.6267     3.5588     3.1342     4.0920  1400.2792     0.5013    -999.25     2.3671     0.1012     0.1012 19150.1660     2.3199     3.5588    12.6650    45.5314     0.8564     0.8564 -1324.2792    46.7880     0.0866     4.0000
  1400.4036  5661.1836 5661183.5000    -999.25     9.6875     9.6875   121.5290     0.0000    -999.25    77.5399     3.7288     3.3281     4.7187  1400.4036     0.4933    -999.25     0.6556     0.0892     0.0892 18573.4375     2.2572     3.7288    13.9103    45.2518     0.9084     0.9084 -1324.4036    33.9701     0.0809     4.0000
  1400.4316  5607.2192 5579939.0000    -999.25     9.6868     9.6868   121.9321     0.0000    -999.25    76.3950     3.7670     3.3717     4.8597  1400.4315     0.4915    -999.25     0.2704     0.0865     0.0865 18306.8887     2.2431     3.7670    14.1906    45.1889     0.9201     0.9201 -1324.4315    31.0850     0.0796     4.0000
  1400.5560  5218.9824 5218982.5000    -999.25     9.6806     9.6806   123.7230     0.0000    -999.25    65.0759     4.0737     3.7780     6.8160  1400.5560     0.4907    -999.25     0.0497     0.0160     0.0241 17122.6465     2.1185     4.0737    16.6160    44.8816     0.9853     0.9853 -1324.5560     5.7112     0.0147     4.0000
  1400.5840  5120.3945 5102061.5000    -999.25     9.6791     9.6791   124.4351     0.0000    -999.25    62.5281     4.1427     3.8694     7.2563  1400.5840     0.4906    -999.25     0.0000     0.0001     0.0100 16739.0469     2.0904     4.1427    17.1619    44.8125     1.0000     1.0000 -1324.5840     0.0000     0.0001     4.0000
  1400.7084  4582.5972 4582597.0000    -999.25     9.6684     9.6684   127.5990     0.0000    -999.25    48.1272     4.6037     4.5352    10.6129  1400.7084     0.4952    -999.25     0.0000     0.0001     0.0100 15034.7676     1.9184     4.6037    21.2416    44.5353     1.0000     1.0000 -1324.7084     0.0000     0.0001     4.0000
  1400.7364  4453.4219 4453429.5000    -999.25     9.6659     9.6659   128.6507     0.0000    -999.25    44.8858     4.7074     4.6851    11.3685  1400.7363     0.4962    -999.25     0.0000     0.0001     0.0100 14610.9902     1.8797     4.7074    22.1599    44.4730     1.0000     1.0000 -1324.7363     0.0000     0.0001     4.0000
  1400.8608  3879.5574 3879557.5000    -999.25     9.6573     9.6573   133.3230     3.0000    -999.25    32.4624     5.3675     5.6548    14.7744  1400.8608     0.5069    -999.25     0.0000     0.0001     0.0100 12728.2070     1.6970     5.3675    28.9076    44.2314     1.0000     1.0000 -1324.8608     0.0000     0.0001     4.0000
  1400.8888  3752.4976 3770061.0000    -999.25     9.6554     9.6554   134.4963     3.0000    -999.25    29.6661     5.5160     5.8731    15.5410  1400.8888     0.5093    -999.25     0.0000     0.0001     0.0100 12368.9668     1.6558     5.5160    30.4264    44.1770     1.0000     1.0000 -1324.8888     0.0000     0.0001     4.0000
