~Version ---------------------------------------------------
VERS. 2.0 : CWLS log ASCII Standard -VERSION 2.0
WRAP.  NO : 
~Well ------------------------------------------------------
STRT.m                                                   1280.0 : 
STOP.m                                                 1564.988 : 
STEP.m                                                   0.1524 : 
NULL.                                                   -999.25 : 
COMP.                                                           : COMPANY
WELL.                                                   Well-11 : WELL
FLD .                                                           : FIELD
LOC .                                                           : LOCATION
SRVC.                                                           : SERVICE COMPANY
DATE. 2021-01-20 14:34:05   : Log Export Date {yyyy-MM-dd HH:mm : ss}
PROV.                                                           : PROVINCE
UWI .                                                   Well-11 : UNIQUE WELL ID
API .                                                           : API NUMBER
~Curve Information -----------------------------------------
DEPTH             .m        : DEPTH
ACOUSTICIMPEDANCE1.kPa.s/m  : ACOUSTICIMPEDANCE1
AI                .kPa.s/m  : AI
AVG_PIGN          .m3/m3    : AVG_PIGN
CALI              .in       : CALI
CALI[DERIVED]1    .in       : CALI[DERIVED]1
DFL               .ohm.m    : DFL
DT                .us/ft    : DT
DT1               .us/ft    : DT1
FACIES            ._        : FACIES
FLD1              ._        : FLD1
GR                .gAPI     : GR
HDRS              .ohm.m    : HDRS
HMRS              .ohm.m    : HMRS
DEPTH_1           .m        : DEPTH_1
NPHI              .m3/m3    : NPHI
PERF_INT          ._        : PERF_INT
PERMEABILITY      .mD       : PERMEABILITY
PIGN              .m3/m3    : PIGN
PIGN_MODELLING    .m3/m3    : PIGN_MODELLING
PIMP              .kPa.s/m  : PIMP
RHOB              .g/cm3    : RHOB
LLD               .ohm.m    : LLD
RT_MODELLING      .ohm.m    : RT_MODELLING
RT_POWER          .ohm.m    : RT_POWER
SP                .mV       : SP
SUWI              ._        : SUWI
SUWI_MODELLING    ._        : SUWI_MODELLING
SXWI              ._        : SXWI
TDVSS             .m        : TDVSS
VCL               .%        : VCL
WATER_VOL         ._        : WATER_VOL
ZLT               ._        : ZLT
~Params ----------------------------------------------------
~Other -----------------------------------------------------
~ASCII -----------------------------------------------------
# ...
  1412.4356  3506.2305 3498837.7500    -999.25     9.0944     9.0944    24.4172   146.1405   146.1405     3.0000    -999.25    25.5429    15.7815    13.9114  1412.4357     0.5869    -999.25     0.0000     0.0001     0.0100 11479.1260     1.6811    14.8394    14.8394   220.2078   130.5126     1.0000     1.0000     1.0000 -1332.3157     8.6570     0.0001     5.0000
  1412.4552  3542.7769 3542776.7500    -999.25     9.0941     9.0941    23.4509   145.7618   145.7207     3.0000    -999.25    27.0795    15.1258    13.4287  1412.4552     0.5859    -999.25     0.0000     0.0001     0.0100 11623.2832     1.6942    14.2259    14.2259   204.9269   130.5330     1.0000     1.0000     1.0000 -1332.3352    10.3657     0.0001     5.0000
  1412.5880  3803.9331 3791480.0000    -999.25     9.0919     9.0919    16.9034   142.8779   142.8763     3.0000    -999.25    37.4908    10.6832    10.1585  1412.5880     0.5789    -999.25     0.0000     0.0001     0.0100 12439.2393     1.7831    10.0693    10.0693   101.3908   130.6714     1.0000     1.0000     1.0000 -1332.4680    21.9430     0.0001     5.0000
  1412.6077  3828.3735 3828373.5000    -999.25     9.0901     9.0901    16.2482   142.4501   142.5153     3.0000    -999.25    38.8883    10.3837     9.9004  1412.6077     0.5775    -999.25     0.0000     0.0001     0.0100 12560.2812     1.7892     9.8166     9.8166    96.7953   130.6721     1.0000     1.0000     1.0000 -1332.4877    22.9305     0.0001     5.0000
  1412.7404  3982.2161 3975605.2500    -999.25     9.0780     9.0780    11.8343   140.0833   140.0833     3.0000    -999.25    48.3017     8.3658     8.1619  1412.7405     0.5685    -999.25     0.0000     0.0001     0.0100 13043.3242     1.8302     8.1142     8.1142    65.8402   130.6769     1.0000     1.0000     1.0000 -1332.6205    29.5820     0.0001     5.0000
  1412.7600  3997.3516 3997351.5000    -999.25     9.0814     9.0814    11.6370   139.7337   139.7995     3.0000    -999.25    49.2505     8.2628     8.0860  1412.7600     0.5652    -999.25     0.0000     0.0001     0.0100 13114.6709     1.8326     8.0331     8.0331    64.5754   130.6504     1.0000     1.0000     1.0000 -1332.6400    30.2503     0.0001     5.0000
  1412.8928  4086.7180 4101971.7500    -999.25     9.1048     9.1048    10.2999   137.8765   137.8767     3.0000    -999.25    55.6794     7.5648     7.5720  1412.8928     0.5430    -999.25     0.0000     0.0001     0.0100 13457.9131     1.8486     7.4837     7.4837    56.0058   130.4710     1.0000     1.0000     1.0000 -1332.7728    34.7780     0.0001     5.0000
  1412.9124  4117.4126 4117412.7500    -999.25     9.0982     9.0982    10.3577   137.6024   137.5742     3.0000    -999.25    56.1765     7.4970     7.5332  1412.9124     0.5368    -999.25     0.0000     0.0001     0.0100 13508.5723     1.8588     7.4178     7.4178    55.0527   130.4122     1.0000     1.0000     1.0000 -1332.7924    36.6216     0.0001     5.0000
  1413.0452  4335.7021 4350177.5000    -999.25     9.0532     9.0532    10.7494   135.5244   135.5246     3.0000    -999.25    59.5446     7.0370     7.2698  1413.0453     0.4943    -999.25     0.0000     0.0001     0.0100 14272.2363     1.9278     6.9710     6.9710    48.5948   130.0135     1.0000     1.0000     1.0000 -1332.9252    49.1130     0.0001     5.0000
  1413.0648  4384.5312 4384531.5000    -999.25     9.0352     9.0352    10.8151   135.2177   135.0306     3.0000    -999.25    59.8385     6.9006     7.1424  1413.0648     0.4872    -999.25     0.0000     0.0001     0.0100 14384.9453     1.9451     6.8242     6.8242    46.7153   129.9385     1.0000     1.0000     1.0000 -1332.9447    51.7703     0.0001     5.0000
  1413.1976  4773.5317 4762075.5000    -999.25     8.9132     8.9132    11.2607   131.6828   131.6832     3.0000    -999.25    61.8298     5.9762     6.2794  1413.1976     0.4392    -999.25     0.0000     0.0001     0.0100 15623.6084     2.0623     5.8293     5.8293    33.9807   129.4301     1.0000     1.0000     1.0000 -1333.0776    69.7750     0.0001     5.0000
  1413.2172  4817.7979 4817797.5000    -999.25     8.8944     8.8944    11.0389   131.1611   130.9280     3.0000    -999.25    61.9427     5.8133     6.1135  1413.2172     0.4331    -999.25     0.0009     0.0020     0.0106 15806.4229     2.0732     5.6639     5.6639    32.2654   129.3519     1.0000     1.0000     1.0000 -1333.0972    72.4561     0.0020     5.0000
  1413.3500  5201.2446 5186904.5000    -999.25     8.7673     8.7673     9.5358   125.8107   125.8112     3.0000    -999.25    62.7078     4.7090     4.9893  1413.3500     0.3918    -999.25     0.0073     0.0150     0.0150 17017.4043     2.1469     4.5435     4.5435    20.6434   128.8217     1.0000     1.0000     1.0000 -1333.2300    90.6220     0.0150     5.0000
  1413.3696  5241.3809 5241381.0000    -999.25     8.7613     8.7613     9.2049   125.0210   124.9346     3.0000    -999.25    62.5423     4.5767     4.8569  1413.3695     0.3875    -999.25     6.0241     0.0448     0.0448 17196.1328     2.1499     4.4161     4.4161    19.6117   128.7245     0.9870     0.9870     0.9974 -1333.2495    81.6632     0.0416     5.0000
  1413.5024  5558.6919 5549391.0000    -999.25     8.7208     8.7208     6.9629   118.9943   118.9949     3.0000    -999.25    61.4209     3.6802     3.9600  1413.5024     0.3582    -999.25    46.7911     0.2467     0.2467 18206.6641     2.1701     3.5527     3.5527    12.6217   128.0656     0.8991     0.8991     0.9798 -1333.3824    20.9630     0.2218     5.0000
  1413.5220  5594.8506 5594850.5000    -999.25     8.7219     8.7219     6.7026   118.1048   118.2330     3.0000    -999.25    60.9721     3.5882     3.8695  1413.5220     0.3555    -999.25    49.8405     0.2496     0.2496 18355.8086     2.1679     3.4659     3.4659    12.0637   127.9633     0.9043     0.9043     0.9808 -1333.4020    20.1973     0.2258     5.0000
  1413.6548  5803.5962 5803620.5000    -999.25     8.7292     8.7292     4.9391   113.0701   113.0706     3.0000    -999.25    57.9309     2.9648     3.2567  1413.6548     0.3375    -999.25    70.5022     0.2688     0.2688 19040.7500     2.1529     2.8780     2.8780     8.2829   127.2705     0.9395     0.9395     0.9878 -1333.5348    15.0090     0.2525     5.0000
  1413.6744  5834.4326 5834433.0000    -999.25     8.7265     8.7265     4.8200   112.3270   112.5981     0.0000    -999.25    57.4431     2.9061     3.1980  1413.6743     0.3358    -999.25    73.6682     0.2713     0.2713 19141.8398     2.1501     2.8234     2.8234     7.9920   127.2024     0.9419     0.9419     0.9883 -1333.5543    14.4214     0.2556     5.0000
  1413.8072  5938.1704 5944742.5000    -999.25     8.7078     8.7078     4.0127   109.3963   109.3966     1.0000    -999.25    54.1380     2.5084     2.8003  1413.8073     0.3248    -999.25    95.1194     0.2886     0.2886 19503.7480     2.1313     2.4538     2.4538     6.0211   126.7404     0.9584     0.9584     0.9916 -1333.6873    10.4400     0.2766     5.0000
  1413.8268  5961.0229 5961023.0000    -999.25     8.7008     8.7008     3.9795   108.9638   109.2069     1.0000     0.8374    53.8768     2.4738     2.7637  1413.8268     0.3243    -999.25    95.8893     0.2889     0.2889 19557.1621     2.1310     2.4221     2.4221     5.8734   126.6878     0.9637     0.9637     0.9927 -1333.7068    10.3388     0.2784     6.0000
  1413.9596  6013.6660 6014882.5000    -999.25     8.6531     8.6531     3.7546   107.9216   107.9217     1.0000     0.8205    52.1068     2.2391     2.5155  1413.9596     0.3205    -999.25   101.1058     0.2909     0.2909 19733.8652     2.1293     2.2074     2.2074     4.8726   126.3316     1.0000     1.0000     1.0000 -1333.8396     9.6530     0.2909     6.0000
  1413.9792  6022.8315 6022831.5000    -999.25     8.6494     8.6494     3.7417   107.7678   107.8824     1.0000     0.8180    52.1435     2.2197     2.4928  1413.9791     0.3206    -999.25   101.8437     0.2915     0.2915 19759.9453     2.1295     2.1898     2.1898     4.7972   126.2794     1.0000     1.0000     1.0000 -1333.8591     9.5671     0.2915     6.0000
