~Version ---------------------------------------------------
VERS. 2.0 : CWLS log ASCII Standard -VERSION 2.0
WRAP.  NO : 
~Well ------------------------------------------------------
STRT.m                                                   1280.0 : 
STOP.m                                                 1564.988 : 
STEP.m                                                   0.1524 : 
NULL.                                                   -999.25 : 
COMP.                                                           : COMPANY
WELL.                                                   Well-11 : WELL
FLD .                                                           : FIELD
LOC .                                                           : LOCATION
SRVC.                                                           : SERVICE COMPANY
DATE. 2021-01-20 14:34:05   : Log Export Date {yyyy-MM-dd HH:mm : ss}
PROV.                                                           : PROVINCE
UWI .                                                   Well-11 : UNIQUE WELL ID
API .                                                           : API NUMBER
~Curve Information -----------------------------------------
DEPTH             .m        : DEPTH
ACOUSTICIMPEDANCE1.kPa.s/m  : ACOUSTICIMPEDANCE1
AI                .kPa.s/m  : AI
AVG_PIGN          .m3/m3    : AVG_PIGN
CALI              .in       : CALI
CALI[DERIVED]1    .in       : CALI[DERIVED]1
DFL               .ohm.m    : DFL
DT                .us/ft    : DT
DT1               .us/ft    : DT1
FACIES            ._        : FACIES
FLD1              ._        : FLD1
GR                .gAPI     : GR
HDRS              .ohm.m    : HDRS
HMRS              .ohm.m    : HMRS
DEPTH_1           .m        : DEPTH_1
NPHI              .m3/m3    : NPHI
PERF_INT          ._        : PERF_INT
PERMEABILITY      .mD       : PERMEABILITY
PIGN              .m3/m3    : PIGN
PIGN_MODELLING    .m3/m3    : PIGN_MODELLING
PIMP              .kPa.s/m  : PIMP
RHOB              .g/cm3    : RHOB
LLD               .ohm.m    : LLD
RT_MODELLING      .ohm.m    : RT_MODELLING
RT_POWER          .ohm.m    : RT_POWER
SP                .mV       : SP
SUWI              ._        : SUWI
SUWI_MODELLING    ._        : SUWI_MODELLING
SXWI              ._        : SXWI
TDVSS             .m        : TDVSS
VCL               .%        : VCL
WATER_VOL         ._        : WATER_VOL
ZLT               ._        : ZLT
~Params ----------------------------------------------------
~Other -----------------------------------------------------
~ASCII -----------------------------------------------------
# ...
  1336.9976  5960.3623 5957791.5000    -999.25     9.0365     9.0365     2.4817   122.3836   122.3836     0.0000    -999.25    60.4647     1.9516     1.9414  1336.9977     0.4775    -999.25    -999.25     0.0615     0.0615 19546.5586     2.3932     1.9568     1.9568     3.8291   141.0039     1.0000     1.0000     1.0000 -1256.8777    63.1260     0.0615     0.0000
  1337.0172  5963.1099 5963109.5000    -999.25     9.0297     9.0297     2.4908   122.2337   122.2455     0.0000    -999.25    60.5589     1.9583     1.9476  1337.0172     0.4761    -999.25    -999.25     0.0619     0.0619 19564.0078     2.3914     1.9637     1.9637     3.8566   140.9528     1.0000     1.0000     1.0000 -1256.8972    62.8829     0.0619     0.0000
  1337.1500  5977.3804 5976888.5000    -999.25     8.9836     8.9836     2.5521   121.3100   121.3101     0.0000    -999.25    61.1967     2.0038     1.9900  1337.1500     0.4670    -999.25    -999.25     0.0646     0.0646 19609.2148     2.3790     2.0107     2.0107     4.0429   140.6068     1.0000     1.0000     1.0000 -1257.0300    61.2360     0.0646     0.0000
  1337.1696  5978.9224 5978922.0000    -999.25     8.9831     8.9831     2.5583   121.1737   121.2113     0.0000    -999.25    61.4334     2.0133     2.0018  1337.1696     0.4663    -999.25    -999.25     0.0649     0.0649 19615.8867     2.3769     2.0206     2.0206     4.0835   140.5377     1.0000     1.0000     1.0000 -1257.0496    61.0707     0.0649     0.0000
  1337.3024  5974.9727 5976330.5000    -999.25     8.9799     8.9799     2.6004   120.5417   120.5417     0.0000    -999.25    63.0371     2.0778     2.0822  1337.3025     0.4612    -999.25    -999.25     0.0667     0.0667 19607.3848     2.3630     2.0877     2.0877     4.3585   140.0690     1.0000     1.0000     1.0000 -1257.1824    59.9510     0.0667     0.0000
  1337.3220  5975.9482 5975948.0000    -999.25     8.9823     8.9823     2.6289   120.4484   120.5041     0.0000    -999.25    63.1886     2.0888     2.0968  1337.3220     0.4607    -999.25    -999.25     0.0670     0.0670 19606.1289     2.3615     2.0989     2.0989     4.4062   139.9866     1.0000     1.0000     1.0000 -1257.2019    59.8250     0.0670     0.0000
  1337.4548  5961.0610 5963737.0000    -999.25     8.9988     8.9988     2.8219   120.2493   120.2493     0.0000    -999.25    64.2154     2.1636     2.1955  1337.4548     0.4575    -999.25    -999.25     0.0684     0.0684 19566.0645     2.3517     2.1748     2.1748     4.7298   139.4289     1.0000     1.0000     1.0000 -1257.3348    58.9710     0.0684     0.0000
  1337.4744  5961.9346 5961934.5000    -999.25     9.0024     9.0024     2.8398   120.2199   120.2611     0.0000    -999.25    64.1168     2.1715     2.2042  1337.4744     0.4570    -999.25    -999.25     0.0686     0.0686 19560.1523     2.3515     2.1822     2.1822     4.7626   139.3265     1.0000     1.0000     1.0000 -1257.3544    58.8414     0.0686     0.0000
  1337.6072  5951.9834 5954899.5000    -999.25     9.0274     9.0274     2.9606   120.3410   120.3410     0.0000    -999.25    63.4484     2.2253     2.2631  1337.6072     0.4532    -999.25    -999.25     0.0701     0.0701 19537.0723     2.3500     2.2327     2.2327     4.9849   138.6324     1.0000     1.0000     1.0000 -1257.4872    57.9630     0.0701     0.0000
  1337.6268  5953.8613 5953861.0000    -999.25     9.0257     9.0257     2.9669   120.3589   120.3599     0.0000    -999.25    63.2848     2.2281     2.2651  1337.6267     0.4528    -999.25    -999.25     0.0701     0.0701 19533.6660     2.3511     2.2349     2.2349     4.9947   138.5113     1.0000     1.0000     1.0000 -1257.5067    57.9134     0.0701     0.0000
  1337.7596  5966.1816 5967293.5000    -999.25     9.0146     9.0146     3.0091   120.4879   120.4879     0.0000    -999.25    62.1763     2.2475     2.2785  1337.7596     0.4505    -999.25    -999.25     0.0707     0.0707 19577.7344     2.3584     2.2497     2.2497     5.0612   137.6912     1.0000     1.0000     1.0000 -1257.6396    57.5770     0.0707     0.0000
  1337.7792  5969.2759 5969276.0000    -999.25     9.0153     9.0153     3.0046   120.5069   120.4532     0.0000    -999.25    62.1328     2.2489     2.2803  1337.7792     0.4508    -999.25    -999.25     0.0706     0.0706 19584.2383     2.3600     2.2510     2.2510     5.0669   137.5677     1.0000     1.0000     1.0000 -1257.6592    57.6570     0.0706     0.0000
  1337.9120  6011.0288 6010733.5000    -999.25     9.0201     9.0201     2.9744   120.2182   120.2182     0.0000    -999.25    61.8374     2.2583     2.2923  1337.9120     0.4530    -999.25    -999.25     0.0697     0.0697 19720.2559     2.3709     2.2596     2.2596     5.1058   136.7308     1.0000     1.0000     1.0000 -1257.7920    58.1990     0.0697     0.0000
  1337.9316  6016.8525 6016852.5000    -999.25     9.0225     9.0225     2.9834   120.1756   120.1117     0.0000    -999.25    61.9655     2.2606     2.2968  1337.9315     0.4541    -999.25    -999.25     0.0693     0.0693 19740.3301     2.3723     2.2621     2.2621     5.1169   136.6084     1.0000     1.0000     1.0000 -1257.8115    58.3996     0.0693     0.0000
  1338.0644  6081.6245 6078806.5000    -999.25     9.0386     9.0386     3.0438   119.3900   119.3901     0.0000    -999.25    62.8330     2.2762     2.3269  1338.0645     0.4613    -999.25    -999.25     0.0671     0.0671 19943.5898     2.3822     2.2787     2.2787     5.1925   135.7787     1.0000     1.0000     1.0000 -1257.9445    59.7590     0.0671     0.0000
  1338.0840  6087.9507 6087950.5000    -999.25     9.0381     9.0381     3.0608   119.2741   119.2607     0.0000    -999.25    63.0788     2.2783     2.3310  1338.0840     0.4624    -999.25    -999.25     0.0668     0.0668 19973.5898     2.3823     2.2807     2.2807     5.2015   135.6719     1.0000     1.0000     1.0000 -1257.9640    59.9358     0.0668     0.0000
  1338.2168  6136.5317 6136539.0000    -999.25     9.0343     9.0343     3.1760   118.3844   118.3839     0.0000    -999.25    64.7440     2.2921     2.3590  1338.2168     0.4699    -999.25    -999.25     0.0648     0.0648 20133.0020     2.3834     2.2941     2.2941     5.2629   134.9482     1.0000     1.0000     1.0000 -1258.0968    61.1340     0.0648     0.0000
  1338.2365  6143.7466 6143747.0000    -999.25     9.0274     9.0274     3.1837   118.2524   118.2900     0.0000    -999.25    64.9805     2.2919     2.3593  1338.2365     0.4705    -999.25    -999.25     0.0646     0.0646 20156.6504     2.3836     2.2935     2.2935     5.2602   134.8626     1.0000     1.0000     1.0000 -1258.1165    61.2346     0.0646     0.0000
  1338.3692  6177.2983 6178497.0000    -999.25     8.9806     8.9806     3.2355   117.6574   117.6574     0.0000    -999.25    66.5734     2.2902     2.3613  1338.3693     0.4744    -999.25    -999.25     0.0635     0.0635 20270.6602     2.3845     2.2896     2.2896     5.2423   134.2862     1.0000     1.0000     1.0000 -1258.2493    61.9120     0.0635     0.0000
  1338.3888  6183.6299 6183629.5000    -999.25     8.9721     8.9721     3.2356   117.5695   117.6406     0.0000    -999.25    66.7353     2.2878     2.3581  1338.3888     0.4745    -999.25    -999.25     0.0634     0.0634 20287.5000     2.3852     2.2869     2.2869     5.2300   134.2040     1.0000     1.0000     1.0000 -1258.2688    61.9493     0.0634     0.0000
  1338.5216  6197.5044 6195376.5000    -999.25     8.9144     8.9144     3.2365   117.5266   117.5266     0.0000    -999.25    67.8326     2.2714     2.3370  1338.5216     0.4749    -999.25    -999.25     0.0630     0.0630 20326.0391     2.3897     2.2687     2.2687     5.1470   133.6470     1.0000     1.0000     1.0000 -1258.4016    62.2020     0.0630     0.0000
  1338.5413  6197.1191 6197119.0000    -999.25     8.9088     8.9088     3.2290   117.5202   117.5493     0.0000    -999.25    67.8794     2.2692     2.3342  1338.5413     0.4749    -999.25    -999.25     0.0630     0.0630 20331.7559     2.3894     2.2666     2.2666     5.1375   133.5670     1.0000     1.0000     1.0000 -1258.4213    62.2136     0.0630     0.0000
