~Version ---------------------------------------------------
VERS. 2.0 : CWLS log ASCII Standard -VERSION 2.0
WRAP.  NO : 
~Well ------------------------------------------------------
STRT.m                                                 998.5724 : 
STOP.m                                                  1489.91 : 
STEP.m                                                   0.1524 : 
NULL.                                                   -999.25 : 
COMP.                                                           : COMPANY
WELL.                                                    Well-4 : WELL
FLD .                                                           : FIELD
LOC .                                                           : LOCATION
SRVC.                                                           : SERVICE COMPANY
DATE. 2021-01-20 14:34:00   : Log Export Date {yyyy-MM-dd HH:mm : ss}
PROV.                                                           : PROVINCE
UWI .                                                    Well-4 : UNIQUE WELL ID
API .                                                           : API NUMBER
~Curve Information -----------------------------------------
DEPTH             .m        : DEPTH
ACOUSTICIMPEDANCE1.kPa.s/m  : ACOUSTICIMPEDANCE1
AVG_PIGN          .m3/m3    : AVG_PIGN
CALI              .in       : CALI
CALI[DERIVED]1    .in       : CALI[DERIVED]1
DFL               .ohm.m    : DFL
DT                .us/ft    : DT
FACIES            ._        : FACIES
FLD1              ._        : FLD1
GR                .gAPI     : GR
HDRS              .ohm.m    : HDRS
HMRS              .ohm.m    : HMRS
NPHI              .m3/m3    : NPHI
PERF_INT          ._        : PERF_INT
PIGN              .m3/m3    : PIGN
PIGN_MODELLING    .m3/m3    : PIGN_MODELLING
RHOB              .g/cm3    : RHOB
SP                .mV       : SP
SUWI              ._        : SUWI
SUWI_MODELLING    ._        : SUWI_MODELLING
TDVSS             .m        : TDVSS
VCL               .%        : VCL
ZLT               ._        : ZLT
~Params ----------------------------------------------------
~Other -----------------------------------------------------
~ASCII -----------------------------------------------------
# ...
  1291.1804  4426.9292    -999.25     8.9176     8.9176     0.9327   144.7957    -999.25    -999.25    63.1213     0.7609     0.7840     0.6302    -999.25     0.0087     0.0087     2.1030   288.8490     1.0000     1.0000 -1212.5604    93.3220    -999.25
  1291.3328  4421.7324    -999.25     8.9021     8.9021     0.9351   144.5827    -999.25    -999.25    62.9058     0.7627     0.7857     0.6135    -999.25     0.0117     0.0117     2.0975   289.1011     1.0000     1.0000 -1212.7128    91.0250    -999.25
  1291.4852  4413.1431    -999.25     8.8772     8.8772     0.9328   144.4649     0.0000    -999.25    62.0407     0.7655     0.7893     0.6037    -999.25     0.0134     0.0134     2.0917   289.3019     1.0000     1.0000 -1212.8652    89.7290    -999.25
  1291.6376  4407.7969    -999.25     8.8661     8.8661     0.9292   144.4437     0.0000    -999.25    60.6325     0.7685     0.7922     0.6081    -999.25     0.0131     0.0131     2.0888   289.5392     1.0000     1.0000 -1213.0176    89.9420    -999.25
  1291.7900  4392.2690    -999.25     8.8814     8.8814     0.9201   144.7184     0.0000    -999.25    59.8314     0.7700     0.7923     0.6246    -999.25     0.0106     0.0106     2.0854   289.6503     1.0000     1.0000 -1213.1700    91.8780    -999.25
  1291.9424  4370.4351    -999.25     8.9460     8.9460     0.9233   145.2036     0.0000    -999.25    59.4828     0.7786     0.8010     0.6498    -999.25     0.0069     0.0069     2.0820   289.6654     1.0000     1.0000 -1213.3224    94.6710    -999.25
  1292.0948  4363.1191    -999.25     9.0029     9.0029     0.9405   145.3688     0.0000    -999.25    59.0432     0.7923     0.8181     0.6658    -999.25     0.0047     0.0047     2.0809   289.6327     1.0000     1.0000 -1213.4749    96.3940    -999.25
  1292.2472  4383.9487    -999.25     9.0003     9.0003     0.9674   144.8331     0.0000    -999.25    58.5289     0.7967     0.8228     0.6626    -999.25     0.0059     0.0059     2.0831   289.4031     1.0000     1.0000 -1213.6272    95.4740    -999.25
  1292.3996  4443.1592    -999.25     8.9248     8.9248     0.9824   143.6968     0.0000    -999.25    57.8192     0.7961     0.8234     0.6389    -999.25     0.0103     0.0103     2.0947   289.1844     1.0000     1.0000 -1213.7797    92.0800    -999.25
  1292.5520  4513.9238    -999.25     8.8249     8.8249     0.9840   142.4319     0.0000    -999.25    56.8419     0.8077     0.8350     0.6106    -999.25     0.0157     0.0157     2.1093   289.0264     1.0000     1.0000 -1213.9320    88.0050    -999.25
  1292.7044  4571.8921    -999.25     8.7245     8.7245     1.0129   141.6073     0.0000    -999.25    56.0550     0.8288     0.8532     0.5965    -999.25     0.0187     0.0187     2.1241   288.9358     1.0000     1.0000 -1214.0844    85.7050    -999.25
  1292.8568  4575.3291    -999.25     8.6280     8.6280     1.0633   141.4570     0.0000    -999.25    55.8489     0.8448     0.8696     0.6083    -999.25     0.0176     0.0176     2.1234   289.0540     1.0000     1.0000 -1214.2368    86.5360    -999.25
  1293.0092  4566.0181    -999.25     8.5427     8.5427     1.0930   141.7815     0.0000    -999.25    56.7286     0.8478     0.8675     0.6352    -999.25     0.0134     0.0134     2.1239   289.1212     1.0000     1.0000 -1214.3892    89.7130    -999.25
  1293.1616  4608.3911    -999.25     8.5027     8.5027     1.0644   142.0394     0.0000    -999.25    58.7446     0.8431     0.8571     0.6564    -999.25     0.0096     0.0096     2.1476   289.0822     1.0000     1.0000 -1214.5416    92.6600    -999.25
  1293.3140  4658.3320    -999.25     8.4836     8.4836     1.0233   141.7409     0.0000    -999.25    61.3264     0.8398     0.8613     0.6537    -999.25     0.0093     0.0093     2.1663   289.0456     1.0000     1.0000 -1214.6940    92.8720    -999.25
  1293.4664  4692.0981    -999.25     8.4755     8.4755     0.9905   141.0762     0.0000    -999.25    63.7928     0.8379     0.8659     0.6294    -999.25     0.0129     0.0129     2.1717   288.8982     1.0000     1.0000 -1214.8464    90.1430    -999.25
  1293.6188  4762.9497    -999.25     8.4784     8.4784     1.0002   140.4207     0.0000    -999.25    65.3305     0.8331     0.8551     0.5948    -999.25     0.0169     0.0169     2.1943   288.7924     1.0000     1.0000 -1214.9988    87.0680    -999.25
  1293.7712  4852.4282    -999.25     8.5822     8.5822     1.0019   139.8621     0.0000    -999.25    65.3883     0.8333     0.8536     0.5630    -999.25     0.0179     0.0179     2.2266   288.6457     1.0000     1.0000 -1215.1512    86.2970    -999.25
  1293.9236  4878.0269    -999.25     8.7464     8.7464     1.0317   139.2587     0.0000    -999.25    64.1699     0.8532     0.8826     0.5446    -999.25     0.0184     0.0184     2.2287   288.2781     1.0000     1.0000 -1215.3036    85.8880    -999.25
  1294.0760  4894.1113    -999.25     8.8609     8.8609     1.0622   138.4261     0.0000    -999.25    62.5689     0.8818     0.9068     0.5390    -999.25     0.0203     0.0203     2.2227   287.9868     1.0000     1.0000 -1215.4561    84.4230    -999.25
  1294.2284  4905.7876    -999.25     8.9156     8.9156     1.0874   137.5909     0.0000    -999.25    61.0370     0.9029     0.9223     0.5377    -999.25     0.0221     0.0221     2.2145   287.7719     1.0000     1.0000 -1215.6084    83.0290    -999.25
  1294.3808  4859.4639    -999.25     8.9547     8.9547     1.1173   137.3483     0.0000    -999.25    60.1625     0.9183     0.9519     0.5397    -999.25     0.0239     0.0239     2.1898   287.6537     1.0000     1.0000 -1215.7609    81.6360    -999.25
  1294.5332  4788.5210    -999.25     8.9152     8.9152     1.1322   138.0935     0.0000    -999.25    59.9612     0.9120     0.9405     0.5451    -999.25     0.0243     0.0243     2.1695   287.7158     1.0000     1.0000 -1215.9132    81.4080    -999.25
  1294.6856  4739.1147    -999.25     8.8167     8.8167     1.0907   139.5081     0.0000    -999.25    59.8928     0.8914     0.9046     0.5587    -999.25     0.0229     0.0229     2.1691   287.6888     1.0000     1.0000 -1216.0656    82.4280    -999.25
  1294.8380  4710.5278    -999.25     8.7563     8.7563     1.0590   140.8626     0.0000    -999.25    59.8555     0.8950     0.9169     0.5819    -999.25     0.0211     0.0211     2.1770   287.5983     1.0000     1.0000 -1216.2180    83.8500    -999.25
  1294.9904  4668.1401    -999.25     8.8307     8.8307     1.0870   141.0670     0.0000    -999.25    59.8019     0.9251     0.9532     0.6096    -999.25     0.0187     0.0187     2.1605   287.3915     1.0000     1.0000 -1216.3704    85.6360    -999.25
  1295.1428  4612.7080    -999.25     8.9575     8.9575     1.1381   139.7609     0.0000    -999.25    59.9090     0.9522     0.9772     0.6323    -999.25     0.0171     0.0171     2.1151   287.0280     1.0000     1.0000 -1216.5228    86.9140    -999.25
  1295.2952  4560.5581    -999.25     9.0846     9.0846     1.1897   138.4004     0.0000    -999.25    60.5647     0.9688     1.0071     0.6431    -999.25     0.0167     0.0167     2.0708   286.9142     1.0000     1.0000 -1216.6752    87.1850    -999.25
  1295.4476  4475.6333    -999.25     9.1974     9.1974     1.2542   138.7097     0.0000    -999.25    61.7949     0.9937     1.0396     0.6507    -999.25     0.0155     0.0155     2.0368   287.0650     1.0000     1.0000 -1216.8276    88.1210    -999.25
  1295.6000  4384.7202    -999.25     9.2429     9.2429     1.2874   140.9371     0.0000    -999.25    63.0124     1.0147     1.0461     0.6622    -999.25     0.0119     0.0119     2.0275   287.3558     1.0000     1.0000 -1216.9800    90.8570    -999.25
  1295.7524  4304.7314    -999.25     9.1957     9.1957     1.2845   143.8406     0.0000    -999.25    63.6840     1.0170     1.0419     0.6757    -999.25     0.0073     0.0073     2.0315   287.7471     1.0000     1.0000 -1217.1324    94.3880    -999.25
  1295.9048  4249.4673    -999.25     9.1456     9.1456     1.2564   145.8784     0.0000    -999.25    64.1190     1.0231     1.0519     0.6789    -999.25     0.0047     0.0047     2.0338   287.9223     1.0000     1.0000 -1217.2848    96.3770    -999.25
