~Version ---------------------------------------------------
VERS. 2.0 : CWLS log ASCII Standard -VERSION 2.0
WRAP.  NO : 
~Well ------------------------------------------------------
STRT.m                                                   1300.0 : 
STOP.m                                                1481.9656 : 
STEP.m                                                   0.1524 : 
NULL.                                                   -999.25 : 
COMP.                                                           : COMPANY
WELL.                                                    Well-3 : WELL
FLD .                                                           : FIELD
LOC .                                                           : LOCATION
SRVC.                                                           : SERVICE COMPANY
DATE. 2021-01-20 14:34:00   : Log Export Date {yyyy-MM-dd HH:mm : ss}
PROV.                                                           : PROVINCE
UWI .                                                    Well-3 : UNIQUE WELL ID
API .                                                           : API NUMBER
~Curve Information -----------------------------------------
DEPTH             .m        : DEPTH
ACOUSTICIMPEDANCE1.kPa.s/m  : ACOUSTICIMPEDANCE1
AI                .kPa.s/m  : AI
AVG_PIGN          .m3/m3    : AVG_PIGN
BS                .in       : BS
CALI              .in       : CALI
CALI[DERIVED]1    .in       : CALI[DERIVED]1
CALI1             .in       : CALI1
DEVI              .deg      : DEVI
DFL               .ohm.m    : DFL
DT                .us/ft    : DT
DT1               .us/ft    : DT1
FACIES            ._        : FACIES
FLD1              ._        : FLD1
GR                .gAPI     : GR
HDRS              .ohm.m    : HDRS
HMRS              .ohm.m    : HMRS
DEPTH_1           .m        : DEPTH_1
NPHI              .m3/m3    : NPHI
PERF_INT          ._        : PERF_INT
PERMEABILITY      .mD       : PERMEABILITY
PIGN              .m3/m3    : PIGN
PIGN_MODELLING    .m3/m3    : PIGN_MODELLING
PIMP              .kPa.s/m  : PIMP
RHOB              .g/cm3    : RHOB
RT_MODELLING      .ohm.m    : RT_MODELLING
RT_POWER          .ohm.m    : RT_POWER
SP                .mV       : SP
SUWI              ._        : SUWI
SUWI_MODELLING    ._        : SUWI_MODELLING
TDVSS             .m        : TDVSS
VCL               .%        : VCL
WATER_VOL         ._        : WATER_VOL
ZLT               ._        : ZLT
~Params ----------------------------------------------------
~Other -----------------------------------------------------
~ASCII -----------------------------------------------------
# ...
  1420.7008  6813.7510 6814549.0000    -999.25     8.5000     8.6634     8.6634     8.6634     0.4148     5.7946   100.5573   100.5573     4.0000     0.0000    75.0156     3.6488     3.9799  1420.7008     0.4271    -999.25     5.6500     0.2352     0.2352 22357.4453     2.2479     5.7946    33.5775   316.2831     0.6396     0.6396 -1344.5408    40.3610     0.1504     6.0000
  1420.7274  6769.4565 6769456.5000    -999.25     8.5000     8.6599     8.6599     8.6593     0.4069     5.8251   100.9235   101.0253     4.0000     0.0000    74.7583     3.6370     3.9773  1420.7274     0.4369    -999.25     4.7107     0.2367     0.2367 22209.5039     2.2415     5.8251    33.9360   316.4067     0.6280     0.6280 -1344.5674    41.5564     0.1486     6.0000
  1420.8532  6527.1851 6535593.5000    -999.25     8.5000     8.6401     8.6401     8.6401     0.2774     5.9692   103.2387   103.2384     4.0000     0.0000    73.5413     3.5808     3.9650  1420.8531     0.4831    -999.25     0.2687     0.2438     0.2438 21442.2363     2.2108     5.9692    35.6315   316.9911     0.5731     0.5731 -1344.6931    47.2100     0.1397     6.0000
  1420.8798  6486.1440 6486144.0000    -999.25     8.5000     8.6359     8.6359     8.6346     0.2500     5.9370   103.7282   103.9860     4.0000     0.0000    73.0724     3.5884     3.9708  1420.8798     0.4909    -999.25     0.2482     0.2442     0.2442 21280.0000     2.2073     5.9370    35.2533   317.3387     0.5650     0.5650 -1344.7197    47.8612     0.1380     6.0000
  1421.0056  6210.5713 6218794.0000    -999.25     8.5000     8.6088     8.6088     8.6088     0.2633     5.7849   107.5222   107.5218     4.0000     0.0000    70.8547     3.6242     3.9979  1421.0055     0.5280    -999.25     0.1512     0.2463     0.2463 20402.8691     2.1909     5.7849    33.4648   318.9822     0.5267     0.5267 -1344.8456    50.9410     0.1297     6.0000
  1421.0322  6162.2642 6162264.0000    -999.25     8.5000     8.6031     8.6031     8.6067     0.2661     5.7425   108.3244   108.5617     4.0000     0.0000    70.3883     3.6668     4.0303  1421.0321     0.5315    -999.25     0.1264     0.2462     0.2462 20217.4023     2.1900     5.7425    32.9851   319.4457     0.5203     0.5203 -1344.8722    51.1382     0.1281     6.0000
  1421.1580  5871.8213 5877341.5000    -999.25     8.5000     8.5966     8.5966     8.5966     0.1597     5.5422   113.4807   113.4801     4.0000     0.0000    68.1825     3.8682     4.1834  1421.1580     0.5479    -999.25     0.0090     0.2456     0.2456 19282.6172     2.1861     5.5422    30.7163   321.6379     0.4901     0.4901 -1344.9979    52.0710     0.1204     6.0000
  1421.1846  5817.0952 5817095.5000    -999.25     8.5000     8.5952     8.5952     8.6056     0.1372     5.6008   114.5710   114.5026     4.0000     0.0000    67.8803     3.9425     4.2437  1421.1846     0.5485    -999.25     0.1602     0.2451     0.2451 19084.9590     2.1866     5.6008    31.3857   322.0924     0.4850     0.4850 -1345.0245    52.3075     0.1189     6.0000
  1421.3104  5589.9219 5593226.0000    -999.25     8.5000     8.6480     8.6480     8.6480     0.1445     5.8781   119.3388   119.3382     4.0000     0.0000    66.4509     4.2938     4.5288  1421.3103     0.5513    -999.25     0.8753     0.2425     0.2425 18350.4785     2.1886     5.8781    34.5516   324.2417     0.4608     0.4608 -1345.1504    53.4260     0.1117     6.0000
  1421.3370  5545.8896 5545889.5000    -999.25     8.5000     8.6592     8.6592     8.6624     0.1461     6.0218   120.3469   120.0410     4.0000     0.0000    66.2403     4.3632     4.5871  1421.3369     0.5520    -999.25     1.2605     0.2380     0.2380 18195.1758     2.1897     6.0218    36.3603   324.6476     0.4680     0.4680 -1345.1770    53.8458     0.1112     6.0000
  1421.4628  5423.1021 5421783.0000    -999.25     8.5000     8.7304     8.7304     8.7303     0.1368     6.7018   123.3650   123.3646     4.0000     0.0000    65.2443     4.6918     4.8627  1421.4628     0.5552    -999.25     3.0824     0.2165     0.2165 17788.0020     2.1949     6.7018    44.9141   326.5672     0.5020     0.5020 -1345.3027    55.8310     0.1087     6.0000
  1421.4894  5395.5410 5395541.0000    -999.25     8.5000     8.7454     8.7454     8.7437     0.1348     6.7812   124.0031   123.7159     4.0000     0.0000    65.0052     4.7126     4.8822  1421.4894     0.5582    -999.25     2.5974     0.1949     0.1949 17701.9062     2.1951     6.7812    46.0140   326.7959     0.5560     0.5560 -1345.3293    56.5948     0.1028     6.0000
  1421.6152  5338.0210 5331483.0000    -999.25     8.5000     8.8067     8.8067     8.8067     0.1391     7.1565   125.3775   125.3773     4.0000     0.0000    63.8743     4.8108     4.9745  1421.6151     0.5726    -999.25     0.3037     0.0928     0.0928 17491.7422     2.1958     7.1565    51.2155   327.8775     0.8109     0.8109 -1345.4552    60.2070     0.0753     6.0000
  1421.6418  5317.9380 5317938.0000    -999.25     8.5000     8.8197     8.8197     8.8119     0.1400     7.1101   125.6681   125.4915     4.0000     0.0000    63.6906     4.7855     4.9548  1421.6417     0.5781    -999.25     0.2507     0.0780     0.0784 17447.3047     2.1926     7.1101    50.5641   328.0542     0.8439     0.8439 -1345.4818    64.4723     0.0635     6.0000
  1421.7676  5266.1128 5260409.0000    -999.25     8.5000     8.8366     8.8366     8.8366     0.0906     6.8908   126.0315   126.0314     4.0000     0.0000    62.8219     4.6659     4.8617  1421.7676     0.6039    -999.25     0.0000     0.0078     0.0100 17258.5605     2.1775     6.8908    47.4834   328.8901     1.0000     1.0000 -1345.6075    84.6440     0.0078     6.0000
  1421.7942  5248.2446 5248244.5000    -999.25     8.5000     8.8402     8.8402     8.8373     0.0802     6.7700   126.1083   126.1127     4.0000     0.0000    62.6936     4.6207     4.8216  1421.7942     0.6089    -999.25     0.0000     0.0070     0.0100 17218.6504     2.1714     6.7700    45.9015   329.0721     1.0000     1.0000 -1345.6342    86.2922     0.0070     6.0000
  1421.9200  5163.0107 5163324.0000    -999.25     8.5000     8.8406     8.8406     8.8406     0.1973     6.1984   126.4967   126.4970     0.0000     0.0000    62.0868     4.4067     4.6316  1421.9199     0.6322    -999.25     0.0000     0.0031     0.0100 16940.0410     2.1427     6.1984    38.4200   329.9324     1.0000     1.0000 -1345.7600    94.0870     0.0031     6.0000
  1421.9467  5145.3008 5145300.5000    -999.25     8.5000     8.8407     8.8407     8.8396     0.2221     6.0897   126.5792   126.7169     0.0000     0.0000    62.0590     4.3628     4.5896  1421.9467     0.6329    -999.25     0.0010     0.0060     0.0117 16880.9082     2.1368     6.0897    37.1395   330.0961     1.0000     1.0000 -1345.7867    88.7847     0.0060     6.0000
  1422.0724  5031.1270 5038010.0000    -999.25     8.5000     8.8350     8.8350     8.8350     0.2254     5.5777   127.7523   127.7523     0.0000     0.0000    61.9278     4.1563     4.3920  1422.0724     0.6360    -999.25     0.0054     0.0196     0.0196 16528.9043     2.1087     5.5777    31.1111   330.8669     1.0000     1.0000 -1345.9124    63.8220     0.0196     6.0000
  1422.0990  5015.3062 5015306.0000    -999.25     8.5000     8.8338     8.8338     8.8369     0.2261     5.5137   128.0005   128.1304     0.0000     0.0000    62.1731     4.1192     4.3539  1422.0990     0.6308    -999.25     0.0136     0.0221     0.0221 16454.4160     2.1062     5.5137    30.4199   330.9791     1.0000     1.0000 -1345.9390    60.7656     0.0221     6.0000
  1422.2248  4913.0522 4926354.5000    -999.25     8.5000     8.8458     8.8458     8.8458     0.2420     5.2107   129.9174   129.9184     0.0000     0.0000    63.3327     3.9436     4.1739  1422.2247     0.6064    -999.25     0.0524     0.0341     0.0341 16162.5791     2.0941     5.2107    27.1512   331.5095     1.0000     1.0000 -1346.0647    46.3110     0.0341     6.0000
  1422.2515  4907.4751 4907475.0000    -999.25     8.5000     8.8483     8.8483     8.8505     0.2454     5.1635   130.3242   130.3549     0.0000     0.0000    63.7282     3.9111     4.1384  1422.2515     0.5987    -999.25     0.0478     0.0335     0.0335 16100.6396     2.0983     5.1635    26.6722   331.5804     1.0000     1.0000 -1346.0914    46.9359     0.0335     6.0000
