~Version ---------------------------------------------------
VERS. 2.0 : CWLS log ASCII Standard -VERSION 2.0
WRAP.  NO : 
~Well ------------------------------------------------------
STRT.m                                                   1300.0 : 
STOP.m                                                 1514.884 : 
STEP.m                                                   0.1524 : 
NULL.                                                   -999.25 : 
COMP.                                                           : COMPANY
WELL.                                                    Well-2 : WELL
FLD .                                                           : FIELD
LOC .                                                           : LOCATION
SRVC.                                                           : SERVICE COMPANY
DATE. 2021-01-20 14:33:59   : Log Export Date {yyyy-MM-dd HH:mm : ss}
PROV.                                                           : PROVINCE
UWI .                                                    Well-2 : UNIQUE WELL ID
API .                                                           : API NUMBER
~Curve Information -----------------------------------------
DEPTH             .m        : DEPTH
ACOUSTICIMPEDANCE1.kPa.s/m  : ACOUSTICIMPEDANCE1
AI                .kPa.s/m  : AI
AVG_PIGN          .m3/m3    : AVG_PIGN
CALI              .in       : CALI
CALI[DERIVED]1    .in       : CALI[DERIVED]1
DT                .us/ft    : DT
FACIES            ._        : FACIES
FLD1              ._        : FLD1
GR                .gAPI     : GR
LLD               .ohm.m    : LLD
LLS               .ohm.m    : LLS
LL3               .ohm.m    : LL3
DEPTH_1           .m        : DEPTH_1
NPHI              .m3/m3    : NPHI
PERF_INT          ._        : PERF_INT
PERMEABILITY      .mD       : PERMEABILITY
PIGN              .m3/m3    : PIGN
PIGN_MODELLING    .m3/m3    : PIGN_MODELLING
PIMP              .kPa.s/m  : PIMP
RHOB              .g/cm3    : RHOB
RT_MODELLING      .ohm.m    : RT_MODELLING
RT_POWER          .ohm.m    : RT_POWER
SP                .mV       : SP
SUWI              ._        : SUWI
SUWI_MODELLING    ._        : SUWI_MODELLING
TDVSS             .m        : TDVSS
VCL               .%        : VCL
WATER_VOL         ._        : WATER_VOL
ZLT               ._        : ZLT
~Params ----------------------------------------------------
~Other -----------------------------------------------------
~ASCII -----------------------------------------------------
# ...
  1442.9232  6773.9429 6773943.0000    -999.25     9.4129     9.4129   107.1560     4.0000    -999.25    53.5002     5.2353     5.0708     5.8821  1442.9232     0.4060     1.0000     2.1771     0.1383     0.1383 22224.2227     2.3815     5.2353    27.4086    23.5616     0.6005     0.6005 -1366.9232    42.9434     0.0830    10.0000
  1442.9512  6757.3486 6754871.0000    -999.25     9.4117     9.4117   107.3096     4.0000    -999.25    53.5248     5.2453     5.0718     5.9032  1442.9512     0.4053     1.0000     2.2097     0.1399     0.1399 22161.6504     2.3790     5.2453    27.5128    23.5110     0.5985     0.5985 -1366.9512    42.6140     0.0838    10.0000
  1443.0756  6670.1372 6670137.5000    -999.25     9.4077     9.4077   107.9920     4.0000    -999.25    54.3857     5.3121     5.1284     6.0116  1443.0756     0.4067     1.0000     2.9507     0.1541     0.1541 21883.6523     2.3633     5.3121    28.2193    23.5047     0.5845     0.5845 -1367.0756    39.7677     0.0901    10.0000
  1443.1036  6638.9863 6636515.0000    -999.25     9.4068     9.4068   108.3358     4.0000    -999.25    54.5795     5.3271     5.1411     6.0360  1443.1035     0.4070     1.0000     3.1174     0.1574     0.1574 21773.3438     2.3597     5.3271    28.3783    23.5033     0.5814     0.5814 -1367.1035    39.1270     0.0915    10.0000
  1443.2280  6487.1357 6487135.5000    -999.25     9.3966     9.3966   109.8630     4.0000    -999.25    54.8092     5.4240     5.2397     6.1887  1443.2280     0.4119     1.0000     5.3678     0.1874     0.1874 21283.2539     2.3382     5.4240    29.4221    23.6423     0.5705     0.5705 -1367.2280    31.9438     0.1068    10.0000
  1443.2560  6449.1938 6448974.0000    -999.25     9.3943     9.3943   110.2810     4.0000    -999.25    54.8609     5.4458     5.2619     6.2230  1443.2560     0.4130     1.0000     5.8743     0.1941     0.1941 21158.0527     2.3334     5.4458    29.6571    23.6736     0.5681     0.5681 -1367.2560    30.3270     0.1103    10.0000
  1443.3804  6279.4277 6279427.5000    -999.25     9.3836     9.3836   112.1380     4.0000    -999.25    54.3766     5.5815     5.3811     6.4199  1443.3804     0.4174     1.0000     6.9903     0.2089     0.2089 20601.7969     2.3102     5.5815    31.1572    23.9283     0.5420     0.5420 -1367.3804    28.6128     0.1131    10.0000
  1443.4084  6250.1611 6252563.0000    -999.25     9.3812     9.3812   112.4088     4.0000    -999.25    54.2676     5.6120     5.4079     6.4643  1443.4083     0.4184     1.0000     7.2415     0.2122     0.2122 20513.6582     2.3050     5.6120    31.4949    23.9856     0.5362     0.5362 -1367.4083    28.2270     0.1138    10.0000
  1443.5328  6133.2080 6133208.0000    -999.25     9.3690     9.3690   113.6120     4.0000    -999.25    53.4566     5.7981     5.5420     6.6380  1443.5328     0.4155     1.0000     7.5326     0.2255     0.2255 20122.0723     2.2861     5.7981    33.6256    24.3005     0.5214     0.5214 -1367.5328    25.6378     0.1175    10.0000
  1443.5608  6118.5464 6122292.0000    -999.25     9.3662     9.3662   113.6721     4.0000    -999.25    53.2741     5.8400     5.5722     6.6771  1443.5608     0.4148     1.0000     7.5981     0.2285     0.2285 20086.2598     2.2819     5.8400    34.1051    24.3713     0.5181     0.5181 -1367.5608    25.0550     0.1184    10.0000
  1443.6852  6073.7949 6073795.0000    -999.25     9.3576     9.3576   113.9390     4.0000    -999.25    52.1300     6.0837     5.7424     6.7606  1443.6852     0.4034     1.0000     6.7412     0.2384     0.2384 19927.1484     2.2705     6.0837    37.0247    24.6541     0.5163     0.5163 -1367.6852    21.7524     0.1231    10.0000
  1443.7132  6073.1377 6076269.5000    -999.25     9.3556     9.3556   113.8229     4.0000    -999.25    51.8725     6.1385     5.7807     6.7793  1443.7131     0.4009     1.0000     6.5483     0.2406     0.2406 19935.2656     2.2679     6.1385    37.6818    24.7178     0.5159     0.5159 -1367.7131    21.0090     0.1241    10.0000
  1443.8376  6087.2622 6087262.0000    -999.25     9.3473     9.3473   113.3070     4.0000    -999.25    50.1653     6.4342     6.0099     6.8246  1443.8376     0.3877     1.0000     5.4027     0.2471     0.2471 19971.3320     2.2629     6.4342    41.4180    24.9123     0.5179     0.5179 -1367.8376    17.9806     0.1280    10.0000
  1443.8656  6091.5171 6092567.0000    -999.25     9.3454     9.3454   113.1712     4.0000    -999.25    49.7811     6.5007     6.0615     6.8347  1443.8656     0.3847     1.0000     5.1448     0.2485     0.2485 19988.7363     2.2618     6.5007    42.2590    24.9560     0.5183     0.5183 -1367.8656    17.2990     0.1288    10.0000
  1443.9900  6116.1362 6116136.5000    -999.25     9.3459     9.3459   112.5680     4.0000    -999.25    47.4758     6.8276     6.3599     6.9721  1443.9900     0.3763     1.0000     4.5335     0.2533     0.2533 20066.0645     2.2588     6.8276    46.6406    25.0833     0.5143     0.5143 -1367.9900    15.2551     0.1303    10.0000
  1444.0180  6119.4214 6118470.5000    -999.25     9.3460     9.3460   112.4744     4.0000    -999.25    46.9569     6.9012     6.4270     7.0030  1444.0179     0.3744     1.0000     4.3959     0.2544     0.2544 20073.7207     2.2581     6.9012    47.6268    25.1119     0.5134     0.5134 -1368.0179    14.7950     0.1306    10.0000
  1444.1425  6128.8477 6128848.0000    -999.25     9.3502     9.3502   112.0580     4.0000    -999.25    45.1097     7.2334     6.7847     7.2852  1444.1426     0.3731     1.0000     4.8476     0.2589     0.2589 20107.7676     2.2532     7.2334    52.3472    25.1461     0.4999     0.4999 -1368.1426    13.8702     0.1294    10.0000
  1444.1704  6130.1548 6128831.5000    -999.25     9.3511     9.3511   111.9796     4.0000    -999.25    44.6958     7.3079     6.8649     7.3484  1444.1704     0.3728     1.0000     4.9488     0.2599     0.2599 20107.7148     2.2521     7.3079    53.4050    25.1538     0.4969     0.4969 -1368.1704    13.6630     0.1292    10.0000
  1444.2948  6128.7583 6128758.5000    -999.25     9.3629     9.3629   111.6300     4.0000    -999.25    44.0578     7.6289     7.2545     7.6686  1444.2948     0.3766     1.0000     6.7222     0.2645     0.2645 20107.4746     2.2446     7.6289    58.2236    25.0697     0.4775     0.4775 -1368.2948    13.4826     0.1263    10.0000
  1444.3228  6130.2739 6130276.5000    -999.25     9.3655     9.3655   111.5180     4.0000    -999.25    43.9143     7.7012     7.3422     7.7407  1444.3228     0.3775     1.0000     7.1213     0.2655     0.2655 20112.4551     2.2429     7.7012    59.3082    25.0508     0.4732     0.4732 -1368.3228    13.4420     0.1256    10.0000
  1444.4473  6137.0269 6137026.5000    -999.25     9.3783     9.3783   111.0200     4.0000    -999.25    43.6507     8.0028     7.7275     8.0409  1444.4473     0.3800     1.0000     9.3427     0.2700     0.2700 20134.6016     2.2353     8.0028    64.0660    24.9014     0.4581     0.4581 -1368.4473    13.0809     0.1237    10.0000
  1444.4752  6141.0820 6142957.0000    -999.25     9.3812     9.3812   110.8626     4.0000    -999.25    43.5917     8.0704     7.8139     8.1082  1444.4751     0.3806     1.0000     9.8405     0.2710     0.2710 20154.0586     2.2336     8.0704    65.1322    24.8679     0.4548     0.4548 -1368.4751    13.0000     0.1232    10.0000
  1444.5996  6169.4004 6169400.0000    -999.25     9.3934     9.3934   110.1610     4.0000    -999.25    43.3006     8.3374     8.1422     8.3043  1444.5996     0.3772     1.0000    11.0778     0.2739     0.2739 20240.8145     2.2297     8.3374    69.5288    24.7120     0.4512     0.4512 -1368.5996    11.9658     0.1236    10.0000
  1444.6276  6177.0806 6179988.0000    -999.25     9.3962     9.3962   109.9807     4.0000    -999.25    43.2350     8.3975     8.2161     8.3484  1444.6276     0.3764     1.0000    11.3563     0.2746     0.2746 20275.5527     2.2289     8.3975    70.5183    24.6769     0.4503     0.4503 -1368.6276    11.7330     0.1237    10.0000
  1444.7521  6227.0679 6227068.0000    -999.25     9.4050     9.4050   109.1790     4.0000    -999.25    42.3644     8.5952     8.4386     8.4135  1444.7521     0.3679     1.0000    10.7877     0.2751     0.2751 20430.0117     2.2305     8.5952    73.8871    24.5365     0.4575     0.4575 -1368.7521    10.3361     0.1259    10.0000
