~Version ---------------------------------------------------
VERS. 2.0 : CWLS log ASCII Standard -VERSION 2.0
WRAP.  NO : 
~Well ------------------------------------------------------
STRT.m                                                   1300.0 : 
STOP.m                                                 1514.884 : 
STEP.m                                                   0.1524 : 
NULL.                                                   -999.25 : 
COMP.                                                           : COMPANY
WELL.                                                    Well-2 : WELL
FLD .                                                           : FIELD
LOC .                                                           : LOCATION
SRVC.                                                           : SERVICE COMPANY
DATE. 2021-01-20 14:33:59   : Log Export Date {yyyy-MM-dd HH:mm : ss}
PROV.                                                           : PROVINCE
UWI .                                                    Well-2 : UNIQUE WELL ID
API .                                                           : API NUMBER
~Curve Information -----------------------------------------
DEPTH             .m        : DEPTH
ACOUSTICIMPEDANCE1.kPa.s/m  : ACOUSTICIMPEDANCE1
AI                .kPa.s/m  : AI
AVG_PIGN          .m3/m3    : AVG_PIGN
CALI              .in       : CALI
CALI[DERIVED]1    .in       : CALI[DERIVED]1
DT                .us/ft    : DT
FACIES            ._        : FACIES
FLD1              ._        : FLD1
GR                .gAPI     : GR
LLD               .ohm.m    : LLD
LLS               .ohm.m    : LLS
LL3               .ohm.m    : LL3
DEPTH_1           .m        : DEPTH_1
NPHI              .m3/m3    : NPHI
PERF_INT          ._        : PERF_INT
PERMEABILITY      .mD       : PERMEABILITY
PIGN              .m3/m3    : PIGN
PIGN_MODELLING    .m3/m3    : PIGN_MODELLING
PIMP              .kPa.s/m  : PIMP
RHOB              .g/cm3    : RHOB
RT_MODELLING      .ohm.m    : RT_MODELLING
RT_POWER          .ohm.m    : RT_POWER
SP                .mV       : SP
SUWI              ._        : SUWI
SUWI_MODELLING    ._        : SUWI_MODELLING
TDVSS             .m        : TDVSS
VCL               .%        : VCL
WATER_VOL         ._        : WATER_VOL
ZLT               ._        : ZLT
~Params ----------------------------------------------------
~Other -----------------------------------------------------
~ASCII -----------------------------------------------------
# ...
  1500.0732  6743.2148 6743214.5000    -999.25     8.5897     8.5897   115.0570     0.0000    -999.25    91.7985     3.3982     3.5976     3.8946  1500.0732     0.5189    -999.25    -999.25     0.0339     0.0339 22123.4082     2.5455     3.3982    11.5479    40.5402     1.0000     1.0000 -1424.0732    73.2488     0.0339    18.0000
  1500.1012  6757.9048 6752897.0000    -999.25     8.5887     8.5887   114.8564     0.0000    -999.25    91.5339     3.4051     3.6190     3.9496  1500.1012     0.5235    -999.25    -999.25     0.0328     0.0328 22155.1758     2.5466     3.4051    11.5948    40.5035     1.0000     1.0000 -1424.1012    74.1140     0.0328    18.0000
  1500.2256  6795.9160 6795916.0000    -999.25     8.5867     8.5867   113.9650     0.0000    -999.25    90.4225     3.4238     3.6864     4.0607  1500.2256     0.5240    -999.25    -999.25     0.0325     0.0325 22296.3125     2.5410     3.4238    11.7227    40.3798     1.0000     1.0000 -1424.2256    74.3523     0.0325    18.0000
  1500.2536  6806.9521 6802803.5000    -999.25     8.5862     8.5862   113.7243     0.0000    -999.25    90.1723     3.4281     3.7015     4.0857  1500.2535     0.5242    -999.25    -999.25     0.0324     0.0324 22318.9102     2.5398     3.4281    11.7515    40.3520     1.0000     1.0000 -1424.2535    74.4060     0.0324    18.0000
  1500.3781  6833.4292 6833429.0000    -999.25     8.5826     8.5826   112.6540     0.0000    -999.25    90.7029     3.4419     3.7149     4.1369  1500.3782     0.5190    -999.25    -999.25     0.0329     0.0329 22419.3867     2.5256     3.4419    11.8465    40.2371     1.0000     1.0000 -1424.3782    74.0466     0.0329    18.0000
  1500.4060  6835.3179 6834719.0000    -999.25     8.5818     8.5818   112.4818     0.0000    -999.25    90.8218     3.4450     3.7179     4.1484  1500.4060     0.5179    -999.25    -999.25     0.0330     0.0330 22423.6191     2.5225     3.4450    11.8678    40.2113     1.0000     1.0000 -1424.4060    73.9660     0.0330    18.0000
  1500.5304  6840.4712 6840471.5000    -999.25     8.5795     8.5795   111.7140     0.0000    -999.25    92.0294     3.4679     3.6886     4.0961  1500.5304     0.5197    -999.25    -999.25     0.0316     0.0316 22442.4922     2.5071     3.4679    12.0263    40.1154     1.0000     1.0000 -1424.5304    75.0851     0.0316    18.0000
  1500.5584  6833.3145 6836633.5000    -999.25     8.5790     8.5790   111.6771     0.0000    -999.25    92.3013     3.4730     3.6820     4.0843  1500.5583     0.5202    -999.25    -999.25     0.0312     0.0312 22429.8984     2.5037     3.4730    12.0620    40.0939     1.0000     1.0000 -1424.5584    75.3370     0.0312    18.0000
  1500.6829  6819.5669 6819567.0000    -999.25     8.5782     8.5782   111.5130     0.0000    -999.25    91.8782     3.5086     3.6468     3.9141  1500.6829     0.5290    -999.25    -999.25     0.0289     0.0289 22373.9062     2.4950     3.5086    12.3104    40.0661     1.0000     1.0000 -1424.6829    77.2821     0.0289    18.0000
  1500.7108  6810.9434 6817818.5000    -999.25     8.5780     8.5780   111.5669     0.0000    -999.25    91.7834     3.5165     3.6389     3.8760  1500.7107     0.5310    -999.25    -999.25     0.0284     0.0284 22368.1699     2.4930     3.5165    12.3661    40.0599     1.0000     1.0000 -1424.7107    77.7180     0.0284    18.0000
  1500.8352  6810.0220 6810022.0000    -999.25     8.5791     8.5791   111.8070     0.0000    -999.25    89.0547     3.5683     3.6210     3.7912  1500.8352     0.5432    -999.25    -999.25     0.0280     0.0280 22342.5918     2.4981     3.5683    12.7332    40.0658     0.9997     0.9997 -1424.8352    78.8543     0.0280    18.0000
  1500.8632  6810.1436 6817429.0000    -999.25     8.5793     8.5793   111.8557     0.0000    -999.25    88.4405     3.5799     3.6169     3.7721  1500.8632     0.5460    -999.25    -999.25     0.0279     0.0279 22366.8945     2.4992     3.5799    12.8158    40.0672     0.9996     0.9996 -1424.8632    79.1100     0.0278    18.0000
  1500.9877  6850.3652 6850365.0000    -999.25     8.5791     8.5791   112.0720     0.0000    -999.25    84.1012     3.6622     3.6239     3.7703  1500.9877     0.5571    -999.25    -999.25     0.0426     0.0426 22474.9512     2.5188     3.6622    13.4129    40.0315     0.9928     0.9928 -1424.9877    76.0612     0.0423    18.0000
  1501.0156  6862.1226 6865951.5000    -999.25     8.5790     8.5790   112.0753     0.0000    -999.25    83.1288     3.6806     3.6254     3.7699  1501.0155     0.5596    -999.25    -999.25     0.0459     0.0459 22526.0879     2.5232     3.6806    13.5467    40.0235     0.9913     0.9913 -1425.0155    75.3780     0.0455    18.0000
  1501.1400  6935.4473 6935447.5000    -999.25     8.5782     8.5782   112.0900     2.0000    -999.25    77.7970     3.8113     3.6810     3.7633  1501.1400     0.5677    -999.25    -999.25     0.0985     0.0985 22754.0918     2.5505     3.8113    14.5297    40.0131     0.9650     0.9650 -1425.1400    63.4669     0.0947    18.0000
  1501.1680  6964.3340 6960744.0000     0.1103     8.5780     8.5780   111.8940     2.0000    -999.25    76.5970     3.8407     3.6936     3.7618  1501.1680     0.5695    -999.25    -999.25     0.1103     0.1103 22837.0859     2.5566     3.8407    14.7509    40.0107     0.9590     0.9590 -1425.1680    60.7860     0.1058    18.0000
  1501.2924  7073.1323 7073132.5000     0.1050     8.5786     8.5786   111.0230     2.0000    -999.25    71.0428     4.0394     3.8556     4.0517  1501.2924     0.5764    -999.25    -999.25     0.1050     0.1050 23205.8145     2.5764     4.0394    16.3256    39.9760     0.9424     0.9424 -1425.2924    61.9827     0.0989    18.0000
  1501.3204  7117.1240 7108060.0000     0.1037     8.5787     8.5787   110.5269     2.0000    -999.25    69.7927     4.0841     3.8921     4.1169  1501.3203     0.5779    -999.25    -999.25     0.1037     0.1037 23320.4062     2.5808     4.0841    16.6800    39.9682     0.9386     0.9386 -1425.3203    62.2520     0.0974    18.0000
  1501.4448  7263.2383 7263238.0000     0.1067     8.5764     8.5764   108.3230     2.0000    -999.25    63.5036     4.3655     4.2301     5.1775  1501.4448     0.5811    -999.25    -999.25     0.1067     0.1067 23829.5215     2.5813     4.3655    19.0753    39.7427     0.8977     0.8977 -1425.4448    61.4202     0.0958    18.0000
  1501.4728  7325.7334 7318741.5000     0.1074     8.5759     8.5759   107.4033     2.0000    -999.25    62.0881     4.4288     4.3062     5.4163  1501.4728     0.5819    -999.25    -999.25     0.1074     0.1074 24011.6191     2.5814     4.4288    19.6144    39.6919     0.8884     0.8884 -1425.4728    61.2330     0.0954    18.0000
  1501.5972  7565.3350 7565335.0000     0.1185     8.5741     8.5741   103.3170     2.0000    -999.25    55.6918     4.7884     4.8710     7.2123  1501.5972     0.5780    -999.25    -999.25     0.1185     0.1185 24820.6523     2.5644     4.7884    22.9576    39.4593     0.8328     0.8328 -1425.5972    58.0463     0.0986    18.0000
  1501.6252  7642.3457 7640648.5000     0.1211     8.5737     8.5737   102.1233     2.0000    -999.25    54.2521     4.8693     4.9981     7.6166  1501.6251     0.5771    -999.25    -999.25     0.1211     0.1211 25067.7441     2.5606     4.8693    23.7101    39.4070     0.8202     0.8202 -1425.6251    57.3290     0.0993    18.0000
  1501.7496  7975.2559 7975256.0000     0.1366     8.5693     8.5693    96.8200     2.0000    -999.25    49.7211     5.2947     5.7868     9.2684  1501.7496     0.5731    -999.25    -999.25     0.1366     0.1366 26165.5371     2.5333     5.2947    28.0741    39.0911     0.7545     0.7545 -1425.7496    53.7945     0.1028    18.0000
  1501.7776  8050.5298 8048023.5000     0.1401     8.5683     8.5683    95.6827     2.0000    -999.25    48.7012     5.3904     5.9643     9.6402  1501.7776     0.5723    -999.25    -999.25     0.1401     0.1401 26404.2754     2.5272     5.3904    29.0563    39.0200     0.7397     0.7397 -1425.7776    52.9990     0.1036    18.0000
  1501.9020  8371.3193 8371319.5000     0.1540     8.5631     8.5631    90.6300     2.0000    -999.25    47.3305     5.8830     6.8748    11.3768  1501.9020     0.5749    -999.25    -999.25     0.1540     0.1540 27464.9590     2.4891     5.8830    34.6638    38.6010     0.6757     0.6757 -1425.9020    50.4824     0.1039    18.0000
