~Version ---------------------------------------------------
VERS. 2.0 : CWLS log ASCII Standard -VERSION 2.0
WRAP.  NO : 
~Well ------------------------------------------------------
STRT.m                                                   1300.0 : 
STOP.m                                                1481.9656 : 
STEP.m                                                   0.1524 : 
NULL.                                                   -999.25 : 
COMP.                                                           : COMPANY
WELL.                                                    Well-3 : WELL
FLD .                                                           : FIELD
LOC .                                                           : LOCATION
SRVC.                                                           : SERVICE COMPANY
DATE. 2021-01-20 14:34:00   : Log Export Date {yyyy-MM-dd HH:mm : ss}
PROV.                                                           : PROVINCE
UWI .                                                    Well-3 : UNIQUE WELL ID
API .                                                           : API NUMBER
~Curve Information -----------------------------------------
DEPTH             .m        : DEPTH
ACOUSTICIMPEDANCE1.kPa.s/m  : ACOUSTICIMPEDANCE1
AI                .kPa.s/m  : AI
AVG_PIGN          .m3/m3    : AVG_PIGN
BS                .in       : BS
CALI              .in       : CALI
CALI[DERIVED]1    .in       : CALI[DERIVED]1
CALI1             .in       : CALI1
DEVI              .deg      : DEVI
DFL               .ohm.m    : DFL
DT                .us/ft    : DT
DT1               .us/ft    : DT1
FACIES            ._        : FACIES
FLD1              ._        : FLD1
GR                .gAPI     : GR
HDRS              .ohm.m    : HDRS
HMRS              .ohm.m    : HMRS
DEPTH_1           .m        : DEPTH_1
NPHI              .m3/m3    : NPHI
PERF_INT          ._        : PERF_INT
PERMEABILITY      .mD       : PERMEABILITY
PIGN              .m3/m3    : PIGN
PIGN_MODELLING    .m3/m3    : PIGN_MODELLING
PIMP              .kPa.s/m  : PIMP
RHOB              .g/cm3    : RHOB
RT_MODELLING      .ohm.m    : RT_MODELLING
RT_POWER          .ohm.m    : RT_POWER
SP                .mV       : SP
SUWI              ._        : SUWI
SUWI_MODELLING    ._        : SUWI_MODELLING
TDVSS             .m        : TDVSS
VCL               .%        : VCL
WATER_VOL         ._        : WATER_VOL
ZLT               ._        : ZLT
~Params ----------------------------------------------------
~Other -----------------------------------------------------
~ASCII -----------------------------------------------------
# ...
  1311.7348  4309.2607 4308129.5000    -999.25     8.5000     9.1461     9.1461     9.1461     1.5222     1.2971   147.1376   147.1376     0.0000    -999.25    65.1549     1.0986     1.1316  1311.7347     0.6725    -999.25    -999.25     0.0312     0.0312 14134.2842     2.0802     1.2971     1.6824   281.9724     1.0000     1.0000 -1235.5747    37.5840     0.0312    -999.25
  1311.7614  4311.1572 4311157.5000    -999.25     8.5000     9.1432     9.1432     9.1370     1.5192     1.2990   147.1059   147.1082     0.0000    -999.25    65.0380     1.0996     1.1331  1311.7614     0.6710    -999.25    -999.25     0.0312     0.0312 14144.2178     2.0807     1.2990     1.6875   282.1600     1.0000     1.0000 -1235.6013    37.5430     0.0312    -999.25
  1311.8872  4319.7573 4319836.5000    -999.25     8.5000     9.0942     9.0942     9.0943     1.3619     1.3082   146.9691   146.9691     0.0000    -999.25    64.4851     1.1046     1.1402  1311.8872     0.6639    -999.25    -999.25     0.0313     0.0313 14172.6924     2.0829     1.3082     1.7114   283.0469     1.0000     1.0000 -1235.7272    37.3490     0.0313    -999.25
  1311.9138  4321.6719 4321671.5000    -999.25     8.5000     9.0839     9.0839     9.0825     1.3286     1.3101   146.9402   146.9577     0.0000    -999.25    64.4870     1.1059     1.1417  1311.9138     0.6632    -999.25    -999.25     0.0313     0.0313 14178.7129     2.0834     1.3101     1.7162   283.2635     1.0000     1.0000 -1235.7538    37.4087     0.0313    -999.25
  1312.0396  4327.7832 4327388.5000    -999.25     8.5000     9.0270     9.0270     9.0270     1.2282     1.3188   146.9036   146.9036     0.0000    -999.25    64.4958     1.1120     1.1486  1312.0396     0.6600    -999.25    -999.25     0.0312     0.0312 14197.4697     2.0859     1.3188     1.7392   284.2881     1.0000     1.0000 -1235.8795    37.6910     0.0312    -999.25
  1312.0662  4328.5977 4328597.5000    -999.25     8.5000     9.0150     9.0150     9.0185     1.2070     1.3257   146.8959   146.9191     0.0000    -999.25    64.5217     1.1135     1.1499  1312.0662     0.6603    -999.25    -999.25     0.0311     0.0311 14201.4355     2.0861     1.3257     1.7577   284.4632     1.0000     1.0000 -1235.9061    37.7926     0.0311    -999.25
  1312.1920  4328.5410 4328448.5000    -999.25     8.5000     8.9782     8.9782     8.9782     1.2356     1.3584   146.9920   146.9920     0.0000    -999.25    64.6442     1.1206     1.1565  1312.1919     0.6617    -999.25    -999.25     0.0309     0.0309 14200.9473     2.0875     1.3584     1.8453   285.2916     1.0000     1.0000 -1236.0320    38.2730     0.0309    -999.25
  1312.2186  4328.4170 4328417.0000    -999.25     8.5000     8.9704     8.9704     8.9745     1.2416     1.3621   147.0123   146.9839     0.0000    -999.25    64.5833     1.1219     1.1578  1312.2185     0.6626    -999.25    -999.25     0.0308     0.0308 14200.8438     2.0877     1.3621     1.8554   285.4368     1.0000     1.0000 -1236.0586    38.4165     0.0308    -999.25
  1312.3444  4332.6147 4333727.0000    -999.25     8.5000     8.9573     8.9573     8.9573     1.0965     1.3796   146.9459   146.9459     0.0000    -999.25    64.2955     1.1285     1.1636  1312.3444     0.6667    -999.25    -999.25     0.0304     0.0304 14218.2637     2.0888     1.3796     1.9033   286.1235     1.0000     1.0000 -1236.1843    39.0950     0.0304    -999.25
  1312.3710  4334.8496 4334849.5000    -999.25     8.5000     8.9545     8.9545     8.9594     1.0658     1.3811   146.9319   146.8684     0.0000    -999.25    64.1899     1.1296     1.1647  1312.3710     0.6675    -999.25    -999.25     0.0303     0.0303 14221.9473     2.0897     1.3811     1.9075   286.1576     1.0000     1.0000 -1236.2109    39.3034     0.0303    -999.25
  1312.4968  4356.2114 4357283.5000    -999.25     8.5000     8.9696     8.9696     8.9696     1.0416     1.3882   146.5019   146.5020     0.0000    -999.25    63.6901     1.1351     1.1701  1312.4967     0.6710    -999.25    -999.25     0.0298     0.0298 14295.5498     2.0938     1.3882     1.9270   286.3190     1.0000     1.0000 -1236.3368    40.2890     0.0298    -999.25
  1312.5234  4362.0273 4362027.0000    -999.25     8.5000     8.9728     8.9728     8.9734     1.0365     1.3888   146.4110   146.3752     0.0000    -999.25    63.4923     1.1364     1.1714  1312.5233     0.6725    -999.25    -999.25     0.0298     0.0298 14311.1123     2.0953     1.3888     1.9289   286.2441     1.0000     1.0000 -1236.3634    40.4391     0.0298    -999.25
  1312.6492  4395.8101 4393959.5000    -999.25     8.5000     8.9912     8.9912     8.9912     1.0248     1.3920   145.7757   145.7758     0.0000    -999.25    62.5571     1.1425     1.1775  1312.6492     0.6794    -999.25    -999.25     0.0294     0.0294 14415.8770     2.1024     1.3920     1.9376   285.8899     1.0000     1.0000 -1236.4891    41.1490     0.0294    -999.25
  1312.6758  4400.7114 4400711.5000    -999.25     8.5000     8.9951     8.9951     8.9932     1.0223     1.3937   145.6414   145.6907     0.0000    -999.25    62.4253     1.1435     1.1785  1312.6758     0.6806    -999.25    -999.25     0.0294     0.0294 14438.0293     2.1028     1.3937     1.9424   285.7941     1.0000     1.0000 -1236.5157    41.1171     0.0294    -999.25
  1312.8016  4415.4248 4413034.5000    -999.25     8.5000     9.0024     9.0024     9.0024     1.0194     1.4018   145.2883   145.2883     0.0000    -999.25    61.8021     1.1486     1.1836  1312.8015     0.6866    -999.25    -999.25     0.0295     0.0295 14478.4590     2.1047     1.4018     1.9651   285.3412     1.0000     1.0000 -1236.6416    40.9660     0.0295    -999.25
  1312.8282  4415.6401 4415640.0000    -999.25     8.5000     9.0040     9.0040     8.9994     1.0188     1.4018   145.2136   145.2913     0.0000    -999.25    61.7956     1.1490     1.1839  1312.8281     0.6871    -999.25    -999.25     0.0296     0.0296 14487.0078     2.1037     1.4018     1.9650   285.2521     1.0000     1.0000 -1236.6682    40.7251     0.0296    -999.25
  1312.9540  4403.1401 4402138.5000    -999.25     8.5000     8.9851     8.9851     8.9851     1.0685     1.4016   145.3053   145.3053     0.0000    -999.25    61.7649     1.1508     1.1851  1312.9540     0.6894    -999.25    -999.25     0.0302     0.0302 14442.7109     2.0991     1.4016     1.9646   284.8306     1.0000     1.0000 -1236.7939    39.5860     0.0302    -999.25
  1312.9806  4399.2832 4399283.5000    -999.25     8.5000     8.9811     8.9811     8.9800     1.0790     1.4012   145.3247   145.3498     0.0000    -999.25    61.8549     1.1501     1.1841  1312.9806     0.6880    -999.25    -999.25     0.0304     0.0304 14433.3447     2.0975     1.4012     1.9634   284.8177     1.0000     1.0000 -1236.8206    39.1886     0.0304    -999.25
  1313.1064  4376.7251 4377163.5000    -999.25     8.5000     8.9560     8.9560     8.9560     1.1394     1.3991   145.5604   145.5603     0.0000    -999.25    62.2803     1.1472     1.1793  1313.1063     0.6815    -999.25    -999.25     0.0313     0.0313 14360.7734     2.0901     1.3991     1.9576   284.7567     1.0000     1.0000 -1236.9464    37.3090     0.0313    -999.25
  1313.1330  4372.4868 4372486.5000    -999.25     8.5000     8.9507     8.9507     8.9500     1.1522     1.3966   145.6102   145.5917     0.0000    -999.25    62.4888     1.1461     1.1776  1313.1329     0.6784    -999.25    -999.25     0.0316     0.0316 14345.4287     2.0888     1.3966     1.9506   284.7430     1.0000     1.0000 -1236.9730    36.8665     0.0316    -999.25
  1313.2588  4355.6484 4355829.0000    -999.25     8.5000     8.9217     8.9217     8.9217     1.2525     1.3847   145.7399   145.7399     0.0000    -999.25    63.4750     1.1408     1.1697  1313.2588     0.6635    -999.25    -999.25     0.0326     0.0326 14290.7783     2.0826     1.3847     1.9173   284.6785     1.0000     1.0000 -1237.0988    34.7740     0.0326    -999.25
  1313.2854  4352.3071 4352307.0000    -999.25     8.5000     8.9156     8.9156     8.9182     1.2737     1.3795   145.7673   145.7509     0.0000    -999.25    63.6240     1.1397     1.1681  1313.2854     0.6596    -999.25    -999.25     0.0327     0.0327 14279.2227     2.0814     1.3795     1.9032   284.6616     1.0000     1.0000 -1237.1254    34.5394     0.0327    -999.25
