~Version ---------------------------------------------------
VERS. 2.0 : CWLS log ASCII Standard -VERSION 2.0
WRAP.  NO : 
~Well ------------------------------------------------------
STRT.m                                                   1300.0 : 
STOP.m                                                1481.9656 : 
STEP.m                                                   0.1524 : 
NULL.                                                   -999.25 : 
COMP.                                                           : COMPANY
WELL.                                                    Well-3 : WELL
FLD .                                                           : FIELD
LOC .                                                           : LOCATION
SRVC.                                                           : SERVICE COMPANY
DATE. 2021-01-20 14:34:00   : Log Export Date {yyyy-MM-dd HH:mm : ss}
PROV.                                                           : PROVINCE
UWI .                                                    Well-3 : UNIQUE WELL ID
API .                                                           : API NUMBER
~Curve Information -----------------------------------------
DEPTH             .m        : DEPTH
ACOUSTICIMPEDANCE1.kPa.s/m  : ACOUSTICIMPEDANCE1
AI                .kPa.s/m  : AI
AVG_PIGN          .m3/m3    : AVG_PIGN
BS                .in       : BS
CALI              .in       : CALI
CALI[DERIVED]1    .in       : CALI[DERIVED]1
CALI1             .in       : CALI1
DEVI              .deg      : DEVI
DFL               .ohm.m    : DFL
DT                .us/ft    : DT
DT1               .us/ft    : DT1
FACIES            ._        : FACIES
FLD1              ._        : FLD1
GR                .gAPI     : GR
HDRS              .ohm.m    : HDRS
HMRS              .ohm.m    : HMRS
DEPTH_1           .m        : DEPTH_1
NPHI              .m3/m3    : NPHI
PERF_INT          ._        : PERF_INT
PERMEABILITY      .mD       : PERMEABILITY
PIGN              .m3/m3    : PIGN
PIGN_MODELLING    .m3/m3    : PIGN_MODELLING
PIMP              .kPa.s/m  : PIMP
RHOB              .g/cm3    : RHOB
RT_MODELLING      .ohm.m    : RT_MODELLING
RT_POWER          .ohm.m    : RT_POWER
SP                .mV       : SP
SUWI              ._        : SUWI
SUWI_MODELLING    ._        : SUWI_MODELLING
TDVSS             .m        : TDVSS
VCL               .%        : VCL
WATER_VOL         ._        : WATER_VOL
ZLT               ._        : ZLT
~Params ----------------------------------------------------
~Other -----------------------------------------------------
~ASCII -----------------------------------------------------
# ...
  1408.9660  9093.6338 9086614.0000    -999.25     8.5000     8.9892     8.9892     8.9892     0.3507     3.9637    89.6069    89.6069     4.0000    -999.25    55.7523     2.6827     2.8003  1408.9659     0.4447    -999.25    45.3859     0.1138     0.1138 29811.7266     2.6734     3.9637    15.7106   317.9642     1.0000     1.0000 -1332.8059    51.6970     0.1138     4.0000
  1408.9926  9100.8613 9100861.0000    -999.25     8.5000     8.9931     8.9931     8.9957     0.3197     4.2927    89.5116    90.1280     4.0000    -999.25    55.6121     2.6830     2.8002  1408.9926     0.4414    -999.25    49.5008     0.1169     0.1169 29858.4688     2.6727     4.2927    18.9396   317.8171     1.0000     1.0000 -1332.8325    50.7815     0.1169     4.0000
  1409.1184  8786.8154 8778873.0000    -999.25     8.5000     9.0266     9.0266     9.0266     0.3583     5.8490    92.5925    92.5922     4.0000    -999.25    54.9486     2.6844     2.7992  1409.1184     0.4256    -999.25    68.9618     0.1315     0.1315 28802.0801     2.6693     5.8490    34.2106   317.1215     1.0000     1.0000 -1332.9584    46.4520     0.1315     4.0000
  1409.1450  8710.7900 8710790.0000    -999.25     8.5000     9.0337     9.0337     9.0347     0.3665     5.8347    93.2440    93.7985     4.0000    -999.25    55.2146     2.6516     2.7627  1409.1450     0.4232    -999.25    77.2886     0.1373     0.1373 28578.7090     2.6648     5.8347    34.0448   317.0166     1.0000     1.0000 -1332.9850    45.3397     0.1373     4.0000
  1409.2708  8097.9233 8082005.5000    -999.25     8.5000     9.0732     9.0732     9.0731     0.3529     5.7672    99.5040    99.5033     4.0000    -999.25    56.4723     2.4963     2.5899  1409.2708     0.4120    -999.25   116.6690     0.1649     0.1649 26515.7656     2.6436     5.7672    33.2606   316.5203     1.0000     1.0000 -1333.1107    40.0790     0.1649     4.0000
  1409.2974  7949.0508 7949051.0000    -999.25     8.5000     9.0815     9.0815     9.0786     0.3500     5.4462   100.8276   100.7594     4.0000    -999.25    57.1751     2.4562     2.5439  1409.2974     0.4109    -999.25   115.5847     0.1696     0.1696 26079.5625     2.6295     5.4462    30.1481   316.4216     0.9990     0.9990 -1333.1373    39.7165     0.1694     4.0000
  1409.4232  7321.3076 7316222.5000    -999.25     8.5000     9.1044     9.1044     9.1044     0.2027     3.9279   106.7005   106.6999     4.0000    -999.25    60.4987     2.2666     2.3263  1409.4231     0.4054    -999.25   110.4567     0.1918     0.1918 24003.3555     2.5629     3.9279    15.4282   315.9545     0.9940     0.9940 -1333.2632    38.0020     0.1907     4.0000
  1409.4498  7182.4131 7182413.0000    -999.25     8.5000     9.1092     9.1092     9.1248     0.1715     3.7052   107.9423   107.4333     4.0000    -999.25    61.1772     2.2440     2.2980  1409.4497     0.4055    -999.25    99.6739     0.1934     0.1934 23564.3477     2.5436     3.7052    13.9627   315.8947     0.9881     0.9881 -1333.2898    38.5424     0.1910     4.0000
  1409.5756  6739.0776 6756981.0000    -999.25     8.5000     9.2214     9.2214     9.2214     0.1288     2.6518   110.9022   110.9019     4.0000    -999.25    64.3860     2.1374     2.1639  1409.5756     0.4059    -999.25    48.6783     0.2007     0.2007 22168.5723     2.4520     2.6518     7.0323   315.6120     0.9600     0.9600 -1333.4155    41.0980     0.1927     4.0000
  1409.6022  6667.0244 6667024.5000    -999.25     8.5000     9.2451     9.2451     9.2930     0.1198     2.6094   111.5281   111.0716     4.0000    -999.25    64.5845     2.1319     2.1554  1409.6022     0.4070    -999.25    43.6884     0.2017     0.2017 21873.4395     2.4395     2.6094     6.8176   315.6927     0.9534     0.9534 -1333.4421    41.4096     0.1923     4.0000
  1409.7280  6485.0000 6503442.5000    -999.25     8.5000     9.6318     9.6318     9.6318     0.0751     2.4088   111.8741   111.8740     4.0000    -999.25    65.5232     2.1061     2.1150  1409.7279     0.4123    -999.25    20.0892     0.2067     0.2067 21336.7520     2.3803     2.4088     5.8024   316.0746     0.9222     0.9222 -1333.5680    42.8830     0.1906     4.0000
  1409.7546  6468.8535 6468853.5000    -999.25     8.5000     9.7136     9.7136     9.7097     0.0656     2.4280   111.9472   111.7696     4.0000    -999.25    65.4761     2.1067     2.1149  1409.7545     0.4138    -999.25    18.9241     0.2076     0.2076 21223.2715     2.3759     2.4280     5.8968   316.2462     0.9179     0.9179 -1333.5946    42.9882     0.1905     4.0000
  1409.8804  6451.2339 6457822.5000    -999.25     8.5000    10.0781    10.0781    10.0781     0.0920     2.5186   111.2756   111.2757     4.0000    -999.25    65.2537     2.1092     2.1145  1409.8804     0.4212    -999.25    13.4140     0.2120     0.2120 21187.0820     2.3552     2.5186     6.3433   317.0575     0.8974     0.8974 -1333.7203    43.4860     0.1902     4.0000
  1409.9070  6455.4902 6455490.0000    -999.25     8.5000    10.1552    10.1552    10.0230     0.0976     2.5345   111.1336   111.2534     4.0000    -999.25    65.1494     2.1106     2.1159  1409.9070     0.4229    -999.25    13.0285     0.2120     0.2120 21179.4297     2.3537     2.5345     6.4248   317.3401     0.8938     0.8938 -1333.7469    43.8478     0.1895     4.0000
  1410.0328  6435.8096 6440195.5000    -999.25     8.5000     9.7624     9.7624     9.7625     0.0604     2.6096   111.1478   111.1478     4.0000    -999.25    64.6559     2.1175     2.1223  1410.0327     0.4309    -999.25    11.2049     0.2122     0.2122 21129.2500     2.3469     2.6096     6.8102   318.6770     0.8771     0.8771 -1333.8728    45.5590     0.1861     4.0000
  1410.0594  6436.9614 6436961.5000    -999.25     8.5000     9.6794     9.6794     9.6510     0.0525     2.6023   111.1508   111.4554     4.0000    -999.25    64.6456     2.1182     2.1219  1410.0593     0.4331    -999.25    11.1974     0.2113     0.2113 21118.6406     2.3474     2.6023     6.7724   319.0068     0.8736     0.8736 -1333.8994    46.3462     0.1846     4.0000
  1410.1852  6342.8223 6347868.5000    -999.25     8.5000     9.1237     9.1237     9.1238     0.0515     2.5678   112.9103   112.9102     4.0000    -999.25    64.5972     2.1217     2.1199  1410.1852     0.4438    -999.25    11.1615     0.2072     0.2072 20826.3398     2.3496     2.5678     6.5935   320.5669     0.8572     0.8572 -1334.0251    50.0690     0.1776     4.0000
  1410.2118  6329.0298 6329030.0000    -999.25     8.5000     9.0062     9.0062     9.0693     0.0513     2.5525   113.2824   113.5744     4.0000    -999.25    65.0506     2.1188     2.1145  1410.2118     0.4478    -999.25    11.6563     0.2063     0.2063 20764.5332     2.3523     2.5525     6.5164   320.9057     0.8531     0.8531 -1334.0518    51.2327     0.1760     4.0000
  1410.3376  6175.2520 6176419.5000    -999.25     8.5000     8.8118     8.8118     8.8117     0.1271     2.4802   116.7141   116.7160     4.0000    -999.25    67.1949     2.1052     2.0889  1410.3375     0.4669    -999.25    13.9965     0.2019     0.2019 20263.8438     2.3646     2.4802     6.1515   322.5078     0.8337     0.8337 -1334.1776    56.7360     0.1683     4.0000
  1410.3643  6144.0293 6144029.0000    -999.25     8.5000     8.7705     8.7705     8.8113     0.1432     2.4765   117.4425   117.5414     4.0000    -999.25    68.1789     2.0938     2.0758  1410.3643     0.4735    -999.25    14.7852     0.2024     0.2024 20157.5762     2.3674     2.4765     6.1329   322.7665     0.8290     0.8290 -1334.2043    57.8506     0.1678     4.0000
  1410.4900  5974.6416 5968182.5000    -999.25     8.5000     8.8096     8.8096     8.8096     0.1435     2.4587   121.4268   121.4270     4.0000    -999.25    72.8114     2.0400     2.0140  1410.4900     0.5046    -999.25    18.4980     0.2045     0.2045 19580.6504     2.3802     2.4587     6.0451   323.9844     0.8067     0.8067 -1334.3300    63.0980     0.1650     4.0000
  1410.5166  5930.9702 5930970.5000    -999.25     8.5000     8.8179     8.8179     8.8123     0.1436     2.4288   122.2700   121.9778     4.0000    -999.25    73.9815     2.0202     1.9950  1410.5166     0.5123    -999.25    18.3106     0.2062     0.2062 19458.5645     2.3792     2.4288     5.9035   324.1594     0.8026     0.8026 -1334.3566    63.7818     0.1654     4.0000
