~Version ---------------------------------------------------
VERS. 2.0 : CWLS log ASCII Standard -VERSION 2.0
WRAP.  NO : 
~Well ------------------------------------------------------
STRT.m                                                1333.6522 : 
STOP.m                                                1778.5078 : 
STEP.m                                                   0.1524 : 
NULL.                                                   -999.25 : 
COMP.                                                           : COMPANY
WELL.                                                   Well-15 : WELL
FLD .                                                           : FIELD
LOC .                                                           : LOCATION
SRVC.                                                           : SERVICE COMPANY
DATE. 2021-01-20 14:34:07   : Log Export Date {yyyy-MM-dd HH:mm : ss}
PROV.                                                           : PROVINCE
UWI .                                                   Well-15 : UNIQUE WELL ID
API .                                                           : API NUMBER
~Curve Information -----------------------------------------
DEPTH             .m        : DEPTH
ACOUSTICIMPEDANCE1.kPa.s/m  : ACOUSTICIMPEDANCE1
AI                .kPa.s/m  : AI
BS                .in       : BS
CALI              .in       : CALI
CALI[DERIVED]1    .in       : CALI[DERIVED]1
DRES              .ohm.m    : DRES
DT                .us/ft    : DT
DT2               .us/ft    : DT2
DT4P              .us/ft    : DT4P
FACIES            ._        : FACIES
FLD1              ._        : FLD1
GR                .gAPI     : GR
GR_EDTC           .gAPI     : GR_EDTC
LLD               .ohm.m    : LLD
LLS               .ohm.m    : LLS
M2R2              .ohm.m    : M2R2
LLS_1             .ohm.m    : LLS_1
LLD_1             .ohm.m    : LLD_1
DEPTH_1           .m        : DEPTH_1
MSFL              .ohm.m    : MSFL
NPHI              .m3/m3    : NPHI
PERF_INT          ._        : PERF_INT
PIMP              .kPa.s/m  : PIMP
PR                ._        : PR
RHOB              .g/cm3    : RHOB
RT_MODELLING      .ohm.m    : RT_MODELLING
RT_POWER          .ohm.m    : RT_POWER
SP                .mV       : SP
TDVSS             .m        : TDVSS
TENS              .t        : TENS
VPVS              ._        : VPVS
ZLT               ._        : ZLT
~Params ----------------------------------------------------
~Other -----------------------------------------------------
~ASCII -----------------------------------------------------
# ...
  1581.9118  7156.8477 7156970.5000     8.5000     8.5456     8.5456     5.4195   100.9179   272.6439   100.9179     0.0000    -999.25    68.2695   121.5792     5.4195     3.7889    -999.25    -999.25    -999.25  1581.9117     1.9275     0.4763    -999.25 23480.8750     0.4206     2.3696     5.4195    29.3710   -75.6877 -1325.0752  2047.0276     2.7017    12.0000
  1582.0642  7171.2188 7171406.5000     8.5000     8.7399     8.7399     5.2986    99.7806   271.0085    99.7806     0.0000    -999.25    70.1048   120.0247     5.2986     3.6995    -999.25    -999.25    -999.25  1582.0642     1.5850     0.4629    -999.25 23528.2363     0.4216     2.3476     5.2986    28.0752   -75.5278 -1325.1311  2061.9802     2.7161    12.0000
  1582.2166  7386.5708 7386863.5000     8.5000     9.1204     9.1204     5.2577    97.8949   268.1801    97.8949     0.0000    -999.25    70.1341   119.6917     5.2577     3.6550    -999.25    -999.25    -999.25  1582.2166     1.8750     0.4413    -999.25 24235.1152     0.4231     2.3724     5.2577    27.6434   -75.4099 -1325.1869  2041.0276     2.7395    12.0000
  1582.3690  7830.3462 7830619.0000     8.5000     9.4582     9.4582     5.2972    96.0525   306.1357    96.0525     0.0000    -999.25    68.7297   120.8230     5.2972     3.6630    -999.25    -999.25    -999.25  1582.3689     2.2385     0.4232    -999.25 25691.0078     0.4454     2.4676     5.2972    28.0603   -75.2640 -1325.2428  2041.0000     3.1872    12.0000
  1582.5214  7934.1729 7934103.0000     8.5000     9.6350     9.6350     5.4278   100.8692   306.6066   100.8692     0.0000    -999.25    67.1258   117.3424     5.4278     3.7236    -999.25    -999.25    -999.25  1582.5214     2.5946     0.4157    -999.25 26030.5215     0.4393     2.6257     5.4278    29.4610   -75.1528 -1325.2987  2050.9868     3.0397    12.0000
  1582.6738  8100.7915 8100172.5000     8.5000     9.7085     9.7085     5.5169   104.1411   305.2811   104.1411     0.0000    -999.25    66.1008   120.6477     5.5169     3.7690    -999.25    -999.25    -999.25  1582.6737     4.1713     0.4096    -999.25 26575.3691     0.4341     2.7678     5.5169    30.4362   -75.1250 -1325.3545  2042.0118     2.9314    12.0000
  1582.8262  7717.7754 7717381.0000     8.5000     9.7413     9.7413     5.5489   108.6143   299.9174   108.6143     0.0000    -999.25    64.3598   117.4065     5.5489     3.7998    -999.25    -999.25    -999.25  1582.8262     2.9654     0.4173    -999.25 25319.4902     0.4245     2.7502     5.5489    30.7903   -75.1388 -1325.4104  2038.0052     2.7613    12.0000
  1582.9786  7495.1943 7495270.0000     8.5000     9.8353     9.8353     5.6316   106.5369   298.7539   106.5369     0.0000    -999.25    61.6996   116.2523     5.6316     3.8502    -999.25    -999.25    -999.25  1582.9785     1.4814     0.4284    -999.25 24590.7812     0.4272     2.6198     5.6316    31.7149   -75.2564 -1325.4662  2098.9199     2.8042    12.0000
  1583.1310  7407.6245 7407887.5000     8.5000     9.9844     9.9844     5.6755   103.3237   275.6395   103.3237     0.0000    -999.25    60.7369   110.6040     5.6755     3.8633    -999.25    -999.25    -999.25  1583.1310     1.1098     0.4349    -999.25 24304.0918     0.4182     2.5111     5.6755    32.2113   -75.5207 -1325.5221  2187.8833     2.6677    12.0000
  1583.2834  8893.6543 8894215.0000     8.5000    10.1448    10.1448     5.6253    84.6955   240.5717    84.6955     0.0000    -999.25    60.4162   111.2786     5.6253     3.8701    -999.25    -999.25    -999.25  1583.2833     1.3638     0.4313    -999.25 29180.4941     0.4293     2.4713     5.6253    31.6440   -75.7222 -1325.5779  2135.0696     2.8405    12.0000
  1583.4358  8793.1963 8793275.0000     8.5000    10.4532    10.4532     5.7114    85.2436   221.8837    85.2436     0.0000    -999.25    59.9665   111.5589     5.7114     3.9466    -999.25    -999.25    -999.25  1583.4358     3.2036     0.4265    -999.25 28849.3281     0.4134     2.4592     5.7114    32.6201   -75.8125 -1325.6338  2060.0984     2.6029    12.0000
  1583.5882  8648.4727 8648569.0000     8.5000    10.8518    10.8518     5.9579    86.8287   215.0550    86.8287     0.0000    -999.25    60.3632   112.5163     5.9579     4.1069    -999.25    -999.25    -999.25  1583.5881     4.1475     0.4245    -999.25 28374.5723     0.4026     2.4637     5.9579    35.4966   -75.8611 -1325.6896  1887.2271     2.4768    12.0000
  1583.7406  8225.5068 8225628.0000     8.5000    10.7508    10.7508     6.2003    92.2125   200.7121    92.2125     0.0000    -999.25    59.4599   108.7016     6.2003     4.2743    -999.25    -999.25    -999.25  1583.7406     4.5360     0.4249    -999.25 26986.9688     0.3662     2.4885     6.2003    38.4437   -75.8888 -1325.7455  1678.2743     2.1767    12.0000
  1583.8930  8750.6152 8750721.0000     8.5000    10.5147    10.5147     6.5013    88.2569   190.3278    88.2569     0.0000    -999.25    58.1904    99.6432     6.5012     4.5068    -999.25    -999.25    -999.25  1583.8929     4.8663     0.4186    -999.25 28709.7148     0.3630     2.5338     6.5012    42.2656   -75.9375 -1325.8013  1498.2362     2.1565    12.0000
  1584.0454  8139.2021 8139164.0000     8.5000    10.1041    10.1041     7.0123    97.2010   182.9007    97.2010     0.0000    -999.25    55.9766    84.9246     7.0123     4.8783    -999.25    -999.25    -999.25  1584.0454     5.9854     0.4036    -999.25 26703.2930     0.3032     2.5956     7.0123    49.1724   -76.0413 -1325.8572  1327.2244     1.8817    12.0000
  1584.1978  7947.2173 7946800.0000     8.5000     9.7677     9.7677     7.5893   100.8762   175.9050   100.8762     0.0000    -999.25    49.3946    76.6404     7.5893     5.2872    -999.25    -999.25    -999.25  1584.1978     6.1659     0.3854    -999.25 26072.1797     0.2550     2.6302     7.5893    57.5975   -76.1806 -1325.9131  1181.1917     1.7438    12.0000
  1584.3502  7906.1055 7905842.0000     8.5000     9.7206     9.7206     8.4044    98.5864   177.7881    98.5864     0.0000    -999.25    43.3067    77.6741     8.4043     5.8407    -999.25    -999.25    -999.25  1584.3501     2.5180     0.3804    -999.25 25937.8008     0.2780     2.5572     8.4043    70.6323   -76.2014 -1325.9689  1096.1116     1.8034    12.0000
  1584.5026  7424.0942 7424355.5000     8.5000     9.7202     9.7202     9.4562    99.3338   179.0042    99.3338     0.0000    -999.25    42.0914    81.8066     9.4561     6.5286    -999.25    -999.25    -999.25  1584.5026     0.5533     0.3833    -999.25 24358.1230     0.2775     2.4195     9.4561    89.4178   -76.1599 -1326.0248   974.1601     1.8020    12.0000
  1584.6550  6716.0181 6716399.5000     8.5000     9.6123     9.6123    10.0714   106.4483   186.8859   106.4483     0.0000    -999.25    44.4269    91.5760    10.0714     6.9362    -999.25    -999.25    -999.25  1584.6549     0.4687     0.3867    -999.25 22035.4297     0.2599     2.3455    10.0714   101.4331   -76.1455 -1326.0806   893.1063     1.7557    12.0000
  1584.8074  6839.9575 6840041.5000     8.5000     9.5641     9.5641     9.9119   105.0096   181.1223   105.0096     0.0000    -999.25    47.5236    99.9793     9.9120     6.8562    -999.25    -999.25    -999.25  1584.8074     1.8231     0.3947    -999.25 22441.0801     0.2468     2.3565     9.9120    98.2477   -76.2984 -1326.1365   823.0919     1.7248    12.0000
  1584.9598  7117.7041 7117590.0000     8.5000     9.6210     9.6210     9.3840   102.3079   189.8033   102.3079     0.0000    -999.25    50.1412   107.6430     9.3840     6.4708    -999.25    -999.25    -999.25  1584.9597     3.1098     0.4132    -999.25 23351.6738     0.2952     2.3891     9.3840    88.0595   -76.4998 -1326.1923   757.0866     1.8552    12.0000
  1585.1122  8129.4619 8129598.5000     8.5000     9.6008     9.6008     8.6808    89.6089   187.5810    89.6089     0.0000    -999.25    54.9289   111.3771     8.6808     5.9604    -999.25    -999.25    -999.25  1585.1122     3.9032     0.4346    -999.25 26671.9121     0.3521     2.3900     8.6808    75.3563   -76.6320 -1326.2482   726.0407     2.0934    12.0000
