~Version ---------------------------------------------------
VERS. 2.0 : CWLS log ASCII Standard -VERSION 2.0
WRAP.  NO : 
~Well ------------------------------------------------------
STRT.m                                                   1280.0 : 
STOP.m                                                 1564.988 : 
STEP.m                                                   0.1524 : 
NULL.                                                   -999.25 : 
COMP.                                                           : COMPANY
WELL.                                                   Well-11 : WELL
FLD .                                                           : FIELD
LOC .                                                           : LOCATION
SRVC.                                                           : SERVICE COMPANY
DATE. 2021-01-20 14:34:05   : Log Export Date {yyyy-MM-dd HH:mm : ss}
PROV.                                                           : PROVINCE
UWI .                                                   Well-11 : UNIQUE WELL ID
API .                                                           : API NUMBER
~Curve Information -----------------------------------------
DEPTH             .m        : DEPTH
ACOUSTICIMPEDANCE1.kPa.s/m  : ACOUSTICIMPEDANCE1
AI                .kPa.s/m  : AI
AVG_PIGN          .m3/m3    : AVG_PIGN
CALI              .in       : CALI
CALI[DERIVED]1    .in       : CALI[DERIVED]1
DFL               .ohm.m    : DFL
DT                .us/ft    : DT
DT1               .us/ft    : DT1
FACIES            ._        : FACIES
FLD1              ._        : FLD1
GR                .gAPI     : GR
HDRS              .ohm.m    : HDRS
HMRS              .ohm.m    : HMRS
DEPTH_1           .m        : DEPTH_1
NPHI              .m3/m3    : NPHI
PERF_INT          ._        : PERF_INT
PERMEABILITY      .mD       : PERMEABILITY
PIGN              .m3/m3    : PIGN
PIGN_MODELLING    .m3/m3    : PIGN_MODELLING
PIMP              .kPa.s/m  : PIMP
RHOB              .g/cm3    : RHOB
LLD               .ohm.m    : LLD
RT_MODELLING      .ohm.m    : RT_MODELLING
RT_POWER          .ohm.m    : RT_POWER
SP                .mV       : SP
SUWI              ._        : SUWI
SUWI_MODELLING    ._        : SUWI_MODELLING
SXWI              ._        : SXWI
TDVSS             .m        : TDVSS
VCL               .%        : VCL
WATER_VOL         ._        : WATER_VOL
ZLT               ._        : ZLT
~Params ----------------------------------------------------
~Other -----------------------------------------------------
~ASCII -----------------------------------------------------
# ...
  1487.8736  5463.6519 5461816.5000    -999.25     8.9902     8.9902     5.8496   126.8766   126.8766     0.0000    -999.25    78.1946     4.2574     4.2478  1487.8737     0.5960    -999.25     0.0098     0.0223     0.0223 17919.3457     2.2743     4.2544     4.2544    18.0999   127.8932     1.0000     1.0000     1.0000 -1407.7537    86.6330     0.0223    18.0000
  1487.8932  5465.3345 5465334.5000    -999.25     8.9884     8.9884     5.8394   126.8585   126.8513     0.0000    -999.25    78.1010     4.2539     4.2446  1487.8932     0.5953    -999.25     0.0098     0.0225     0.0225 17930.8887     2.2747     4.2508     4.2508    18.0697   127.8967     1.0000     1.0000     1.0000 -1407.7732    86.5032     0.0225    18.0000
  1488.0260  5479.1699 5475811.0000    -999.25     8.9759     8.9759     5.7702   126.6797   126.6796     0.0000    -999.25    77.4671     4.2303     4.2225  1488.0260     0.5905    -999.25     0.0100     0.0240     0.0240 17965.2598     2.2772     4.2267     4.2267    17.8650   127.9204     1.0000     1.0000     1.0000 -1407.9060    85.6240     0.0240    18.0000
  1488.0457  5477.3652 5477365.0000    -999.25     8.9756     8.9756     5.7646   126.6532   126.6559     0.0000    -999.25    77.6028     4.2273     4.2191  1488.0457     0.5896    -999.25     0.0102     0.0242     0.0242 17970.3574     2.2760     4.2238     4.2238    17.8407   127.9235     1.0000     1.0000     1.0000 -1407.9257    85.4897     0.0242    18.0000
  1488.1784  5464.2490 5460160.5000    -999.25     8.9735     8.9735     5.7271   126.4963   126.4963     0.0000    -999.25    78.5165     4.2073     4.1958  1488.1785     0.5837    -999.25     0.0115     0.0257     0.0257 17913.9121     2.2677     4.2044     4.2044    17.6770   127.9442     1.0000     1.0000     1.0000 -1408.0585    84.5850     0.0257    18.0000
  1488.1980  5457.6191 5457619.5000    -999.25     8.9747     8.9747     5.7300   126.4731   126.4865     0.0000    -999.25    78.6375     4.2064     4.1938  1488.1980     0.5825    -999.25     0.0119     0.0260     0.0260 17905.5742     2.2646     4.2038     4.2038    17.6718   127.9466     1.0000     1.0000     1.0000 -1408.0780    84.3700     0.0260    18.0000
  1488.3308  5408.1768 5408961.0000    -999.25     8.9828     8.9828     5.7499   126.4202   126.4202     0.0000    -999.25    79.4572     4.2002     4.1804  1488.3308     0.5741    -999.25     0.0150     0.0285     0.0285 17745.9355     2.2431     4.1996     4.1996    17.6366   127.9628     1.0000     1.0000     1.0000 -1408.2108    82.9130     0.0285    18.0000
  1488.3505  5401.7427 5401743.0000    -999.25     8.9832     8.9832     5.7615   126.4124   126.4333     0.0000    -999.25    79.5035     4.2009     4.1797  1488.3505     0.5727    -999.25     0.0154     0.0289     0.0289 17722.2539     2.2403     4.2005     4.2005    17.6442   127.9578     1.0000     1.0000     1.0000 -1408.2305    82.6737     0.0289    18.0000
  1488.4832  5351.5083 5354978.0000    -999.25     8.9860     8.9860     5.8391   126.5218   126.5218     0.0000    -999.25    79.8159     4.2057     4.1752  1488.4833     0.5633    -999.25     0.0179     0.0316     0.0316 17568.8262     2.2214     4.2066     4.2066    17.6955   127.9241     1.0000     1.0000     1.0000 -1408.3633    81.0620     0.0316    18.0000
  1488.5028  5348.0708 5348071.0000    -999.25     8.9860     8.9860     5.8612   126.5380   126.5620     0.0000    -999.25    79.8867     4.2076     4.1755  1488.5028     0.5623    -999.25     0.0180     0.0318     0.0318 17546.1641     2.2203     4.2086     4.2086    17.7126   127.9270     1.0000     1.0000     1.0000 -1408.3828    80.9204     0.0318    18.0000
  1488.6356  5316.9634 5319416.0000    -999.25     8.9857     8.9857     6.0110   126.8343   126.8344     0.0000    -999.25    80.3664     4.2204     4.1777  1488.6356     0.5559    -999.25     0.0185     0.0334     0.0334 17452.1523     2.2125     4.2224     4.2224    17.8287   127.9469     1.0000     1.0000     1.0000 -1408.5156    79.9610     0.0334    18.0000
  1488.6553  5315.1655 5315165.5000    -999.25     8.9836     8.9836     6.0496   126.8782   126.8863     0.0000    -999.25    80.4869     4.2234     4.1790  1488.6553     0.5563    -999.25     0.0186     0.0332     0.0332 17438.2070     2.2125     4.2256     4.2256    17.8557   127.9698     1.0000     1.0000     1.0000 -1408.5353    80.0670     0.0332    18.0000
  1488.7880  5300.5190 5299079.0000    -999.25     8.9697     8.9697     6.3100   127.2358   127.2358     0.0000    -999.25    81.2989     4.2439     4.1884  1488.7881     0.5588    -999.25     0.0187     0.0320     0.0320 17385.4277     2.2126     4.2471     4.2471    18.0379   128.1242     1.0000     1.0000     1.0000 -1408.6681    80.7810     0.0320    18.0000
  1488.8076  5296.7026 5296703.0000    -999.25     8.9689     8.9689     6.3250   127.2886   127.2896     0.0000    -999.25    81.3481     4.2446     4.1880  1488.8076     0.5606    -999.25     0.0188     0.0315     0.0315 17377.6328     2.2120     4.2475     4.2475    18.0409   128.1371     1.0000     1.0000     1.0000 -1408.6876    81.1057     0.0315    18.0000
  1488.9404  5270.5942 5267275.0000    -999.25     8.9635     8.9635     6.4265   127.6546   127.6545     0.0000    -999.25    81.6812     4.2495     4.1857  1488.9404     0.5728    -999.25     0.0192     0.0278     0.0278 17281.0859     2.2074     4.2499     4.2499    18.0616   128.2242     1.0000     1.0000     1.0000 -1408.8204    83.3060     0.0278    18.0000
  1488.9600  5262.9316 5262931.5000    -999.25     8.9634     8.9634     6.4225   127.7086   127.7075     0.0000    -999.25    81.6715     4.2456     4.1823  1488.9600     0.5749    -999.25     0.0167     0.0243     0.0255 17266.8359     2.2051     4.2453     4.2453    18.0231   128.2306     1.0000     1.0000     1.0000 -1408.8400    82.0359     0.0243    18.0000
  1489.0928  5211.5332 5195560.5000    -999.25     8.9629     8.9629     6.3951   128.0661   128.0660     0.0000    -999.25    81.6058     4.2191     4.1594  1489.0928     0.5893    -999.25     0.0000     0.0001     0.0100 17045.8027     2.1897     4.2145     4.2145    17.7620   128.2738     1.0000     1.0000     1.0000 -1408.9728    73.4300     0.0001    18.0000
  1489.1124  5185.6172 5185617.0000    -999.25     8.9636     8.9636     6.3627   128.1188   128.1500     0.0000    -999.25    81.6044     4.2187     4.1612  1489.1123     0.5917    -999.25     0.0000     0.0001     0.0100 17013.1797     2.1797     4.2147     4.2147    17.7637   128.2992     1.0000     1.0000     1.0000 -1408.9923    72.1801     0.0001    18.0000
  1489.2452  5001.1177 4976894.5000    -999.25     8.9686     8.9686     6.1435   128.7194   128.7193     0.0000    -999.25    81.5949     4.2159     4.1736  1489.2452     0.6076    -999.25     0.0000     0.0001     0.0100 16328.3945     2.1120     4.2161     4.2161    17.7755   128.4715     1.0000     1.0000     1.0000 -1409.1252    63.7110     0.0001    18.0000
  1489.2648  4946.0894 4946089.0000    -999.25     8.9707     8.9707     6.1214   128.8080   128.8711     0.0000    -999.25    81.5572     4.2306     4.1915  1489.2648     0.6100    -999.25     0.0000     0.0001     0.0100 16227.3271     2.0902     4.2330     4.2330    17.9199   128.4916     1.0000     1.0000     1.0000 -1409.1448    60.9846     0.0001    19.0000
  1489.3976  4557.9419 4540779.0000    -999.25     8.9843     8.9843     5.9718   129.8994   129.8993     0.0000    -999.25    81.3019     4.3303     4.3122  1489.3976     0.6258    -999.25     0.0000     0.0001     0.0100 14897.5684     1.9425     4.3472     4.3472    18.8981   128.6274     1.0000     1.0000     1.0000 -1409.2776    42.5120     0.0001    19.0000
  1489.4172  4480.9590 4480959.0000    -999.25     8.9847     8.9847     5.9805   130.0605   130.1714     0.0000    -999.25    80.9307     4.3717     4.3565  1489.4171     0.6289    -999.25     0.0000     0.0001     0.0100 14701.3086     1.9121     4.3922     4.3922    19.3049   128.6311     1.0000     1.0000     1.0000 -1409.2971    38.8792     0.0001    19.0000
