~Version ---------------------------------------------------
VERS. 2.0 : CWLS log ASCII Standard -VERSION 2.0
WRAP.  NO : 
~Well ------------------------------------------------------
STRT.m                                                1239.5456 : 
STOP.m                                                  1697.66 : 
STEP.m                                                   0.1524 : 
NULL.                                                   -999.25 : 
COMP.                                                           : COMPANY
WELL.                                                   Well-16 : WELL
FLD .                                                           : FIELD
LOC .                                                           : LOCATION
SRVC.                                                           : SERVICE COMPANY
DATE. 2021-01-20 14:34:07   : Log Export Date {yyyy-MM-dd HH:mm : ss}
PROV.                                                           : PROVINCE
UWI .                                                   Well-16 : UNIQUE WELL ID
API .                                                           : API NUMBER
~Curve Information -----------------------------------------
DEPTH             .m        : DEPTH
ACOUSTICIMPEDANCE1.kPa.s/m  : ACOUSTICIMPEDANCE1
AI                .kPa.s/m  : AI
AVG_PIGN          .m3/m3    : AVG_PIGN
BIT               .m        : BIT
CALI              .in       : CALI
CALI_1            .in       : CALI_1
NPHI              .m3/m3    : NPHI
DT                .us/ft    : DT
FACIES            ._        : FACIES
FLD1              ._        : FLD1
GR                .gAPI     : GR
M2R2              .ohm.m    : M2R2
LLS               .ohm.m    : LLS
LLD               .ohm.m    : LLD
DEPTH_1           .m        : DEPTH_1
NPHI_1            .m3/m3    : NPHI_1
PEF               .b/e      : PEF
PIGN_MODELLING    .m3/m3    : PIGN_MODELLING
PIMP              .kPa.s/m  : PIMP
RHOB              .g/cm3    : RHOB
RT_MODELLING      .ohm.m    : RT_MODELLING
RT_POWER          .ohm.m    : RT_POWER
SP                .mV       : SP
SUWI_MODELLING    ._        : SUWI_MODELLING
TDVSS             .m        : TDVSS
ZCOR              .g/cm3    : ZCOR
RHOB_1            .g/cm3    : RHOB_1
ZLT               ._        : ZLT
~Params ----------------------------------------------------
~Other -----------------------------------------------------
~ASCII -----------------------------------------------------
# ...
  1330.9857  5195.0513 5195051.0000    -999.25     0.2159     9.5653     9.8653     0.5803   134.3043     0.0000    -999.25    95.4557     1.1052     1.0798     1.0780  1330.9857     0.5803     5.8606     0.0000 17044.1309     2.2891     1.0780     1.1621   196.2772     1.0000 -1250.2656     0.0670     2.2891     0.0000
  1331.1380  5263.7979 5263798.0000    -999.25     0.2159     9.5850     9.8850     0.5686   132.9382     0.0000    -999.25    96.9958     1.1384     1.1120     1.1106  1331.1381     0.5686     5.9571     0.0000 17269.6777     2.2958     1.1106     1.2334   196.2157     1.0000 -1250.4180     0.0830     2.2958     0.0000
  1331.2905  5388.6025 5388602.5000    -999.25     0.2159     9.5857     9.8857     0.5498   130.4871     0.0000    -999.25   100.2803     1.1868     1.1589     1.1576  1331.2905     0.5498     5.8867     0.0000 17679.1426     2.3069     1.1576     1.3400   196.1461     1.0000 -1250.5704     0.0836     2.3069     0.0000
  1331.4428  5531.2070 5531207.0000    -999.25     0.2159     9.5790     9.8790     0.5363   127.8007     0.0000    -999.25   103.1327     1.2428     1.2134     1.2120  1331.4429     0.5363     5.7796     0.0000 18147.0059     2.3192     1.2120     1.4689   196.0615     1.0000 -1250.7228     0.0772     2.3192     0.0000
  1331.5952  5646.3872 5646387.0000    -999.25     0.2159     9.5768     9.8768     0.5221   125.7713     0.0000    -999.25   104.0256     1.2904     1.2607     1.2588  1331.5952     0.5221     5.7594     0.0000 18524.8926     2.3299     1.2588     1.5846   195.9063     1.0000 -1250.8752     0.0745     2.3299     0.0000
  1331.7476  5700.9282 5700928.5000    -999.25     0.2159     9.5869     9.8869     0.5057   124.8514     0.0000    -999.25   103.7887     1.3070     1.2788     1.2763  1331.7476     0.5057     5.9235     0.0000 18703.8340     2.3352     1.2763     1.6289   195.6615     1.0000 -1251.0276     0.0732     2.3352     0.0000
  1331.9000  5669.8452 5669845.5000    -999.25     0.2159     9.6105     9.9105     0.4954   125.3746     0.0000    -999.25   104.1465     1.2877     1.2622     1.2592  1331.9000     0.4954     6.1098     0.0000 18601.8555     2.3322     1.2592     1.5856   195.4495     1.0000 -1251.1801     0.0724     2.3322     0.0000
  1332.0524  5579.4185 5579418.5000    -999.25     0.2159     9.6415     9.9415     0.5016   126.8985     0.0000    -999.25   103.9419     1.2590     1.2355     1.2321  1332.0524     0.5016     6.1755     0.0000 18305.1777     2.3229     1.2321     1.5181   195.3889     1.0000 -1251.3324     0.0770     2.3229     0.0000
  1332.2048  5494.6284 5494628.5000    -999.25     0.2159     9.6658     9.9658     0.5157   128.3353     0.0000    -999.25   101.4115     1.2583     1.2347     1.2310  1332.2048     0.5157     6.2072     0.0000 18026.9961     2.3135     1.2310     1.5154   195.4544     1.0000 -1251.4849     0.0929     2.3135     0.0000
  1332.3572  5502.2896 5502289.5000    -999.25     0.2159     9.6614     9.9614     0.4997   127.7356     0.0000    -999.25    97.4864     1.3218     1.2947     1.2904  1332.3572     0.4997     6.2598     0.0000 18052.1309     2.3059     1.2904     1.6651   195.5236     1.0000 -1251.6372     0.1065     2.3059     0.0000
  1332.5096  5610.3784 5610378.5000    -999.25     0.2159     9.6187     9.9187     0.4667   124.8835     0.0000    -999.25    94.3680     1.4772     1.4419     1.4368  1332.5096     0.4667     6.3314     0.0000 18406.7539     2.2987     1.4368     2.0644   195.4746     1.0000 -1251.7897     0.1083     2.2987     0.0000
  1332.6620  5980.2476 5980247.5000    -999.25     0.2159     9.5602     9.8602     0.4448   116.9405     0.0000    -999.25    91.9489     1.6647     1.6191     1.6132  1332.6620     0.4448     6.3903     0.0000 19620.2344     2.2944     1.6132     2.6024   195.2798     1.0000 -1251.9420     0.1078     2.2944     0.0000
  1332.8144  6500.0386 6500038.5000    -999.25     0.2159     9.5228     9.8228     0.4328   107.9267     0.0000    -999.25    88.9885     1.7140     1.6661     1.6613  1332.8145     0.4328     6.4334     0.0000 21325.5859     2.3016     1.6613     2.7599   195.0762     1.0000 -1252.0944     0.1084     2.3016     0.0000
  1332.9669  6783.9795 6783979.5000    -999.25     0.2159     9.5186     9.8186     0.4162   104.2766     0.0000    -999.25    87.6614     1.6116     1.5706     1.5680  1332.9669     0.4162     6.4717     0.0000 22257.1504     2.3209     1.5680     2.4586   194.9359     1.0000 -1252.2468     0.1019     2.3209     0.0000
  1333.1192  6868.0444 6868044.5000    -999.25     0.2159     9.5286     9.8286     0.4083   103.8124     0.0000    -999.25    91.4041     1.5229     1.4880     1.4874  1333.1193     0.4083     6.5902     0.0000 22532.9531     2.3392     1.4874     2.2124   194.7649     1.0000 -1252.3992     0.1023     2.3392     0.0000
  1333.2717  6603.4600 6603460.0000    -999.25     0.2159     9.5313     9.8313     0.4261   108.2350     0.0000    -999.25    97.7520     1.5115     1.4793     1.4805  1333.2717     0.4261     6.7776     0.0000 21664.8945     2.3449     1.4805     2.1919   194.4714     1.0000 -1252.5516     0.1216     2.3449     0.0000
  1333.4240  6252.1846 6252184.5000    -999.25     0.2159     9.5180     9.8180     0.4552   114.1260     0.0000    -999.25   100.5097     1.5382     1.5066     1.5096  1333.4241     0.4552     6.9359     0.0000 20512.4160     2.3410     1.5096     2.2789   194.1693     1.0000 -1252.7040     0.1310     2.3410     0.0000
  1333.5764  6117.8247 6117824.5000    -999.25     0.2159     9.4994     9.7994     0.4773   116.3086     0.0000    -999.25    99.0280     1.5609     1.5290     1.5339  1333.5764     0.4773     7.0435     0.0000 20071.6035     2.3345     1.5339     2.3528   194.0371     1.0000 -1252.8564     0.1294     2.3345     0.0000
  1333.7288  6035.1084 6035108.5000    -999.25     0.2159     9.4838     9.7837     0.4955   117.3017     0.0000    -999.25    95.9090     1.5706     1.5387     1.5452  1333.7288     0.4955     7.0809     0.0000 19800.2246     2.3226     1.5452     2.3876   194.0630     1.0000 -1253.0088     0.1432     2.3226     0.0000
  1333.8812  5932.0991 5932099.5000    -999.25     0.2159     9.4784     9.7784     0.5143   118.2596     0.0000    -999.25    93.2403     1.5641     1.5329     1.5401  1333.8812     0.5143     7.0504     0.0000 19462.2676     2.3016     1.5401     2.3719   194.1638     1.0000 -1253.1613     0.1658     2.3016     0.0000
  1334.0336  5820.7427 5820742.5000    -999.25     0.2159     9.4992     9.7992     0.5367   119.3962     0.0000    -999.25    91.4718     1.5310     1.5009     1.5082  1334.0336     0.5367     6.9746     0.0000 19096.9238     2.2801     1.5082     2.2747   194.3662     1.0000 -1253.3136     0.1694     2.2801     0.0000
  1334.1860  5706.0000 5706000.0000    -999.25     0.2159     9.5565     9.8565     0.5503   121.2416     0.0000    -999.25    89.3084     1.4772     1.4480     1.4542  1334.1860     0.5503     6.9719     0.0000 18720.4727     2.2697     1.4542     2.1147   194.7245     1.0000 -1253.4661     0.1595     2.2697     0.0000
  1334.3384  5652.4385 5652438.5000    -999.25     0.2159     9.6473     9.9473     0.5263   122.3689     0.0000    -999.25    85.5835     1.4296     1.3997     1.4045  1334.3384     0.5263     6.9348     0.0000 18544.7441     2.2693     1.4045     1.9726   195.1191     1.0000 -1253.6184     0.1458     2.2693     0.0000
  1334.4908  5597.1558 5597156.0000    -999.25     0.2159     9.8288    10.1288     0.4961   123.7191     0.0000    -999.25    81.5371     1.4162     1.3831     1.3862  1334.4908     0.4961     6.8212     0.0000 18363.3730     2.2719     1.3862     1.9216   195.3950     1.0000 -1253.7709     0.1264     2.2719     0.0000
  1334.6432  5505.1992 5505199.5000    -999.25     0.2159    10.1276    10.4276     0.4930   126.0182     0.0000    -999.25    78.3097     1.4312     1.3934     1.3946  1334.6432     0.4930     6.8384     0.0000 18061.6777     2.2761     1.3946     1.9449   195.4963     1.0000 -1253.9232     0.1088     2.2761     0.0000
