~Version ---------------------------------------------------
VERS. 2.0 : CWLS log ASCII Standard -VERSION 2.0
WRAP.  NO : 
~Well ------------------------------------------------------
STRT.m                                                   1250.0 : 
STOP.m                                                1661.9372 : 
STEP.m                                                   0.1524 : 
NULL.                                                   -999.25 : 
COMP.                                                           : COMPANY
WELL.                                                    Well-7 : WELL
FLD .                                                           : FIELD
LOC .                                                           : LOCATION
SRVC.                                                           : SERVICE COMPANY
DATE. 2021-01-20 14:34:01   : Log Export Date {yyyy-MM-dd HH:mm : ss}
PROV.                                                           : PROVINCE
UWI .                                                    Well-7 : UNIQUE WELL ID
API .                                                           : API NUMBER
~Curve Information -----------------------------------------
DEPTH             .m        : DEPTH
ACOUSTICIMPEDANCE1.kPa.s/m  : ACOUSTICIMPEDANCE1
AI                .kPa.s/m  : AI
AVG_PIGN          .m3/m3    : AVG_PIGN
CALI              .in       : CALI
CALI[DERIVED]1    .in       : CALI[DERIVED]1
DEVI              .deg      : DEVI
DFL               .ohm.m    : DFL
DT                .us/ft    : DT
FACIES            ._        : FACIES
FLD1              ._        : FLD1
GR                .gAPI     : GR
HDRS              .ohm.m    : HDRS
HMRS              .ohm.m    : HMRS
DEPTH_1           .m        : DEPTH_1
NPHI              .m3/m3    : NPHI
PEF               .b/e      : PEF
PERF_INT          ._        : PERF_INT
PERMEABILITY      .mD       : PERMEABILITY
PIGN              .m3/m3    : PIGN
PIGN_MODELLING    .m3/m3    : PIGN_MODELLING
PIMP              .kPa.s/m  : PIMP
RHOB              .g/cm3    : RHOB
LLD               .ohm.m    : LLD
RT_MODELLING      .ohm.m    : RT_MODELLING
RT_POWER          .ohm.m    : RT_POWER
SP                .mV       : SP
SUWI              ._        : SUWI
SUWI_MODELLING    ._        : SUWI_MODELLING
SXWI              ._        : SXWI
TDVSS             .m        : TDVSS
VCL               .%        : VCL
WATER_VOL         ._        : WATER_VOL
ZLT               ._        : ZLT
~Params ----------------------------------------------------
~Other -----------------------------------------------------
~ASCII -----------------------------------------------------
# ...
  1387.4648  5588.7881 5590003.5000    -999.25     9.0950     9.0950     0.2936     2.0524   125.6828     0.0000    -999.25    83.1940     1.7173     1.8076  1387.4648     0.5119     5.3272    -999.25     0.1915     0.0509     0.0509 18339.9082     2.3045     1.7838     1.7838     3.1820  -197.9915     1.0000     1.0000     1.0000 -1300.0948    66.7860     0.0509     2.0000
  1387.4888  5639.2119 5639211.5000    -999.25     9.0952     9.0952     0.2813     2.1059   124.8074     0.0000    -999.25    83.2883     1.7317     1.8251  1387.4888     0.5079     5.3196    -999.25     0.1906     0.0503     0.0503 18501.3516     2.3091     1.7937     1.7937     3.2179  -197.9923     1.0000     1.0000     1.0000 -1300.1188    66.6151     0.0503     2.0000
  1387.6172  5910.4971 5908945.0000    -999.25     9.0960     9.0960     0.3700     2.3924   120.3467     0.0000    -999.25    83.7924     1.8092     1.9186  1387.6172     0.4863     5.2953    -999.25     0.1856     0.0469     0.0469 19386.3027     2.3337     1.8465     1.8465     3.4096  -197.9808     1.0000     1.0000     1.0000 -1300.2472    65.7010     0.0469     2.0000
  1387.6412  5959.3623 5959362.5000    -999.25     9.0968     9.0968     0.3866     2.4410   119.5129     0.0000    -999.25    83.6243     1.8175     1.9271  1387.6412     0.4845     5.2907    -999.25     0.1819     0.0463     0.0463 19551.7148     2.3367     1.8468     1.8468     3.4108  -197.9787     1.0000     1.0000     1.0000 -1300.2712    65.8656     0.0463     2.0000
  1387.7696  6144.4790 6141552.0000    -999.25     9.1009     9.1009     0.6148     2.7006   116.7064     0.0000    -999.25    82.7251     1.8616     1.9723  1387.7697     0.4745     5.2923    -999.25     0.1623     0.0434     0.0434 20149.4492     2.3527     1.8485     1.8485     3.4171  -197.9736     1.0000     1.0000     1.0000 -1300.3995    66.7460     0.0434     2.0000
  1387.7936  6175.6064 6175606.0000    -999.25     9.1047     9.1047     0.6574     2.7202   116.1818     0.0000    -999.25    82.4533     1.8589     1.9676  1387.7936     0.4763     5.2926    -999.25     0.1565     0.0430     0.0430 20261.1758     2.3540     1.8384     1.8384     3.3802  -197.9726     1.0000     1.0000     1.0000 -1300.4236    67.0936     0.0430     2.0000
  1387.9220  6195.0874 6192916.0000    -999.25     9.1250     9.1250     0.6571     2.8249   116.1559     0.0000    -999.25    80.9993     1.8443     1.9424  1387.9220     0.4858     5.3121    -999.25     0.1255     0.0407     0.0407 20317.9648     2.3609     1.7840     1.7840     3.1827  -197.9756     1.0000     1.0000     1.0000 -1300.5520    68.9530     0.0407     2.0000
  1387.9460  6196.1514 6196151.5000    -999.25     9.1413     9.1413     0.6571     2.8032   116.1511     0.0000    -999.25    80.8549     1.8313     1.9276  1387.9460     0.4876     5.3157    -999.25     0.1229     0.0406     0.0406 20328.5801     2.3612     1.7674     1.7674     3.1252  -197.9762     1.0000     1.0000     1.0000 -1300.5759    69.3519     0.0406     2.0000
  1388.0744  6140.2944 6137580.5000    -999.25     9.2281     9.2281     0.6885     2.6869   117.2893     0.0000    -999.25    80.0825     1.7616     1.8484  1388.0743     0.4973     5.3567    -999.25     0.1087     0.0397     0.0397 20136.4180     2.3628     1.6786     1.6786     2.8176  -197.9852     1.0000     1.0000     1.0000 -1300.7043    71.4860     0.0397     2.0000
  1388.0984  6126.6323 6126632.5000    -999.25     9.2188     9.2188     0.6944     2.6405   117.5020     0.0000    -999.25    80.0798     1.7438     1.8303  1388.0984     0.5006     5.3644    -999.25     0.1066     0.0398     0.0398 20100.5000     2.3618     1.6610     1.6610     2.7605  -197.9869     1.0000     1.0000     1.0000 -1300.7284    71.9502     0.0398     2.0000
  1388.2268  6041.4409 6039093.5000    -999.25     9.1688     9.1688     0.8620     2.3921   118.8941     0.0000    -999.25    80.0653     1.6483     1.7333  1388.2268     0.5184     5.4621    -999.25     0.0951     0.0400     0.0400 19813.2988     2.3566     1.5668     1.5668     2.4547  -197.9811     1.0000     1.0000     1.0000 -1300.8568    74.4340     0.0400     2.0000
  1388.2509  6022.6631 6022663.0000    -999.25     9.2091     9.2091     0.8935     2.3404   119.1554     0.0000    -999.25    80.1645     1.6311     1.7167  1388.2509     0.5219     5.4804    -999.25     0.0884     0.0392     0.0392 19759.3926     2.3544     1.5497     1.5497     2.4032  -197.9800     1.0000     1.0000     1.0000 -1300.8809    75.1598     0.0392     2.0000
  1388.3792  5877.8242 5876712.5000    -999.25     9.4236     9.4236     0.8644     2.0652   121.4948     0.0000    -999.25    80.6930     1.5396     1.6287  1388.3792     0.5406     5.6667    -999.25     0.0524     0.0350     0.0350 19280.5527     2.3429     1.4591     1.4591     2.1291  -197.9686     1.0000     1.0000     1.0000 -1301.0092    79.0240     0.0350     2.0000
  1388.4032  5849.4111 5849411.0000    -999.25     9.4832     9.4832     0.8590     2.0346   121.9324     0.0000    -999.25    80.7964     1.5225     1.6104  1388.4032     0.5463     5.7015    -999.25     0.0467     0.0336     0.0336 19190.9805     2.3400     1.4428     1.4428     2.0831  -197.9665     1.0000     1.0000     1.0000 -1301.0332    79.8246     0.0336     2.0000
  1388.5316  5639.5864 5641835.5000    -999.25     9.8021     9.8021     0.7613     1.8710   125.6225     0.0000    -999.25    81.3493     1.4314     1.5128  1388.5316     0.5767     6.0059    -999.25     0.0160     0.0265     0.0265 18509.9590     2.3243     1.3553     1.3553     1.8367  -197.9491     1.0000     1.0000     1.0000 -1301.1616    84.1080     0.0265     2.0000
  1388.5557  5602.8745 5602874.5000    -999.25     9.8172     9.8172     0.7430     1.8379   126.3151     0.0000    -999.25    81.2948     1.4148     1.4923  1388.5557     0.5809     6.0630    -999.25     0.0149     0.0261     0.0261 18382.1348     2.3219     1.3435     1.3435     1.8057  -197.9458     1.0000     1.0000     1.0000 -1301.1857    84.3344     0.0261     2.0000
  1388.6840  5416.3584 5422024.5000    -999.25     9.8975     9.8975     0.7365     1.6616   129.9462     0.0000    -999.25    81.0041     1.3263     1.3834  1388.6840     0.6035     6.3652    -999.25     0.0088     0.0241     0.0241 17788.7949     2.3092     1.2807     1.2807     1.6403  -197.9477     1.0000     1.0000     1.0000 -1301.3140    85.5400     0.0241     2.0000
  1388.7080  5388.1943 5388194.5000    -999.25     9.8909     9.8909     0.7353     1.6251   130.6254     0.0000    -999.25    80.5876     1.3163     1.3704  1388.7080     0.6030     6.4217    -999.25     0.0096     0.0246     0.0246 17677.8027     2.3092     1.2792     1.2792     1.6365  -197.9481     1.0000     1.0000     1.0000 -1301.3380    85.2296     0.0246     2.0000
  1388.8364  5329.4019 5334483.5000    -999.25     9.8552     9.8552     0.5512     1.4302   132.0664     0.0000    -999.25    78.3589     1.2626     1.3007  1388.8364     0.6001     6.6157    -999.25     0.0136     0.0274     0.0274 17501.5859     2.3092     1.2712     1.2712     1.6159  -197.9617     1.0000     1.0000     1.0000 -1301.4664    83.5690     0.0274     2.0000
  1388.8605  5324.4023 5324402.5000    -999.25     9.7926     9.7926     0.5167     1.4189   132.3369     0.0000    -999.25    77.7088     1.2643     1.3023  1388.8605     0.5975     6.6521    -999.25     0.0159     0.0282     0.0282 17468.5117     2.3117     1.2811     1.2811     1.6417  -197.9642     1.0000     1.0000     1.0000 -1301.4905    83.0917     0.0282     2.0000
  1388.9888  5449.1328 5452114.5000    -999.25     9.4594     9.4594     0.3871     1.3589   130.0696     0.0000    -999.25    74.2478     1.2737     1.3111  1388.9888     0.5840     6.6770    -999.25     0.0276     0.0324     0.0324 17887.5156     2.3254     1.3338     1.3338     1.7790  -197.9716     1.0000     1.0000     1.0000 -1301.6188    80.5510     0.0324     2.0000
  1389.0128  5476.0044 5476004.5000    -999.25     9.4127     9.4127     0.3628     1.3805   129.6455     0.0000    -999.25    73.8509     1.2871     1.3283  1389.0128     0.5812     6.6817    -999.25     0.0305     0.0329     0.0329 17965.8945     2.3292     1.3476     1.3476     1.8171  -197.9730     1.0000     1.0000     1.0000 -1301.6428    80.1724     0.0329     2.0000
