~Version ---------------------------------------------------
VERS. 2.0 : CWLS log ASCII Standard -VERSION 2.0
WRAP.  NO : 
~Well ------------------------------------------------------
STRT.m                                                   1280.0 : 
STOP.m                                                 1564.988 : 
STEP.m                                                   0.1524 : 
NULL.                                                   -999.25 : 
COMP.                                                           : COMPANY
WELL.                                                   Well-11 : WELL
FLD .                                                           : FIELD
LOC .                                                           : LOCATION
SRVC.                                                           : SERVICE COMPANY
DATE. 2021-01-20 14:34:05   : Log Export Date {yyyy-MM-dd HH:mm : ss}
PROV.                                                           : PROVINCE
UWI .                                                   Well-11 : UNIQUE WELL ID
API .                                                           : API NUMBER
~Curve Information -----------------------------------------
DEPTH             .m        : DEPTH
ACOUSTICIMPEDANCE1.kPa.s/m  : ACOUSTICIMPEDANCE1
AI                .kPa.s/m  : AI
AVG_PIGN          .m3/m3    : AVG_PIGN
CALI              .in       : CALI
CALI[DERIVED]1    .in       : CALI[DERIVED]1
DFL               .ohm.m    : DFL
DT                .us/ft    : DT
DT1               .us/ft    : DT1
FACIES            ._        : FACIES
FLD1              ._        : FLD1
GR                .gAPI     : GR
HDRS              .ohm.m    : HDRS
HMRS              .ohm.m    : HMRS
DEPTH_1           .m        : DEPTH_1
NPHI              .m3/m3    : NPHI
PERF_INT          ._        : PERF_INT
PERMEABILITY      .mD       : PERMEABILITY
PIGN              .m3/m3    : PIGN
PIGN_MODELLING    .m3/m3    : PIGN_MODELLING
PIMP              .kPa.s/m  : PIMP
RHOB              .g/cm3    : RHOB
LLD               .ohm.m    : LLD
RT_MODELLING      .ohm.m    : RT_MODELLING
RT_POWER          .ohm.m    : RT_POWER
SP                .mV       : SP
SUWI              ._        : SUWI
SUWI_MODELLING    ._        : SUWI_MODELLING
SXWI              ._        : SXWI
TDVSS             .m        : TDVSS
VCL               .%        : VCL
WATER_VOL         ._        : WATER_VOL
ZLT               ._        : ZLT
~Params ----------------------------------------------------
~Other -----------------------------------------------------
~ASCII -----------------------------------------------------
  1280.0000  4587.3696    -999.25    -999.25     8.9531     8.9531     0.9338   151.4907   151.4908     0.0000    -999.25    48.8699     0.7067     0.7136  1280.0000     0.6840    -999.25    -999.25     0.0150     0.0150    -999.25     2.2800     0.7045     0.7045     0.4963   146.7918     1.0000     1.0000     1.0000 -1199.8800    94.1390     0.0150    -999.25
  1280.0196  4587.4463 4587446.0000    -999.25     8.9611     8.9611     0.9426   151.3943   151.3927     0.0000    -999.25    48.7408     0.7090     0.7159  1280.0195     0.6815    -999.25    -999.25     0.0150     0.0150 15050.6758     2.2786     0.7074     0.7074     0.5005   146.7756     1.0000     1.0000     1.0000 -1199.8995    93.6799     0.0150    -999.25
  1280.1524  4588.3481 4586607.0000    -999.25     9.0148     9.0148     1.0024   150.7284   150.7284     0.0000    -999.25    47.8660     0.7244     0.7317  1280.1525     0.6648    -999.25    -999.25     0.0150     0.0150 15047.9238     2.2690     0.7273     0.7273     0.5290   146.6662     1.0000     1.0000     1.0000 -1200.0325    90.5690     0.0150    -999.25
  1280.1720  4586.4834 4586483.0000    -999.25     9.0106     9.0106     1.0125   150.6301   150.6591     0.0000    -999.25    48.0103     0.7284     0.7358  1280.1720     0.6622    -999.25    -999.25     0.0160     0.0160 15047.5176     2.2666     0.7315     0.7315     0.5352   146.6634     1.0000     1.0000     1.0000 -1200.0520    90.0445     0.0160    -999.25
  1280.3048  4566.9395 4566953.5000    -999.25     8.9821     8.9821     1.0805   150.1889   150.1889     0.0000    -999.25    48.9882     0.7556     0.7632  1280.3048     0.6448    -999.25    -999.25     0.0225     0.0225 14983.4443     2.2503     0.7598     0.7598     0.5773   146.6447     1.0000     1.0000     1.0000 -1200.1848    86.4910     0.0225    -999.25
  1280.3244  4564.0713 4564071.0000    -999.25     8.9746     8.9746     1.0818   150.1238   150.1792     0.0000    -999.25    49.1704     0.7587     0.7663  1280.3243     0.6416    -999.25    -999.25     0.0234     0.0234 14973.9873     2.2480     0.7628     0.7628     0.5819   146.6514     1.0000     1.0000     1.0000 -1200.2043    85.9487     0.0234    -999.25
  1280.4572  4531.5327 4534979.5000    -999.25     8.9239     8.9239     1.0901   150.1133   150.1133     0.0000    -999.25    50.4051     0.7799     0.7874  1280.4573     0.6196    -999.25    -999.25     0.0295     0.0295 14878.5420     2.2318     0.7829     0.7829     0.6129   146.6971     1.0000     1.0000     1.0000 -1200.3373    82.2740     0.0295    -999.25
  1280.4768  4530.6860 4530686.0000    -999.25     8.9181     8.9181     1.0928   150.1118   150.1751     0.0000    -999.25    50.5742     0.7818     0.7891  1280.4768     0.6171    -999.25    -999.25     0.0302     0.0302 14864.4551     2.2313     0.7846     0.7846     0.6157   146.7029     1.0000     1.0000     1.0000 -1200.3568    81.8774     0.0302    -999.25
  1280.6096  4510.1519 4511989.0000    -999.25     8.8788     8.8788     1.1115   150.5938   150.5938     0.0000    -999.25    51.7201     0.7946     0.8004  1280.6096     0.5999    -999.25    -999.25     0.0347     0.0347 14803.1133     2.2284     0.7963     0.7963     0.6341   146.7422     1.0000     1.0000     1.0000 -1200.4896    79.1900     0.0347    -999.25
  1280.6292  4509.2295 4509229.5000    -999.25     8.8722     8.8722     1.1148   150.6650   150.7088     0.0000    -999.25    51.8843     0.7960     0.8018  1280.6292     0.5993    -999.25    -999.25     0.0348     0.0348 14794.0596     2.2289     0.7976     0.7976     0.6362   146.7433     1.0000     1.0000     1.0000 -1200.5092    79.1312     0.0348    -999.25
  1280.7620  4492.8584 4491398.0000    -999.25     8.8273     8.8273     1.1368   151.4883   151.4882     0.0000    -999.25    52.9968     0.8053     0.8110  1280.7621     0.5948    -999.25    -999.25     0.0355     0.0355 14735.5576     2.2330     0.8066     0.8066     0.6506   146.7507     1.0000     1.0000     1.0000 -1200.6421    78.7330     0.0355    -999.25
  1280.7816  4488.7661 4488766.0000    -999.25     8.8175     8.8175     1.1347   151.6098   151.6067     0.0000    -999.25    53.1667     0.8070     0.8130  1280.7816     0.5953    -999.25    -999.25     0.0352     0.0352 14726.9229     2.2327     0.8084     0.8084     0.6536   146.7308     1.0000     1.0000     1.0000 -1200.6616    78.8553     0.0352    -999.25
  1280.9144  4461.8921 4461138.5000    -999.25     8.7512     8.7512     1.1206   152.4098   152.4097     0.0000    -999.25    54.3174     0.8189     0.8270  1280.9144     0.5988    -999.25    -999.25     0.0339     0.0339 14636.2812     2.2311     0.8207     0.8207     0.6735   146.5953     1.0000     1.0000     1.0000 -1200.7944    79.6840     0.0339    -999.25
  1280.9340  4457.0610 4457061.0000    -999.25     8.7462     8.7462     1.1209   152.5279   152.5038     0.0000    -999.25    54.3758     0.8208     0.8293  1280.9340     0.5997    -999.25    -999.25     0.0336     0.0336 14622.9033     2.2304     0.8226     0.8226     0.6767   146.5635     1.0000     1.0000     1.0000 -1200.8140    79.8471     0.0336    -999.25
  1281.0668  4429.9253 4429594.0000    -999.25     8.7123     8.7123     1.1228   153.1408   153.1408     0.0000    -999.25    54.7720     0.8337     0.8444  1281.0668     0.6057    -999.25    -999.25     0.0318     0.0318 14532.7881     2.2257     0.8356     0.8356     0.6982   146.3482     1.0000     1.0000     1.0000 -1200.9468    80.9520     0.0318    -999.25
  1281.0864  4425.5400 4425540.0000    -999.25     8.7150     8.7150     1.1220   153.2313   153.1938     0.0000    -999.25    54.6285     0.8344     0.8453  1281.0863     0.6063    -999.25    -999.25     0.0316     0.0316 14519.4883     2.2248     0.8362     0.8362     0.6992   146.3366     1.0000     1.0000     1.0000 -1200.9663    81.0506     0.0316    -999.25
  1281.2192  4404.3057 4403943.5000    -999.25     8.7329     8.7329     1.1165   153.5528   153.5527     0.0000    -999.25    53.6566     0.8396     0.8515  1281.2192     0.6106    -999.25    -999.25     0.0305     0.0305 14448.6328     2.2188     0.8402     0.8402     0.7059   146.2583     1.0000     1.0000     1.0000 -1201.0992    81.7190     0.0305    -999.25
  1281.2388  4400.7559 4400756.0000    -999.25     8.7348     8.7348     1.1136   153.6002   153.5798     0.0000    -999.25    53.4523     0.8391     0.8508  1281.2388     0.6113    -999.25    -999.25     0.0303     0.0303 14438.1758     2.2177     0.8396     0.8396     0.7049   146.2554     1.0000     1.0000     1.0000 -1201.1188    81.8233     0.0303    -999.25
  1281.3716  4381.2686 4381940.0000    -999.25     8.7477     8.7477     1.0940   153.7632   153.7632     0.0000    -999.25    52.0682     0.8358     0.8464  1281.3716     0.6156    -999.25    -999.25     0.0291     0.0291 14376.4443     2.2102     0.8352     0.8352     0.6976   146.2360     1.0000     1.0000     1.0000 -1201.2516    82.5300     0.0291    -999.25
  1281.3912  4379.1631 4379163.0000    -999.25     8.7487     8.7487     1.0937   153.7873   153.7906     0.0000    -999.25    51.9430     0.8348     0.8448  1281.3911     0.6158    -999.25    -999.25     0.0291     0.0291 14367.3330     2.2095     0.8341     0.8341     0.6957   146.2382     1.0000     1.0000     1.0000 -1201.2711    82.5368     0.0291    -999.25
  1281.5240  4364.1904 4364567.5000    -999.25     8.7554     8.7554     1.0919   153.9760   153.9760     0.0000    -999.25    51.0944     0.8276     0.8346  1281.5240     0.6168    -999.25    -999.25     0.0290     0.0290 14319.4473     2.2047     0.8265     0.8265     0.6831   146.2535     1.0000     1.0000     1.0000 -1201.4041    82.5830     0.0290    -999.25
  1281.5436  4362.4136 4362413.5000    -999.25     8.7572     8.7572     1.0907   154.0038   154.0094     0.0000    -999.25    51.1067     0.8268     0.8332  1281.5436     0.6164    -999.25    -999.25     0.0292     0.0292 14312.3799     2.2042     0.8258     0.8258     0.6819   146.2676     1.0000     1.0000     1.0000 -1201.4236    82.4993     0.0292    -999.25
