~Version ---------------------------------------------------
VERS. 2.0 : CWLS log ASCII Standard -VERSION 2.0
WRAP.  NO : 
~Well ------------------------------------------------------
STRT.m                                                1239.5456 : 
STOP.m                                                  1697.66 : 
STEP.m                                                   0.1524 : 
NULL.                                                   -999.25 : 
COMP.                                                           : COMPANY
WELL.                                                   Well-16 : WELL
FLD .                                                           : FIELD
LOC .                                                           : LOCATION
SRVC.                                                           : SERVICE COMPANY
DATE. 2021-01-20 14:34:07   : Log Export Date {yyyy-MM-dd HH:mm : ss}
PROV.                                                           : PROVINCE
UWI .                                                   Well-16 : UNIQUE WELL ID
API .                                                           : API NUMBER
~Curve Information -----------------------------------------
DEPTH             .m        : DEPTH
ACOUSTICIMPEDANCE1.kPa.s/m  : ACOUSTICIMPEDANCE1
AI                .kPa.s/m  : AI
AVG_PIGN          .m3/m3    : AVG_PIGN
BIT               .m        : BIT
CALI              .in       : CALI
CALI_1            .in       : CALI_1
NPHI              .m3/m3    : NPHI
DT                .us/ft    : DT
FACIES            ._        : FACIES
FLD1              ._        : FLD1
GR                .gAPI     : GR
M2R2              .ohm.m    : M2R2
LLS               .ohm.m    : LLS
LLD               .ohm.m    : LLD
DEPTH_1           .m        : DEPTH_1
NPHI_1            .m3/m3    : NPHI_1
PEF               .b/e      : PEF
PIGN_MODELLING    .m3/m3    : PIGN_MODELLING
PIMP              .kPa.s/m  : PIMP
RHOB              .g/cm3    : RHOB
RT_MODELLING      .ohm.m    : RT_MODELLING
RT_POWER          .ohm.m    : RT_POWER
SP                .mV       : SP
SUWI_MODELLING    ._        : SUWI_MODELLING
TDVSS             .m        : TDVSS
ZCOR              .g/cm3    : ZCOR
RHOB_1            .g/cm3    : RHOB_1
ZLT               ._        : ZLT
~Params ----------------------------------------------------
~Other -----------------------------------------------------
~ASCII -----------------------------------------------------
# ...
  1571.0156  5203.5972 5203597.0000    -999.25     0.2159     8.7841     9.0841     0.5336   120.9688     3.0000    -999.25   104.5053     3.4596     3.4320     3.4479  1571.0156     0.5336     3.0316     0.0000 17072.1699     2.0652     3.4479    11.8880   188.8279     1.0000 -1490.2957    -0.0595     2.0652    18.0000
  1571.1680  4230.7969 4230796.5000    -999.25     0.2159     8.7853     9.0853     0.5666   129.6633     3.0000    -999.25    87.7066     4.1898     4.1199     4.1367  1571.1680     0.5666     2.8572     0.0000 13880.5664     1.7998     4.1367    17.1123   189.0914     1.0000 -1490.4480    -0.0891     1.7998    18.0000
  1571.3204  3365.7837 3365783.5000    -999.25     0.2159     8.7788     9.0788     0.6134   137.6035     3.0000    -999.25    65.4185     5.6504     5.4920     5.5115  1571.3204     0.6134     2.8740     0.0000 11042.5967     1.5195     5.5115    30.3766   189.5153     1.0000 -1490.6005    -0.0742     1.5195    18.0000
  1571.4728  2956.9143 2956914.2500    -999.25     0.2159     8.7720     9.0720     0.6382   142.1273     3.0000    -999.25    48.1657     7.6498     7.3293     7.3432  1571.4728     0.6382     3.1174     0.0000  9701.1621     1.3788     7.3432    53.9226   190.1671     1.0000 -1490.7528    -0.0424     1.3788    18.0000
  1571.6252  3004.2017 3004201.5000    -999.25     0.2159     8.7704     9.0704     0.6269   142.5585     3.0000    -999.25    43.5126     7.8759     7.5503     7.5427  1571.6252     0.6269     3.5848     0.0000  9856.3047     1.4051     7.5427    56.8923   191.1425     1.0000 -1490.9053    -0.0050     1.4051    18.0000
  1571.7776  3480.8472 3480847.0000    -999.25     0.2159     8.7751     9.0751     0.5844   138.7816     3.0000    -999.25    51.9645     5.7386     5.5949     5.5798  1571.7776     0.5844     4.1979     0.0000 11420.1016     1.5849     5.5798    31.1342   192.4208     1.0000 -1491.0576     0.0130     1.5849    18.0000
  1571.9300  4428.6577 4428658.0000    -999.25     0.2159     8.7799     9.0799     0.5353   128.7224     3.0000    -999.25    65.5194     4.1172     4.0359     4.0196  1571.9301     0.5353     4.7844     0.0000 14529.7178     1.8703     4.0196    16.1572   193.7562     1.0000 -1491.2100     0.0004     1.8703    18.0000
  1572.0825  5845.5142 5845514.0000    -999.25     0.2159     8.7795     9.0795     0.5117   113.7959     3.0000    -999.25    72.4686     3.6762     3.5942     3.5744  1572.0825     0.5117     5.2695     0.0000 19178.1953     2.1824     3.5744    12.7763   194.7017     1.0000 -1491.3624     0.0047     2.1824    18.0000
  1572.2348  7484.3677 7484368.0000    -999.25     0.2159     8.7777     9.0777     0.5010    98.3791     0.0000    -999.25    69.9379     3.8952     3.7720     3.7427  1572.2349     0.5010     5.6900     0.0000 24555.0117     2.4157     3.7427    14.0078   194.9544     1.0000 -1491.5148     0.0229     2.4157    18.0000
  1572.3873  8686.3701 8686370.0000    -999.25     0.2159     8.7787     9.0787     0.4744    88.9623     0.0000    -999.25    64.8206     4.2252     4.0417     3.9996  1572.3873     0.4744     5.5704     0.0000 28498.5898     2.5353     3.9996    15.9968   194.7327     1.0000 -1491.6672     0.0204     2.5353    18.0000
  1572.5396  8744.9424 8744943.0000    -999.25     0.2159     8.7783     9.0783     0.4427    89.2622     0.0000    -999.25    62.6610     4.1208     3.9185     3.8716  1572.5397     0.4427     5.0011     0.0000 28690.7578     2.5610     3.8716    14.9893   194.5177     1.0000 -1491.8196     0.0109     2.5610    18.0000
  1572.6920  8110.1060 8110106.0000    -999.25     0.2159     8.7756     9.0756     0.4288    95.7082     0.0000    -999.25    64.3869     3.7723     3.5930     3.5481  1572.6920     0.4288     4.7920     0.0000 26607.9590     2.5466     3.5481    12.5890   194.5293     1.0000 -1491.9720     0.0278     2.5466    18.0000
  1572.8444  7529.6670 7529667.0000    -999.25     0.2159     8.7695     9.0695     0.4418   102.0781     0.0000    -999.25    69.0517     3.5538     3.3994     3.3549  1572.8444     0.4418     4.8977     0.0000 24703.6328     2.5217     3.3549    11.2554   194.6738     1.0000 -1492.1244     0.0420     2.5217    18.0000
  1572.9968  7242.6763 7242676.5000    -999.25     0.2159     8.7551     9.0551     0.4616   104.5406     0.0000    -999.25    74.9199     3.5236     3.3830     3.3353  1572.9968     0.4616     4.7537     0.0000 23762.0625     2.4841     3.3353    11.1242   194.7823     1.0000 -1492.2769     0.0172     2.4841    18.0000
  1573.1492  7282.0962 7282096.0000    -999.25     0.2159     8.7416     9.0416     0.4606   102.6897     0.0000    -999.25    79.9724     3.5931     3.4588     3.4055  1573.1492     0.4606     4.5136     0.0000 23891.3906     2.4534     3.4055    11.5974   194.7823     1.0000 -1492.4292    -0.0004     2.4534    18.0000
  1573.3016  7474.5977 7474598.0000    -999.25     0.2159     8.7371     9.0371     0.4495    99.9023     0.0000    -999.25    83.2470     3.6214     3.4925     3.4353  1573.3016     0.4495     4.7350     0.0000 24522.9590     2.4499     3.4353    11.8013   194.7555     1.0000 -1492.5817     0.0319     2.4499    18.0000
  1573.4540  7478.7075 7478707.5000    -999.25     0.2159     8.7353     9.0353     0.4566   100.1816     0.0000    -999.25    84.3045     3.5622     3.4398     3.3819  1573.4540     0.4566     5.3230     0.0000 24536.4414     2.4581     3.3819    11.4372   194.7569     1.0000 -1492.7340     0.0495     2.4581    18.0000
  1573.6064  7400.7432 7400743.0000    -999.25     0.2159     8.7312     9.0312     0.4754   102.3984     0.0000    -999.25    82.9637     3.4993     3.3805     3.3229  1573.6064     0.4754     5.5943     0.0000 24280.6523     2.4863     3.3229    11.0417   194.6987     1.0000 -1492.8865     0.0267     2.4863    18.0000
  1573.7589  7275.4736 7275474.0000    -999.25     0.2159     8.7284     9.0284     0.4891   104.7145     0.0000    -999.25    80.5842     3.4822     3.3623     3.3044  1573.7589     0.4891     5.2102     0.0000 23869.6641     2.4995     3.3044    10.9191   194.5104     1.0000 -1493.0388    -0.0017     2.4995    18.0000
  1573.9112  7068.0845 7068084.5000    -999.25     0.2159     8.7291     9.0291     0.5018   107.0927     0.0000    -999.25    79.0268     3.4904     3.3662     3.3083  1573.9113     0.5018     4.6391     0.0000 23189.2539     2.4834     3.3083    10.9448   194.2536     1.0000 -1493.1912    -0.0131     2.4834    18.0000
  1574.0637  6932.4341 6932434.0000    -999.25     0.2159     8.7315     9.0315     0.5178   108.1770     0.0000    -999.25    78.0535     3.5015     3.3713     3.3144  1574.0637     0.5178     4.3844     0.0000 22744.2070     2.4604     3.3144    10.9852   193.9992     1.0000 -1493.3436     0.0023     2.4604    18.0000
  1574.2160  6932.8774 6932877.5000    -999.25     0.2159     8.7347     9.0347     0.5276   108.4075     0.0000    -999.25    75.6409     3.5105     3.3732     3.3189  1574.2161     0.5276     4.4669     0.0000 22745.6602     2.4658     3.3189    11.0151   193.7831     1.0000 -1493.4960     0.0305     2.4658    18.0000
  1574.3685  7035.4238 7035424.0000    -999.25     0.2159     8.7359     9.0359     0.5270   108.1834     0.0000    -999.25    72.6587     3.5028     3.3598     3.3102  1574.3685     0.5270     4.5791     0.0000 23082.0996     2.4971     3.3102    10.9574   193.6222     1.0000 -1493.6484     0.0111     2.4971    18.0000
  1574.5208  7146.2793 7146279.5000    -999.25     0.2159     8.7350     9.0350     0.5252   107.0213     0.0000    -999.25    71.0099     3.4575     3.3135     3.2710  1574.5209     0.5252     4.6064     0.0000 23445.7988     2.5092     3.2710    10.6994   193.4828     1.0000 -1493.8008    -0.0272     2.5092    18.0000
  1574.6732  7301.0586 7301058.5000    -999.25     0.2159     8.7328     9.0328     0.5211   104.5229     0.0000    -999.25    70.1272     3.4192     3.2770     3.2424  1574.6732     0.5211     4.6383     0.0000 23953.6035     2.5037     3.2424    10.5132   193.3108     1.0000 -1493.9532    -0.0064     2.5037    18.0000
