~Version ---------------------------------------------------
VERS. 2.0 : CWLS log ASCII Standard -VERSION 2.0
WRAP.  NO : 
~Well ------------------------------------------------------
STRT.m                                                   1300.0 : 
STOP.m                                                1481.9656 : 
STEP.m                                                   0.1524 : 
NULL.                                                   -999.25 : 
COMP.                                                           : COMPANY
WELL.                                                    Well-3 : WELL
FLD .                                                           : FIELD
LOC .                                                           : LOCATION
SRVC.                                                           : SERVICE COMPANY
DATE. 2021-01-20 14:34:00   : Log Export Date {yyyy-MM-dd HH:mm : ss}
PROV.                                                           : PROVINCE
UWI .                                                    Well-3 : UNIQUE WELL ID
API .                                                           : API NUMBER
~Curve Information -----------------------------------------
DEPTH             .m        : DEPTH
ACOUSTICIMPEDANCE1.kPa.s/m  : ACOUSTICIMPEDANCE1
AI                .kPa.s/m  : AI
AVG_PIGN          .m3/m3    : AVG_PIGN
BS                .in       : BS
CALI              .in       : CALI
CALI[DERIVED]1    .in       : CALI[DERIVED]1
CALI1             .in       : CALI1
DEVI              .deg      : DEVI
DFL               .ohm.m    : DFL
DT                .us/ft    : DT
DT1               .us/ft    : DT1
FACIES            ._        : FACIES
FLD1              ._        : FLD1
GR                .gAPI     : GR
HDRS              .ohm.m    : HDRS
HMRS              .ohm.m    : HMRS
DEPTH_1           .m        : DEPTH_1
NPHI              .m3/m3    : NPHI
PERF_INT          ._        : PERF_INT
PERMEABILITY      .mD       : PERMEABILITY
PIGN              .m3/m3    : PIGN
PIGN_MODELLING    .m3/m3    : PIGN_MODELLING
PIMP              .kPa.s/m  : PIMP
RHOB              .g/cm3    : RHOB
RT_MODELLING      .ohm.m    : RT_MODELLING
RT_POWER          .ohm.m    : RT_POWER
SP                .mV       : SP
SUWI              ._        : SUWI
SUWI_MODELLING    ._        : SUWI_MODELLING
TDVSS             .m        : TDVSS
VCL               .%        : VCL
WATER_VOL         ._        : WATER_VOL
ZLT               ._        : ZLT
~Params ----------------------------------------------------
~Other -----------------------------------------------------
~ASCII -----------------------------------------------------
# ...
  1336.8808  5635.4082 5635690.5000    -999.25     8.5000     8.9142     8.9142     8.9142     1.0272     1.6445   128.2934   128.2931     0.0000    -999.25    76.4871     1.4613     1.4675  1336.8807     0.5830    -999.25    -999.25     0.0174     0.0174 18489.7988     2.3720     1.6445     2.7045   292.0162     1.0000     1.0000 -1260.7207    80.8430     0.0174     0.0000
  1336.9075  5641.1333 5641133.0000    -999.25     8.5000     8.9080     8.9080     8.9125     1.0047     1.6541   128.1878   128.1864     0.0000    -999.25    76.6211     1.4644     1.4710  1336.9075     0.5797    -999.25    -999.25     0.0177     0.0177 18507.6543     2.3725     1.6541     2.7366   292.0183     1.0000     1.0000 -1260.7474    80.5718     0.0177     0.0000
  1337.0332  5668.5215 5669494.5000    -999.25     8.5000     8.9045     8.9045     8.9045     1.1033     1.6992   127.6838   127.6838     0.0000    -999.25    77.2522     1.4789     1.4877  1337.0332     0.5641    -999.25    -999.25     0.0188     0.0188 18600.7031     2.3746     1.6992     2.8875   292.0284     1.0000     1.0000 -1260.8732    79.2950     0.0188     0.0000
  1337.0598  5675.4961 5675496.0000    -999.25     8.5000     8.9038     8.9038     8.9092     1.1242     1.7088   127.5771   127.5982     0.0000    -999.25    77.3142     1.4808     1.4911  1337.0598     0.5622    -999.25    -999.25     0.0188     0.0188 18620.3945     2.3755     1.7088     2.9203   292.0543     1.0000     1.0000 -1260.8998    79.2699     0.0188     0.0000
  1337.1856  5703.2070 5702983.0000    -999.25     8.5000     8.9314     8.9314     8.9314     1.0981     1.7538   127.1937   127.1937     0.0000    -999.25    77.6073     1.4902     1.5076  1337.1855     0.5531    -999.25    -999.25     0.0190     0.0190 18710.5742     2.3800     1.7538     3.0759   292.1768     1.0000     1.0000 -1261.0255    79.1510     0.0190     0.0000
  1337.2122  5708.7949 5708795.0000    -999.25     8.5000     8.9372     8.9372     8.9376     1.0926     1.7637   127.1126   127.1220     0.0000    -999.25    77.4284     1.4896     1.5093  1337.2122     0.5530    -999.25    -999.25     0.0188     0.0188 18729.6426     2.3808     1.7637     3.1112   292.2057     1.0000     1.0000 -1261.0521    79.2842     0.0188     0.0000
  1337.3380  5732.8994 5730784.5000    -999.25     8.5000     8.9672     8.9672     8.9672     1.1216     1.8105   126.7827   126.7827     0.0000    -999.25    76.5824     1.4869     1.5174  1337.3380     0.5527    -999.25    -999.25     0.0183     0.0183 18801.7871     2.3846     1.8105     3.2780   292.3427     1.0000     1.0000 -1261.1780    79.9140     0.0183     0.0000
  1337.3646  5735.4341 5735434.0000    -999.25     8.5000     8.9736     8.9736     8.9640     1.1277     1.8194   126.7129   126.8190     0.0000    -999.25    76.3034     1.4835     1.5150  1337.3646     0.5538    -999.25    -999.25     0.0181     0.0181 18817.0410     2.3844     1.8194     3.3107   292.3846     1.0000     1.0000 -1261.2046    80.0985     0.0181     0.0000
  1337.4904  5719.9487 5717972.0000    -999.25     8.5000     8.9489     8.9489     8.9489     1.1328     1.8615   126.9908   126.9908     0.0000    -999.25    74.9840     1.4675     1.5040  1337.4904     0.5589    -999.25    -999.25     0.0173     0.0173 18759.7480     2.3831     1.8615     3.4653   292.5830     1.0000     1.0000 -1261.3303    80.9710     0.0173     0.0000
  1337.5170  5714.2793 5714279.5000    -999.25     8.5000     8.9437     8.9437     8.9425     1.1339     1.8588   127.0496   127.2421     0.0000    -999.25    74.9765     1.4604     1.4955  1337.5170     0.5603    -999.25    -999.25     0.0172     0.0172 18747.6348     2.3819     1.8588     3.4551   292.6416     1.0000     1.0000 -1261.3569    81.1228     0.0172     0.0000
  1337.6428  5638.6826 5637384.0000    -999.25     8.5000     8.9122     8.9122     8.9122     1.1398     1.8458   128.4308   128.4306     0.0000    -999.25    74.9413     1.4269     1.4551  1337.6427     0.5670    -999.25    -999.25     0.0165     0.0165 18495.3535     2.3759     1.8458     3.4069   292.9191     1.0000     1.0000 -1261.4828    81.8410     0.0165     0.0000
  1337.6694  5621.1245 5621124.5000    -999.25     8.5000     8.9055     8.9055     8.9135     1.1410     1.8202   128.7228   128.7389     0.0000    -999.25    75.1811     1.4177     1.4435  1337.6693     0.5680    -999.25    -999.25     0.0164     0.0164 18442.0098     2.3739     1.8202     3.3161   292.9388     1.0000     1.0000 -1261.5094    81.9530     0.0164     0.0000
  1337.7952  5535.2007 5534396.5000    -999.25     8.5000     8.9199     8.9199     8.9199     1.2680     1.6991   130.1969   130.1968     0.0000    -999.25    76.3156     1.3743     1.3885  1337.7952     0.5727    -999.25    -999.25     0.0159     0.0159 18157.4688     2.3644     1.6991     2.8870   293.0322     1.0000     1.0000 -1261.6351    82.4830     0.0159     0.0000
  1337.8218  5516.0581 5516058.0000    -999.25     8.5000     8.9229     8.9229     8.9279     1.2949     1.6704   130.5086   130.3574     0.0000    -999.25    76.6032     1.3664     1.3797  1337.8218     0.5735    -999.25    -999.25     0.0158     0.0158 18097.3027     2.3619     1.6704     2.7941   293.0078     1.0000     1.0000 -1261.6617    82.6176     0.0158     0.0000
  1337.9476  5462.5835 5464071.0000    -999.25     8.5000     8.9657     8.9657     8.9657     1.3900     1.5344   131.1170   131.1169     0.0000    -999.25    77.9634     1.3294     1.3379  1337.9475     0.5774    -999.25    -999.25     0.0152     0.0152 17926.7422     2.3499     1.5344     2.3544   292.8927     1.0000     1.0000 -1261.7876    83.2540     0.0152     0.0000
  1337.9742  5453.0786 5453078.5000    -999.25     8.5000     8.9748     8.9748     8.9728     1.4101     1.5270   131.2456   131.1675     0.0000    -999.25    78.2307     1.3252     1.3348  1337.9741     0.5784    -999.25    -999.25     0.0151     0.0151 17890.6777     2.3481     1.5270     2.3319   292.8430     1.0000     1.0000 -1261.8142    83.4167     0.0151     0.0000
  1338.1000  5426.7827 5426886.5000    -999.25     8.5000     9.0062     9.0062     9.0062     1.3764     1.4918   131.4068   131.4068     0.0000    -999.25    79.4952     1.3054     1.3203  1338.1000     0.5835    -999.25    -999.25     0.0144     0.0144 17804.7441     2.3396     1.4918     2.2254   292.6076     1.0000     1.0000 -1261.9399    84.1860     0.0144     0.0000
  1338.1266  5421.3481 5421348.0000    -999.25     8.5000     9.0128     9.0128     9.0076     1.3693     1.4899   131.4409   131.4515     0.0000    -999.25    79.5187     1.3027     1.3196  1338.1266     0.5849    -999.25    -999.25     0.0142     0.0142 17786.5742     2.3379     1.4899     2.2198   292.5823     1.0000     1.0000 -1261.9666    84.3502     0.0142     0.0000
  1338.2524  5393.2031 5390658.5000    -999.25     8.5000     9.0144     9.0144     9.0144     1.3657     1.4809   131.6626   131.6628     0.0000    -999.25    79.6297     1.2898     1.3162  1338.2523     0.5914    -999.25    -999.25     0.0135     0.0135 17685.8867     2.3297     1.4809     2.1930   292.4630     1.0000     1.0000 -1262.0924    85.1270     0.0135     0.0000
  1338.2791  5384.1450 5384145.0000    -999.25     8.5000     9.0147     9.0147     9.0139     1.3649     1.4871   131.7097   131.7865     0.0000    -999.25    79.3496     1.2857     1.3123  1338.2791     0.5932    -999.25    -999.25     0.0134     0.0134 17664.5176     2.3266     1.4871     2.2117   292.4672     1.0000     1.0000 -1262.1191    85.2603     0.0134     0.0000
  1338.4048  5323.9175 5323696.0000    -999.25     8.5000     9.0116     9.0116     9.0117     1.3916     1.5165   132.3691   132.3691     0.0000    -999.25    78.0308     1.2659     1.2935  1338.4048     0.6016    -999.25    -999.25     0.0128     0.0128 17466.1934     2.3121     1.5165     2.2998   292.4874     1.0000     1.0000 -1262.2448    85.8880     0.0128     0.0000
  1338.4314  5310.9038 5310904.0000    -999.25     8.5000     9.0110     9.0110     9.0110     1.3973     1.5036   132.5086   132.5946     0.0000    -999.25    77.7968     1.2609     1.2873  1338.4314     0.6038    -999.25    -999.25     0.0128     0.0128 17424.2246     2.3089     1.5036     2.2616   292.5284     1.0000     1.0000 -1262.2714    85.9500     0.0128     0.0000
