~Version ---------------------------------------------------
VERS. 2.0 : CWLS log ASCII Standard -VERSION 2.0
WRAP.  NO : 
~Well ------------------------------------------------------
STRT.m                                                   1280.0 : 
STOP.m                                                 1564.988 : 
STEP.m                                                   0.1524 : 
NULL.                                                   -999.25 : 
COMP.                                                           : COMPANY
WELL.                                                   Well-11 : WELL
FLD .                                                           : FIELD
LOC .                                                           : LOCATION
SRVC.                                                           : SERVICE COMPANY
DATE. 2021-01-20 14:34:05   : Log Export Date {yyyy-MM-dd HH:mm : ss}
PROV.                                                           : PROVINCE
UWI .                                                   Well-11 : UNIQUE WELL ID
API .                                                           : API NUMBER
~Curve Information -----------------------------------------
DEPTH             .m        : DEPTH
ACOUSTICIMPEDANCE1.kPa.s/m  : ACOUSTICIMPEDANCE1
AI                .kPa.s/m  : AI
AVG_PIGN          .m3/m3    : AVG_PIGN
CALI              .in       : CALI
CALI[DERIVED]1    .in       : CALI[DERIVED]1
DFL               .ohm.m    : DFL
DT                .us/ft    : DT
DT1               .us/ft    : DT1
FACIES            ._        : FACIES
FLD1              ._        : FLD1
GR                .gAPI     : GR
HDRS              .ohm.m    : HDRS
HMRS              .ohm.m    : HMRS
DEPTH_1           .m        : DEPTH_1
NPHI              .m3/m3    : NPHI
PERF_INT          ._        : PERF_INT
PERMEABILITY      .mD       : PERMEABILITY
PIGN              .m3/m3    : PIGN
PIGN_MODELLING    .m3/m3    : PIGN_MODELLING
PIMP              .kPa.s/m  : PIMP
RHOB              .g/cm3    : RHOB
LLD               .ohm.m    : LLD
RT_MODELLING      .ohm.m    : RT_MODELLING
RT_POWER          .ohm.m    : RT_POWER
SP                .mV       : SP
SUWI              ._        : SUWI
SUWI_MODELLING    ._        : SUWI_MODELLING
SXWI              ._        : SXWI
TDVSS             .m        : TDVSS
VCL               .%        : VCL
WATER_VOL         ._        : WATER_VOL
ZLT               ._        : ZLT
~Params ----------------------------------------------------
~Other -----------------------------------------------------
~ASCII -----------------------------------------------------
# ...
  1563.3116  5686.3145 5702431.5000    -999.25     9.0057     9.0057     4.2856   124.8544   124.8542     0.0000    -999.25    68.8223     2.6218     2.5391  1563.3116     0.5060    -999.25    -999.25     0.0442     0.0442 18708.7656     2.3293     2.6045     2.6045     6.7834   145.4658     1.0000     1.0000     1.0000 -1483.1916    73.4540     0.0442    -999.25
  1563.3312  5670.3032 5670303.0000    -999.25     9.0087     9.0087     4.2159   125.0916   125.1769     0.0000    -999.25    68.9635     2.6053     2.5265  1563.3312     0.5059    -999.25    -999.25     0.0442     0.0442 18603.3574     2.3271     2.5881     2.5881     6.7000   145.4785     1.0000     1.0000     1.0000 -1483.2112    73.4882     0.0442    -999.25
  1563.4640  5534.3711 5546827.0000    -999.25     9.0285     9.0285     3.7441   127.3631   127.3628     0.0000    -999.25    69.9201     2.4933     2.4415  1563.4640     0.5055    -999.25    -999.25     0.0438     0.0438 18198.2500     2.3126     2.4769     2.4769     6.1350   145.5648     1.0000     1.0000     1.0000 -1483.3440    73.7200     0.0438    -999.25
  1563.4836  5528.6030 5528603.0000    -999.25     9.0323     9.0323     3.7012   127.6983   127.4700     0.0000    -999.25    70.0064     2.4794     2.4288  1563.4835     0.5050    -999.25    -999.25     0.0439     0.0439 18138.4609     2.3163     2.4633     2.4633     6.0691   145.5712     1.0000     1.0000     1.0000 -1483.3635    73.6644     0.0439    -999.25
  1563.6164  5566.2554 5572167.5000    -999.25     9.0580     9.0580     3.4105   128.1963   128.1962     0.0000    -999.25    70.5915     2.3848     2.3427  1563.6165     0.5016    -999.25    -999.25     0.0445     0.0445 18281.3887     2.3411     2.3712     2.3712     5.6226   145.6151     1.0000     1.0000     1.0000 -1483.4965    73.2880     0.0445    -999.25
  1563.6360  5578.5972 5578597.0000    -999.25     9.0612     9.0612     3.3806   128.2698   127.9330     0.0000    -999.25    70.7133     2.3789     2.3353  1563.6360     0.5010    -999.25    -999.25     0.0446     0.0446 18302.4844     2.3477     2.3665     2.3665     5.6004   145.6065     1.0000     1.0000     1.0000 -1483.5160    73.2286     0.0446    -999.25
  1563.7688  5779.3140 5776025.5000    -999.25     9.0831     9.0831     3.1776   126.1505   126.1494     0.0000    -999.25    71.5387     2.3392     2.2850  1563.7688     0.4972    -999.25    -999.25     0.0453     0.0453 18950.2148     2.3919     2.3345     2.3345     5.4499   145.5488     1.0000     1.0000     1.0000 -1483.6488    72.8260     0.0453    -999.25
  1563.7885  5805.3125 5805312.5000    -999.25     9.0844     9.0844     3.1672   125.8361   125.6667     0.0000    -999.25    71.6584     2.3566     2.2971  1563.7885     0.4976    -999.25    -999.25     0.0436     0.0436 19046.3008     2.3967     2.3552     2.3552     5.5496   145.5367     1.0000     1.0000     1.0000 -1483.6685    73.1651     0.0436    -999.25
  1563.9212  6047.5708 6036984.0000    -999.25     9.0931     9.0931     3.0972   122.4155   122.4156     0.0000    -999.25    72.4647     2.4737     2.3791  1563.9213     0.5006    -999.25    -999.25     0.0320     0.0320 19806.3789     2.4289     2.4943     2.4943     6.2215   145.4551     1.0000     1.0000     1.0000 -1483.8013    75.4490     0.0320    -999.25
  1563.9408  6071.2021 6071202.5000    -999.25     9.0934     9.0934     3.1265   121.9103   122.0378     0.0000    -999.25    72.5336     2.5086     2.4078  1563.9408     0.5032    -999.25    -999.25     0.0315     0.0315 19918.6426     2.4283     2.5312     2.5312     6.4164   145.4386     1.0000     1.0000     1.0000 -1483.8208    75.8383     0.0315    -999.25
  1564.0736  6184.8276 6166049.0000    -999.25     9.0958     9.0958     3.3250   119.4795   119.4782     0.0000    -999.25    73.0001     2.7445     2.6021  1564.0736     0.5207    -999.25    -999.25     0.0281     0.0281 20229.8203     2.4244     2.7815     2.7815     7.7367   145.3270     1.0000     1.0000     1.0000 -1483.9536    78.4760     0.0281    -999.25
  1564.0933  6180.1191 6180119.0000    -999.25     9.0910     9.0910     3.3767   119.1189   119.5025     0.0000    -999.25    73.0289     2.7562     2.6157  1564.0933     0.5255    -999.25    -999.25     0.0281     0.0281 20275.9805     2.4153     2.7894     2.7894     7.7815   145.3204     1.0000     1.0000     1.0000 -1483.9733    79.0686     0.0281    -999.25
  1564.2260  5994.7402 5996733.5000    -999.25     9.0583     9.0583     3.7247   119.6663   119.6662     0.0000    -999.25    73.2231     2.8351     2.7067  1564.2261     0.5574    -999.25    -999.25     0.0282     0.0282 19674.3223     2.3536     2.8430     2.8430     8.0826   145.2757     1.0000     1.0000     1.0000 -1484.1061    83.0600     0.0282    -999.25
  1564.2456  5969.6470 5969647.0000    -999.25     9.0523     9.0523     3.7295   119.7471   120.0367     0.0000    -999.25    73.3105     2.8138     2.6934  1564.2456     0.5627    -999.25    -999.25     0.0267     0.0267 19585.4570     2.3453     2.8174     2.8174     7.9424   145.2704     1.0000     1.0000     1.0000 -1484.1256    84.0024     0.0267    -999.25
  1564.3784  5694.0005 5713635.0000    -999.25     9.0120     9.0120     3.7624   122.5452   122.5467     0.0000    -999.25    73.9030     2.6698     2.6031  1564.3784     0.5982    -999.25    -999.25     0.0160     0.0160 18745.5234     2.2893     2.6442     2.6442     6.9918   145.2350     1.0000     1.0000     1.0000 -1484.2584    90.3880     0.0160    -999.25
  1564.3981  5675.6572 5675657.5000    -999.25     9.0093     9.0093     3.7352   122.9603   123.0648     0.0000    -999.25    74.1756     2.6499     2.5880  1564.3981     0.6012    -999.25    -999.25     0.0159     0.0159 18620.9238     2.2896     2.6252     2.6252     6.8939   145.2078     1.0000     1.0000     1.0000 -1484.2781    90.9054     0.0159    -999.25
  1564.5308  5520.1846 5525276.5000    -999.25     8.9912     8.9912     3.5518   126.5551   126.5551     0.0000    -999.25    76.0120     2.5159     2.4861  1564.5309     0.6211    -999.25    -999.25     0.0150     0.0150 18127.5488     2.2920     2.4969     2.4969     6.2345   145.0247     1.0000     1.0000     1.0000 -1484.4109    94.3910     0.0150    -999.25
  1564.5504  5503.0654 5503065.0000    -999.25     8.9968     8.9968     3.5347   127.0861   126.9260     0.0000    -999.25    76.5883     2.5141     2.4842  1564.5504     0.6208    -999.25    -999.25     0.0150     0.0150 18054.6758     2.2945     2.4976     2.4976     6.2382   144.9937     1.0000     1.0000     1.0000 -1484.4304    94.3471     0.0150    -999.25
  1564.6832  5442.5347 5445329.0000    -999.25     9.0347     9.0347     3.4191   129.4399   129.4396     0.0000    -999.25    80.4930     2.5019     2.4716  1564.6832     0.6189    -999.25    -999.25     0.0150     0.0150 17865.2520     2.3113     2.5026     2.5026     6.2630   144.7834     1.0000     1.0000     1.0000 -1484.5632    94.0500     0.0150    -999.25
  1564.7028  5436.8071 5436807.5000    -999.25     9.0441     9.0441     3.4448   129.7873   129.4757     0.0000    -999.25    81.4416     2.5119     2.4775  1564.7028     0.6163    -999.25    -999.25     0.0150     0.0150 17837.2949     2.3151     2.5141     2.5141     6.3214   144.7592     1.0000     1.0000     1.0000 -1484.5828    93.6513     0.0150    -999.25
  1564.8356  5499.5381 5497623.5000    -999.25     9.1081     9.1081     3.6192   129.7205   129.7205     0.0000    -999.25    87.8691     2.5802     2.5171  1564.8356     0.5983    -999.25    -999.25     0.0151     0.0151 18036.8223     2.3406     2.5917     2.5917     6.7169   144.5953     1.0000     1.0000     1.0000 -1484.7156    90.9500     0.0151    -999.25
  1564.8552  5506.5996 5506599.5000    -999.25     9.1089     9.1089     3.6653   129.7106   129.5448     0.0000    -999.25    88.9235     2.5843     2.5188  1564.8551     0.5954    -999.25    -999.25     0.0157     0.0157 18066.2715     2.3434     2.5947     2.5947     6.7326   144.5433     1.0000     1.0000     1.0000 -1484.7351    90.5802     0.0157    -999.25
