~Version ---------------------------------------------------
VERS. 2.0 : CWLS log ASCII Standard -VERSION 2.0
WRAP.  NO : 
~Well ------------------------------------------------------
STRT.m                                                1239.5456 : 
STOP.m                                                  1697.66 : 
STEP.m                                                   0.1524 : 
NULL.                                                   -999.25 : 
COMP.                                                           : COMPANY
WELL.                                                   Well-16 : WELL
FLD .                                                           : FIELD
LOC .                                                           : LOCATION
SRVC.                                                           : SERVICE COMPANY
DATE. 2021-01-20 14:34:07   : Log Export Date {yyyy-MM-dd HH:mm : ss}
PROV.                                                           : PROVINCE
UWI .                                                   Well-16 : UNIQUE WELL ID
API .                                                           : API NUMBER
~Curve Information -----------------------------------------
DEPTH             .m        : DEPTH
ACOUSTICIMPEDANCE1.kPa.s/m  : ACOUSTICIMPEDANCE1
AI                .kPa.s/m  : AI
AVG_PIGN          .m3/m3    : AVG_PIGN
BIT               .m        : BIT
CALI              .in       : CALI
CALI_1            .in       : CALI_1
NPHI              .m3/m3    : NPHI
DT                .us/ft    : DT
FACIES            ._        : FACIES
FLD1              ._        : FLD1
GR                .gAPI     : GR
M2R2              .ohm.m    : M2R2
LLS               .ohm.m    : LLS
LLD               .ohm.m    : LLD
DEPTH_1           .m        : DEPTH_1
NPHI_1            .m3/m3    : NPHI_1
PEF               .b/e      : PEF
PIGN_MODELLING    .m3/m3    : PIGN_MODELLING
PIMP              .kPa.s/m  : PIMP
RHOB              .g/cm3    : RHOB
RT_MODELLING      .ohm.m    : RT_MODELLING
RT_POWER          .ohm.m    : RT_POWER
SP                .mV       : SP
SUWI_MODELLING    ._        : SUWI_MODELLING
TDVSS             .m        : TDVSS
ZCOR              .g/cm3    : ZCOR
RHOB_1            .g/cm3    : RHOB_1
ZLT               ._        : ZLT
~Params ----------------------------------------------------
~Other -----------------------------------------------------
~ASCII -----------------------------------------------------
# ...
  1361.4656  5993.2119 5993212.0000    -999.25     0.2159     9.2340     9.5340     0.4749   122.8057     0.0000    -999.25    95.5803     1.5474     1.5158     1.5406  1361.4656     0.4749     5.7179     0.0000 19662.7695     2.4147     1.5406     2.3734   193.4730     1.0000 -1280.7456     0.0650     2.4147     0.0000
  1361.6180  5879.7637 5879763.5000    -999.25     0.2159     9.3475     9.6475     0.4912   124.1125     0.0000    -999.25    94.8429     1.4272     1.4016     1.4230  1361.6180     0.4912     5.6506     0.0000 19290.5625     2.3942     1.4230     2.0249   193.6433     1.0000 -1280.8981     0.1055     2.3942     0.0000
  1361.7704  5982.1772 5982177.0000    -999.25     0.2159     9.2912     9.5912     0.4906   122.5278     0.0000    -999.25    95.5550     1.3995     1.3743     1.3950  1361.7704     0.4906     5.6292     0.0000 19626.5664     2.4048     1.3950     1.9460   194.0878     1.0000 -1281.0504     0.1045     2.4048     0.0000
  1361.9228  6188.8169 6188816.5000    -999.25     0.2159     9.1477     9.4477     0.4876   119.9930     0.0000    -999.25    96.7869     1.4504     1.4208     1.4431  1361.9229     0.4876     5.6150     0.0000 20304.5156     2.4364     1.4431     2.0825   194.5256     1.0000 -1281.2028     0.0754     2.4364     0.0000
  1362.0753  6516.4551 6516455.0000    -999.25     0.2159     9.0910     9.3910     0.5030   115.3912     0.0000    -999.25    99.0007     1.5162     1.4805     1.5045  1362.0753     0.5030     5.5643     0.0000 21379.4453     2.4670     1.5045     2.2635   194.7145     1.0000 -1281.3552     0.0598     2.4670     0.0000
  1362.2276  6635.1479 6635148.0000    -999.25     0.2159     9.1140     9.4141     0.5239   113.7818     0.0000    -999.25   100.6636     1.5605     1.5199     1.5449  1362.2277     0.5239     5.6117     0.0000 21768.8574     2.4769     1.5449     2.3867   194.6532     1.0000 -1281.5076     0.0466     2.4769     0.0000
  1362.3801  6394.5005 6394500.5000    -999.25     0.2159     9.1503     9.4503     0.5117   117.1248     0.0000    -999.25    99.5851     1.5780     1.5358     1.5607  1362.3801     0.5117     5.9655     0.0000 20979.3320     2.4572     1.5607     2.4358   194.3976     1.0000 -1281.6600     0.0296     2.4572     0.0000
  1362.5324  6149.3013 6149301.5000    -999.25     0.2159     9.2170     9.5170     0.4784   120.1792     0.0000    -999.25    96.1862     1.5531     1.5134     1.5369  1362.5325     0.4784     6.3407     0.0000 20174.8730     2.4246     1.5369     2.3621   194.0232     1.0000 -1281.8124     0.0504     2.4246     0.0000
  1362.6848  6112.7979 6112798.0000    -999.25     0.2159     9.2959     9.5959     0.4625   120.3384     0.0000    -999.25    92.9354     1.5239     1.4882     1.5101  1362.6848     0.4625     6.3867     0.0000 20055.1113     2.4134     1.5101     2.2804   193.5792     1.0000 -1281.9648     0.0918     2.4134     0.0000
  1362.8372  6083.4102 6083410.0000    -999.25     0.2159     9.3203     9.6203     0.4693   120.8546     0.0000    -999.25    91.7361     1.5677     1.5334     1.5558  1362.8372     0.4693     6.2470     0.0000 19958.6953     2.4121     1.5558     2.4205   192.9920     1.0000 -1282.1172     0.1068     2.4121     0.0000
  1362.9896  6339.5776 6339577.5000    -999.25     0.2159     9.2559     9.5559     0.4799   115.5192     0.0000    -999.25    91.1842     1.7172     1.6814     1.7074  1362.9896     0.4799     6.3098     0.0000 20799.1387     2.4027     1.7074     2.9152   192.2307     1.0000 -1282.2697     0.1148     2.4027     0.0000
  1363.1420  6711.2754 6711275.5000    -999.25     0.2159     9.1394     9.4394     0.4725   107.7588     0.0000    -999.25    87.8859     1.9077     1.8708     1.9017  1363.1420     0.4725     6.8406     0.0000 22018.6191     2.3727     1.9017     3.6165   191.5754     1.0000 -1282.4220     0.1424     2.3727     0.0000
  1363.2944  6648.7520 6648752.0000    -999.25     0.2159     9.0385     9.3385     0.4566   106.6771     0.0000    -999.25    83.5360     1.8983     1.8730     1.9011  1363.2944     0.4566     7.5920     0.0000 21813.4902     2.3270     1.9011     3.6142   191.4747     1.0000 -1282.5745     0.1558     2.3270     0.0000
  1363.4468  6295.0586 6295059.0000    -999.25     0.2159     9.0313     9.3314     0.4717   110.5162     0.0000    -999.25    82.1235     1.6140     1.6039     1.6239  1363.4468     0.4717     7.9392     0.0000 20653.0801     2.2825     1.6239     2.6371   192.0580     1.0000 -1282.7268     0.1595     2.2825     0.0000
  1363.5992  5764.8857 5764886.0000    -999.25     0.2159     9.1430     9.4430     0.5127   119.4956     0.0000    -999.25    82.7248     1.3351     1.3323     1.3474  1363.5992     0.5127     7.5919     0.0000 18913.6680     2.2601     1.3474     1.8155   193.0210     1.0000 -1282.8793     0.1773     2.2601     0.0000
  1363.7516  5453.8813 5453881.0000    -999.25     0.2159     9.2759     9.5759     0.5269   127.3325     0.0000    -999.25    83.3540     1.2114     1.2107     1.2235  1363.7516     0.5269     6.9420     0.0000 17893.3105     2.2784     1.2235     1.4970   193.9238     1.0000 -1283.0316     0.1904     2.2784     0.0000
  1363.9040  5518.8408 5518841.0000    -999.25     0.2159     9.3146     9.6146     0.5191   129.0315     0.0000    -999.25    86.3347     1.2169     1.2141     1.2260  1363.9041     0.5191     6.4824     0.0000 18106.4336     2.3363     1.2260     1.5031   194.5368     1.0000 -1283.1840     0.1781     2.3363     0.0000
  1364.0565  5804.2788 5804279.0000    -999.25     0.2159     9.2485     9.5485     0.5145   126.0049     0.0000    -999.25    91.2572     1.3051     1.2966     1.3085  1364.0565     0.5145     6.2985     0.0000 19042.9102     2.3995     1.3085     1.7122   194.7518     1.0000 -1283.3364     0.1592     2.3995     0.0000
  1364.2088  6148.1196 6148119.5000    -999.25     0.2159     9.1629     9.4629     0.4936   120.7625     0.0000    -999.25    93.9640     1.4226     1.4062     1.4192  1364.2089     0.4936     6.1620     0.0000 20170.9961     2.4359     1.4192     2.0141   194.5519     1.0000 -1283.4888     0.1279     2.4359     0.0000
  1364.3613  6352.6997 6352700.0000    -999.25     0.2159     9.1131     9.4131     0.4691   117.3725     0.0000    -999.25    92.7363     1.5302     1.5061     1.5211  1364.3613     0.4691     6.0045     0.0000 20842.1914     2.4463     1.5211     2.3137   193.9638     1.0000 -1283.6412     0.0816     2.4463     0.0000
  1364.5136  6427.5352 6427535.0000    -999.25     0.2159     9.1005     9.4005     0.4584   116.1482     0.0000    -999.25    91.0154     1.6201     1.5927     1.6098  1364.5137     0.4584     5.9511     0.0000 21087.7148     2.4493     1.6098     2.5915   193.0435     1.0000 -1283.7936     0.0468     2.4493     0.0000
  1364.6660  6454.7656 6454765.5000    -999.25     0.2159     9.1081     9.4081     0.4553   115.6346     0.0000    -999.25    90.9254     1.6886     1.6639     1.6833  1364.6660     0.4553     5.9545     0.0000 21177.0527     2.4488     1.6833     2.8335   191.9161     1.0000 -1283.9460     0.0345     2.4488     0.0000
  1364.8184  6422.2725 6422272.5000    -999.25     0.2159     9.1171     9.4171     0.4499   116.1532     0.0000    -999.25    91.0007     1.7322     1.7149     1.7364  1364.8184     0.4499     5.9456     0.0000 21070.4473     2.4474     1.7364     3.0151   190.8775     1.0000 -1284.0984     0.0295     2.4474     0.0000
  1364.9708  6410.3721 6410372.0000    -999.25     0.2159     9.1107     9.4107     0.4499   116.5828     0.0000    -999.25    90.1003     1.7525     1.7441     1.7677  1364.9708     0.4499     5.8822     0.0000 21031.4043     2.4519     1.7677     3.1248   190.1775     1.0000 -1284.2509     0.0242     2.4519     0.0000
  1365.1232  6413.6069 6413607.0000    -999.25     0.2159     9.0961     9.3961     0.4635   116.6048     0.0000    -999.25    87.6109     1.7387     1.7384     1.7635  1365.1232     0.4635     5.8433     0.0000 21042.0176     2.4536     1.7635     3.1099   190.0254     1.0000 -1284.4032     0.0168     2.4536     0.0000
