~Version ---------------------------------------------------
VERS. 2.0 : CWLS log ASCII Standard -VERSION 2.0
WRAP.  NO : 
~Well ------------------------------------------------------
STRT.m                                                1333.6522 : 
STOP.m                                                1778.5078 : 
STEP.m                                                   0.1524 : 
NULL.                                                   -999.25 : 
COMP.                                                           : COMPANY
WELL.                                                   Well-15 : WELL
FLD .                                                           : FIELD
LOC .                                                           : LOCATION
SRVC.                                                           : SERVICE COMPANY
DATE. 2021-01-20 14:34:07   : Log Export Date {yyyy-MM-dd HH:mm : ss}
PROV.                                                           : PROVINCE
UWI .                                                   Well-15 : UNIQUE WELL ID
API .                                                           : API NUMBER
~Curve Information -----------------------------------------
DEPTH             .m        : DEPTH
ACOUSTICIMPEDANCE1.kPa.s/m  : ACOUSTICIMPEDANCE1
AI                .kPa.s/m  : AI
BS                .in       : BS
CALI              .in       : CALI
CALI[DERIVED]1    .in       : CALI[DERIVED]1
DRES              .ohm.m    : DRES
DT                .us/ft    : DT
DT2               .us/ft    : DT2
DT4P              .us/ft    : DT4P
FACIES            ._        : FACIES
FLD1              ._        : FLD1
GR                .gAPI     : GR
GR_EDTC           .gAPI     : GR_EDTC
LLD               .ohm.m    : LLD
LLS               .ohm.m    : LLS
M2R2              .ohm.m    : M2R2
LLS_1             .ohm.m    : LLS_1
LLD_1             .ohm.m    : LLD_1
DEPTH_1           .m        : DEPTH_1
MSFL              .ohm.m    : MSFL
NPHI              .m3/m3    : NPHI
PERF_INT          ._        : PERF_INT
PIMP              .kPa.s/m  : PIMP
PR                ._        : PR
RHOB              .g/cm3    : RHOB
RT_MODELLING      .ohm.m    : RT_MODELLING
RT_POWER          .ohm.m    : RT_POWER
SP                .mV       : SP
TDVSS             .m        : TDVSS
TENS              .t        : TENS
VPVS              ._        : VPVS
ZLT               ._        : ZLT
~Params ----------------------------------------------------
~Other -----------------------------------------------------
~ASCII -----------------------------------------------------
# ...
  1719.3766  2336.2095 2336217.2500     8.5000     8.8966     8.8966    80.2544   153.2474   486.7054   153.2474     3.0000    -999.25    16.2427    20.9198    80.2545    77.5856    -999.25    -999.25    -999.25  1719.3766    35.1095     0.5874    -999.25  7664.7554     0.4450     1.1746    80.2545  6440.7852   -85.6246 -1372.4252  2364.7217     3.1759    19.0000
  1719.5291  2345.2683 2345272.7500     8.5000     8.8911     8.8911    75.7403   152.9544   485.5214   152.9544     3.0000    -999.25    16.0327    22.0221    75.7405    72.5595    -999.25    -999.25    -999.25  1719.5291    24.3581     0.5804    -999.25  7694.4644     0.4449     1.1769    75.7405  5736.6235   -86.1936 -1372.4789  2276.0583     3.1743    19.0000
  1719.6814  2359.8616 2359859.5000     8.5000     8.9159     8.9159    72.5791   152.7448   496.2164   152.7448     3.0000    -999.25    16.4149    23.9470    72.5792    69.4037    -999.25    -999.25    -999.25  1719.6814    21.3440     0.5685    -999.25  7742.3213     0.4477     1.1826    72.5792  5267.7402   -86.7841 -1372.5325  2262.0183     3.2487    19.0000
  1719.8339  2419.1970 2419188.0000     8.5000     8.9554     8.9554    72.4187   149.6284   419.2585   149.6284     3.0000    -999.25    17.9211    26.2231    72.4186    69.5798    -999.25    -999.25    -999.25  1719.8339    16.6601     0.5488    -999.25  7936.9683     0.4270     1.1876    72.4186  5244.4541   -87.3191 -1372.5862  2141.0793     2.8020    19.0000
  1719.9862  2397.8022 2397780.2500     8.5000     9.0829     9.0829    75.1440   150.6584   419.2495   150.6584     3.0000    -999.25    18.8570    27.4196    75.1439    72.5645    -999.25    -999.25    -999.25  1719.9862    18.5102     0.5332    -999.25  7866.7329     0.4259     1.1852    75.1439  5646.6055   -87.6043 -1372.6396  2036.1378     2.7828    19.0000
  1720.1387  2386.3232 2386322.0000     8.5000     9.2206     9.2206    77.9485   150.0036   403.2538   150.0036     3.0000    -999.25    18.5170    26.3736    77.9484    75.3813    -999.25    -999.25    -999.25  1720.1387    19.9698     0.5417    -999.25  7829.1401     0.4197     1.1744    77.9484  6075.9536   -87.5698 -1372.6934  2162.9167     2.6883    19.0000
  1720.2910  2360.6299 2360658.2500     8.5000     9.1107     9.1107    79.4098   150.1385   402.9071   150.1385     3.0000    -999.25    18.2016    24.6436    79.4098    76.7787    -999.25    -999.25    -999.25  1720.2910    33.5101     0.5627    -999.25  7744.9419     0.4194     1.1628    79.4098  6305.9160   -87.5476 -1372.7469  2157.0078     2.6836    19.0000
  1720.4434  2351.5562 2351593.0000     8.5000     9.0446     9.0446    80.0891   150.6012   395.8527   150.6012     3.0000    -999.25    19.8351    23.4502    80.0891    77.3886    -999.25    -999.25    -999.25  1720.4434    36.5451     0.5785    -999.25  7715.2012     0.4154     1.1619    80.0891  6414.2646   -88.0340 -1372.8005  2288.8267     2.6285    19.0000
  1720.5958  2367.8889 2367882.7500     8.5000     9.0754     9.0754    81.2406   151.2486   435.6799   151.2486     3.0000    -999.25    20.9779    21.6090    81.2406    78.1722    -999.25    -999.25    -999.25  1720.5957    33.0523     0.5861    -999.25  7768.6440     0.4315     1.1750    81.2406  6600.0352   -88.5211 -1372.8541  2333.9409     2.8806    19.0000
  1720.7482  2386.2886 2386271.5000     8.5000     9.1499     9.1499    84.8480   151.4619   462.2651   151.4619     3.0000    -999.25    21.6854    23.1105    84.8479    80.5871    -999.25    -999.25    -999.25  1720.7482    32.3828     0.5807    -999.25  7828.9751     0.4399     1.1858    84.8479  7199.1660   -88.5074 -1372.9077  2309.0327     3.0520    19.0000
  1720.9006  2425.0166 2425000.5000     8.5000     9.2410     9.2410    89.3988   149.5961   472.3508   149.5961     3.0000    -999.25    21.4544    22.1860    89.3987    83.2052    -999.25    -999.25    -999.25  1720.9005    23.5843     0.5736    -999.25  7956.0381     0.4443     1.1902    89.3987  7992.1270   -88.1741 -1372.9614  2282.0354     3.1575    19.0000
  1721.0530  2419.5493 2419539.2500     8.5000     9.2539     9.2539    91.9882   149.6948   475.5773   149.6948     3.0000    -999.25    20.9039    24.9554    91.9881    84.4474    -999.25    -999.25    -999.25  1721.0530    17.0883     0.5725    -999.25  7938.1206     0.4450     1.1883    91.9881  8461.8105   -87.7781 -1373.0150  2279.0039     3.1770    19.0000
  1721.2054  2409.2534 2409242.2500     8.5000     9.1101     9.1101    93.5074   149.6260   458.1204   149.6260     3.0000    -999.25    19.8944    23.3684    93.5073    85.0376    -999.25    -999.25    -999.25  1721.2053    18.2219     0.5844    -999.25  7904.3379     0.4403     1.1827    93.5073  8743.6152   -87.6311 -1373.0686  2300.9712     3.0618    19.0000
  1721.3578  2360.8479 2360845.2500     8.5000     8.9542     8.9542    96.4332   151.4286   450.0232   151.4286     3.0000    -999.25    18.8578    23.8739    96.4330    86.7136    -999.25    -999.25    -999.25  1721.3578    24.1487     0.5945    -999.25  7745.5557     0.4362     1.1729    96.4330  9299.3232   -87.9441 -1373.1222  2239.0813     2.9718    19.0000
  1721.5103  2343.5215 2343528.7500     8.5000     8.8403     8.8403   101.9431   151.1045   459.7184   151.1045     3.0000    -999.25    18.5697    20.6921   101.9429    90.9430    -999.25    -999.25    -999.25  1721.5103    25.0583     0.6020    -999.25  7688.7427     0.4394     1.1618   101.9429 10392.3555   -88.2017 -1373.1760  2278.9736     3.0424    19.0000
  1721.6626  2332.4211 2332430.5000     8.5000     8.8185     8.8185   108.7027   151.1049   439.1723   151.1049     3.0000    -999.25    18.4492    19.5214   108.7025    97.0792    -999.25    -999.25    -999.25  1721.6626    37.8699     0.6072    -999.25  7652.3315     0.4329     1.1563   108.7025 11816.2334   -88.0976 -1373.2295  2263.0210     2.9064    19.0000
  1721.8151  2326.8696 2326875.7500     8.5000     8.8496     8.8496   113.9604   151.2165   438.0076   151.2165     3.0000    -999.25    18.1418    22.4229   113.9603   101.9180    -999.25    -999.25    -999.25  1721.8151    49.1257     0.6010    -999.25  7634.1060     0.4323     1.1544   113.9603 12986.9492   -87.8957 -1373.2832  2275.9915     2.8966    19.0000
  1721.9674  2332.5925 2332613.5000     8.5000     8.8558     8.8558   115.5690   151.2114   353.6188   151.2114     3.0000    -999.25    17.4424    22.8347   115.5690   103.2115    -999.25    -999.25    -999.25  1721.9674    43.9400     0.5849    -999.25  7652.9312     0.3881     1.1572   115.5690 13356.1934   -87.9302 -1373.3368  2270.0078     2.3385    19.0000
  1722.1199  2348.8250 2348830.7500     8.5000     8.8470     8.8470   112.8029   151.5679   354.6299   151.5679     3.0000    -999.25    17.6683    25.5033   112.8030   100.6703    -999.25    -999.25    -999.25  1722.1199    42.3029     0.5720    -999.25  7706.1377     0.3883     1.1680   112.8030 12724.5176   -88.0491 -1373.3905  2282.9915     2.3397    19.0000
  1722.2722  2370.5745 2370564.5000     8.5000     8.8394     8.8394   106.8086   152.1316   357.0898   152.1316     3.0000    -999.25    18.3288    22.5802   106.8089    94.4987    -999.25    -999.25    -999.25  1722.2722    32.0930     0.5652    -999.25  7777.4424     0.3891     1.1832   106.8089 11408.1406   -87.9168 -1373.4440  2304.9712     2.3473    19.0000
  1722.4246  2382.3459 2382324.0000     8.5000     8.7875     8.7875    96.8477   152.8513   357.3589   152.8513     3.0000    -999.25    19.0210    23.7133    96.8481    84.4120    -999.25    -999.25    -999.25  1722.4246    35.1987     0.5620    -999.25  7816.0234     0.3880     1.1947    96.8481  9379.5547   -87.8606 -1373.4976  2276.0381     2.3379    19.0000
  1722.5770  2394.4385 2394420.5000     8.5000     8.6783     8.6783    88.9089   152.4867   387.1073   152.4867     3.0000    -999.25    19.3933    23.8476    88.9091    76.6672    -999.25    -999.25    -999.25  1722.5769    28.0510     0.5601    -999.25  7855.7100     0.4082     1.1979    88.9091  7904.8286   -88.0832 -1373.5513  2296.9724     2.5386    19.0000
