~Version ---------------------------------------------------
VERS. 2.0 : CWLS log ASCII Standard -VERSION 2.0
WRAP.  NO : 
~Well ------------------------------------------------------
STRT.m                                                 998.5724 : 
STOP.m                                                  1489.91 : 
STEP.m                                                   0.1524 : 
NULL.                                                   -999.25 : 
COMP.                                                           : COMPANY
WELL.                                                    Well-4 : WELL
FLD .                                                           : FIELD
LOC .                                                           : LOCATION
SRVC.                                                           : SERVICE COMPANY
DATE. 2021-01-20 14:34:00   : Log Export Date {yyyy-MM-dd HH:mm : ss}
PROV.                                                           : PROVINCE
UWI .                                                    Well-4 : UNIQUE WELL ID
API .                                                           : API NUMBER
~Curve Information -----------------------------------------
DEPTH             .m        : DEPTH
ACOUSTICIMPEDANCE1.kPa.s/m  : ACOUSTICIMPEDANCE1
AVG_PIGN          .m3/m3    : AVG_PIGN
CALI              .in       : CALI
CALI[DERIVED]1    .in       : CALI[DERIVED]1
DFL               .ohm.m    : DFL
DT                .us/ft    : DT
FACIES            ._        : FACIES
FLD1              ._        : FLD1
GR                .gAPI     : GR
HDRS              .ohm.m    : HDRS
HMRS              .ohm.m    : HMRS
NPHI              .m3/m3    : NPHI
PERF_INT          ._        : PERF_INT
PIGN              .m3/m3    : PIGN
PIGN_MODELLING    .m3/m3    : PIGN_MODELLING
RHOB              .g/cm3    : RHOB
SP                .mV       : SP
SUWI              ._        : SUWI
SUWI_MODELLING    ._        : SUWI_MODELLING
TDVSS             .m        : TDVSS
VCL               .%        : VCL
ZLT               ._        : ZLT
~Params ----------------------------------------------------
~Other -----------------------------------------------------
~ASCII -----------------------------------------------------
# ...
  1227.7820  4700.5522    -999.25     8.6086     8.6086     1.1160   141.3574    -999.25    -999.25    61.4120     0.9043     0.9265     0.5418    -999.25     0.0185     0.0185     2.1800   283.4610     1.0000     1.0000 -1149.1620    85.8270    -999.25
  1227.9344  4714.4424    -999.25     8.5936     8.5936     1.1102   141.2254    -999.25    -999.25    60.5454     0.8816     0.9032     0.5265    -999.25     0.0205     0.0205     2.1844   283.3449     1.0000     1.0000 -1149.3145    84.2570    -999.25
  1228.0868  4710.3350    -999.25     8.6118     8.6118     1.0582   141.1033    -999.25    -999.25    60.5508     0.8571     0.8785     0.5271    -999.25     0.0204     0.0204     2.1806   283.5339     1.0000     1.0000 -1149.4668    84.3370    -999.25
  1228.2392  4692.2783    -999.25     8.6704     8.6704     1.0122   140.9636    -999.25    -999.25    61.4899     0.8458     0.8677     0.5395    -999.25     0.0190     0.0190     2.1701   283.9618     1.0000     1.0000 -1149.6193    85.4140    -999.25
  1228.3916  4669.2715    -999.25     8.7025     8.7025     0.9967   141.0622    -999.25    -999.25    63.1795     0.8426     0.8645     0.5545    -999.25     0.0180     0.0180     2.1609   284.3555     1.0000     1.0000 -1149.7716    86.2010    -999.25
  1228.5440  4629.2373    -999.25     8.7092     8.7092     0.9996   141.7599    -999.25    -999.25    64.9450     0.8456     0.8666     0.5667    -999.25     0.0177     0.0177     2.1530   284.5074     1.0000     1.0000 -1149.9240    86.4270    -999.25
  1228.6964  4609.4316    -999.25     8.7424     8.7424     1.0203   142.7810    -999.25    -999.25    65.5792     0.8539     0.8737     0.5771    -999.25     0.0172     0.0172     2.1593   284.1829     1.0000     1.0000 -1150.0764    86.7840    -999.25
  1228.8488  4619.3359    -999.25     8.7702     8.7702     1.0440   143.4719    -999.25    -999.25    64.9416     0.8618     0.8793     0.5891    -999.25     0.0164     0.0164     2.1744   283.6653     1.0000     1.0000 -1150.2288    87.4530    -999.25
  1229.0012  4631.3130    -999.25     8.7258     8.7258     1.0717   143.4378    -999.25    -999.25    64.4862     0.8673     0.8841     0.6029    -999.25     0.0150     0.0150     2.1795   283.0999     1.0000     1.0000 -1150.3812    88.4920    -999.25
  1229.1536  4646.2437    -999.25     8.6473     8.6473     1.0858   142.8818    -999.25    -999.25    65.5155     0.8742     0.8931     0.6137    -999.25     0.0137     0.0137     2.1780   282.6747     1.0000     1.0000 -1150.5336    89.4750    -999.25
  1229.3060  4658.7764    -999.25     8.5776     8.5776     1.0854   142.3299    -999.25    -999.25    67.3276     0.8799     0.9015     0.6172    -999.25     0.0124     0.0124     2.1755   282.4774     1.0000     1.0000 -1150.6860    90.4880    -999.25
  1229.4584  4667.1328    -999.25     8.5241     8.5241     1.0872   142.0783    -999.25    -999.25    68.7221     0.8780     0.9026     0.6125    -999.25     0.0099     0.0099     2.1755   282.3578     1.0000     1.0000 -1150.8384    92.4320    -999.25
  1229.6108  4675.2896    -999.25     8.4980     8.4980     1.0786   142.0860    -999.25    -999.25    69.6799     0.8757     0.9004     0.5989    -999.25     0.0092     0.0092     2.1794   282.4123     1.0000     1.0000 -1150.9908    92.9210    -999.25
  1229.7632  4677.0063    -999.25     8.4937     8.4937     1.0849   142.0827    -999.25    -999.25    69.7837     0.8797     0.9013     0.5818    -999.25     0.0116     0.0116     2.1802   282.4482     1.0000     1.0000 -1151.1432    91.1030    -999.25
  1229.9156  4681.5381    -999.25     8.5034     8.5034     1.1036   141.9244    -999.25    -999.25    68.5484     0.8843     0.9050     0.5657    -999.25     0.0140     0.0140     2.1799   282.5361     1.0000     1.0000 -1151.2957    89.2680    -999.25
  1230.0680  4676.6895    -999.25     8.5140     8.5140     1.1044   141.8793    -999.25    -999.25    66.9292     0.8820     0.9029     0.5543    -999.25     0.0157     0.0157     2.1769   282.6357     1.0000     1.0000 -1151.4480    87.9290    -999.25
  1230.2204  4655.4541    -999.25     8.5263     8.5263     1.0755   142.3608    -999.25    -999.25    65.7567     0.8702     0.8883     0.5488    -999.25     0.0164     0.0164     2.1744   282.6521     1.0000     1.0000 -1151.6005    87.4250    -999.25
  1230.3728  4652.5640    -999.25     8.5526     8.5526     1.0519   143.1168    -999.25    -999.25    65.0729     0.8583     0.8736     0.5490    -999.25     0.0160     0.0160     2.1846   282.7594     1.0000     1.0000 -1151.7528    87.7450    -999.25
  1230.5252  4660.3882    -999.25     8.5799     8.5799     1.0278   143.6143    -999.25    -999.25    65.1539     0.8532     0.8680     0.5575    -999.25     0.0149     0.0149     2.1959   282.8250     1.0000     1.0000 -1151.9052    88.6010    -999.25
  1230.6776  4669.0708    -999.25     8.6023     8.6023     1.0155   143.6324    -999.25    -999.25    65.9218     0.8534     0.8681     0.5721    -999.25     0.0144     0.0144     2.2002   283.0351     1.0000     1.0000 -1152.0576    88.9350    -999.25
  1230.8300  4706.2676    -999.25     8.6208     8.6208     0.9935   143.0186    -999.25    -999.25    66.9806     0.8575     0.8715     0.5865    -999.25     0.0157     0.0157     2.2083   283.3527     1.0000     1.0000 -1152.2100    87.9940    -999.25
  1230.9824  4757.1831    -999.25     8.6438     8.6438     0.9773   141.9832    -999.25    -999.25    68.5135     0.8807     0.8949     0.5912    -999.25     0.0174     0.0174     2.2160   283.5343     1.0000     1.0000 -1152.3624    86.6500    -999.25
  1231.1348  4798.6221    -999.25     8.6595     8.6595     1.0512   140.7393    -999.25    -999.25    70.8385     0.9465     0.9620     0.5857    -999.25     0.0198     0.0198     2.2157   283.5714     1.0000     1.0000 -1152.5148    84.8250    -999.25
  1231.2872  4826.7612    -999.25     8.6555     8.6555     1.1870   139.4717    -999.25    -999.25    73.0130     1.0297     1.0487     0.5768    -999.25     0.0232     0.0232     2.2086   283.4162     1.0000     1.0000 -1152.6672    82.2480    -999.25
  1231.4396  4846.6445    -999.25     8.6457     8.6457     1.3381   138.4844    -999.25    -999.25    73.9727     1.0875     1.1052     0.5689    -999.25     0.0258     0.0258     2.2020   283.4199     1.0000     1.0000 -1152.8196    80.1900    -999.25
  1231.5920  4843.5259    -999.25     8.6328     8.6328     1.4185   138.0274    -999.25    -999.25    73.8672     1.1197     1.1359     0.5710    -999.25     0.0266     0.0266     2.1934   283.5615     1.0000     1.0000 -1152.9720    79.5730    -999.25
  1231.7444  4831.5020    -999.25     8.6217     8.6217     1.4347   138.0340    -999.25    -999.25    73.0410     1.1400     1.1581     0.5817    -999.25     0.0255     0.0255     2.1880   283.7773     1.0000     1.0000 -1153.1244    80.4220    -999.25
  1231.8968  4830.7720    -999.25     8.6236     8.6236     1.4502   138.1533    -999.25    -999.25    71.7546     1.1473     1.1654     0.5970    -999.25     0.0237     0.0237     2.1896   284.0630     1.0000     1.0000 -1153.2769    81.8640    -999.25
  1232.0492  4836.2368    -999.25     8.6275     8.6275     1.4554   138.1844    -999.25    -999.25    70.6599     1.1484     1.1653     0.6044    -999.25     0.0226     0.0226     2.1926   284.2334     1.0000     1.0000 -1153.4292    82.7010    -999.25
  1232.2016  4843.9468    -999.25     8.6345     8.6345     1.4350   138.1909    -999.25    -999.25    69.9999     1.1508     1.1672     0.6026    -999.25     0.0229     0.0229     2.1962   284.4359     1.0000     1.0000 -1153.5817    82.4200    -999.25
  1232.3540  4838.1548    -999.25     8.6420     8.6420     1.4262   138.2619    -999.25    -999.25    69.4489     1.1500     1.1669     0.5945    -999.25     0.0242     0.0242     2.1947   284.5341     1.0000     1.0000 -1153.7340    81.4380    -999.25
  1232.5064  4828.5542    -999.25     8.6605     8.6605     1.4036   138.4213    -999.25    -999.25    68.7426     1.1385     1.1523     0.5845    -999.25     0.0256     0.0256     2.1928   284.5361     1.0000     1.0000 -1153.8864    80.3490    -999.25
