~Version ---------------------------------------------------
VERS. 2.0 : CWLS log ASCII Standard -VERSION 2.0
WRAP.  NO : 
~Well ------------------------------------------------------
STRT.m                                                1239.5456 : 
STOP.m                                                  1697.66 : 
STEP.m                                                   0.1524 : 
NULL.                                                   -999.25 : 
COMP.                                                           : COMPANY
WELL.                                                   Well-16 : WELL
FLD .                                                           : FIELD
LOC .                                                           : LOCATION
SRVC.                                                           : SERVICE COMPANY
DATE. 2021-01-20 14:34:07   : Log Export Date {yyyy-MM-dd HH:mm : ss}
PROV.                                                           : PROVINCE
UWI .                                                   Well-16 : UNIQUE WELL ID
API .                                                           : API NUMBER
~Curve Information -----------------------------------------
DEPTH             .m        : DEPTH
ACOUSTICIMPEDANCE1.kPa.s/m  : ACOUSTICIMPEDANCE1
AI                .kPa.s/m  : AI
AVG_PIGN          .m3/m3    : AVG_PIGN
BIT               .m        : BIT
CALI              .in       : CALI
CALI_1            .in       : CALI_1
NPHI              .m3/m3    : NPHI
DT                .us/ft    : DT
FACIES            ._        : FACIES
FLD1              ._        : FLD1
GR                .gAPI     : GR
M2R2              .ohm.m    : M2R2
LLS               .ohm.m    : LLS
LLD               .ohm.m    : LLD
DEPTH_1           .m        : DEPTH_1
NPHI_1            .m3/m3    : NPHI_1
PEF               .b/e      : PEF
PIGN_MODELLING    .m3/m3    : PIGN_MODELLING
PIMP              .kPa.s/m  : PIMP
RHOB              .g/cm3    : RHOB
RT_MODELLING      .ohm.m    : RT_MODELLING
RT_POWER          .ohm.m    : RT_POWER
SP                .mV       : SP
SUWI_MODELLING    ._        : SUWI_MODELLING
TDVSS             .m        : TDVSS
ZCOR              .g/cm3    : ZCOR
RHOB_1            .g/cm3    : RHOB_1
ZLT               ._        : ZLT
~Params ----------------------------------------------------
~Other -----------------------------------------------------
~ASCII -----------------------------------------------------
# ...
  1270.0256  5629.1440 5629144.0000    -999.25     0.2159     9.4361     9.7361     0.4910   125.8750    -999.25    -999.25    61.7245     0.8903     0.8770     0.8776  1270.0256     0.4910     5.4647    -999.25 18468.3203     2.3247     0.8776     0.7702   194.7329    -999.25 -1189.3057     0.0657     2.3247    -999.25
  1270.1780  5297.8042 5297804.5000    -999.25     0.2159     9.5968     9.8968     0.4616   132.3783    -999.25    -999.25    64.1339     0.8636     0.8519     0.8523  1270.1780     0.4616     5.1523    -999.25 17381.2480     2.3009     0.8523     0.7264   194.6570    -999.25 -1189.4580     0.0587     2.3009    -999.25
  1270.3304  5031.0347 5031034.5000    -999.25     0.2159     9.7685    10.0685     0.4586   136.8834    -999.25    -999.25    65.6493     0.8358     0.8257     0.8259  1270.3304     0.4586     5.0586    -999.25 16506.0195     2.2594     0.8259     0.6821   194.6022    -999.25 -1189.6105     0.0591     2.2594    -999.25
  1270.4828  4900.3096 4900310.0000    -999.25     0.2159     9.9165    10.2165     0.4819   138.5135    -999.25    -999.25    65.3254     0.8168     0.8076     0.8077  1270.4828     0.4819     5.0575    -999.25 16077.1318     2.2269     0.8077     0.6524   194.5298    -999.25 -1189.7628     0.0566     2.2269    -999.25
  1270.6352  4767.6519 4767652.0000    -999.25     0.2159    10.0209    10.3209     0.4903   141.5301    -999.25    -999.25    64.8369     0.8105     0.8015     0.8016  1270.6353     0.4903     4.9958    -999.25 15641.9033     2.2138     0.8016     0.6426   194.4474    -999.25 -1189.9152     0.0490     2.2138    -999.25
  1270.7876  4712.7124 4712712.5000    -999.25     0.2159    10.1232    10.4232     0.4782   143.1024    -999.25    -999.25    66.1447     0.8111     0.8018     0.8018  1270.7876     0.4782     4.9468    -999.25 15461.6553     2.2126     0.8018     0.6429   194.4204    -999.25 -1190.0676     0.0431     2.2126    -999.25
  1270.9400  4728.7197 4728720.0000    -999.25     0.2159    10.2512    10.5512     0.4854   142.6760    -999.25    -999.25    68.4373     0.8133     0.8034     0.8035  1270.9401     0.4854     4.9100    -999.25 15514.1729     2.2135     0.8035     0.6456   194.4287    -999.25 -1190.2200     0.0403     2.2135    -999.25
  1271.0924  4677.9810 4677980.5000    -999.25     0.2159    10.3644    10.6644     0.5086   144.1779    -999.25    -999.25    69.5920     0.8152     0.8049     0.8050  1271.0924     0.5086     4.8080    -999.25 15347.7061     2.2128     0.8050     0.6480   194.4191    -999.25 -1190.3724     0.0413     2.2128    -999.25
  1271.2448  4640.9756 4640976.0000    -999.25     0.2159    10.4285    10.7285     0.4963   145.1896    -999.25    -999.25    68.9272     0.8176     0.8073     0.8074  1271.2449     0.4963     4.6954    -999.25 15226.2988     2.2107     0.8074     0.6519   194.3963    -999.25 -1190.5248     0.0437     2.2107    -999.25
  1271.3972  4668.2178 4668218.0000    -999.25     0.2159    10.4449    10.7449     0.4758   144.2052    -999.25    -999.25    68.6378     0.8231     0.8129     0.8130  1271.3972     0.4758     4.6399    -999.25 15315.6758     2.2086     0.8130     0.6610   194.3657    -999.25 -1190.6772     0.0460     2.2086    -999.25
  1271.5496  4728.1201 4728120.0000    -999.25     0.2159    10.4065    10.7065     0.4984   142.2944    -999.25    -999.25    69.6961     0.8327     0.8228     0.8230  1271.5496     0.4984     4.6656    -999.25 15512.2051     2.2073     0.8230     0.6773   194.2990    -999.25 -1190.8296     0.0460     2.2073    -999.25
  1271.7020  4793.7642 4793764.5000    -999.25     0.2159    10.3328    10.6327     0.5312   140.2505    -999.25    -999.25    69.4305     0.8434     0.8339     0.8342  1271.7020     0.5312     4.8085    -999.25 15727.5732     2.2058     0.8342     0.6959   194.2107    -999.25 -1190.9821     0.0441     2.2058    -999.25
  1271.8544  4842.5356 4842535.5000    -999.25     0.2159    10.2551    10.5551     0.5340   138.6932    -999.25    -999.25    67.1446     0.8502     0.8414     0.8417  1271.8544     0.5340     4.9755    -999.25 15887.5840     2.2035     0.8417     0.7085   194.1728    -999.25 -1191.1344     0.0419     2.2035    -999.25
  1272.0068  4823.7935 4823793.5000    -999.25     0.2159    10.2030    10.5030     0.5218   139.1373    -999.25    -999.25    64.5733     0.8520     0.8437     0.8442  1272.0068     0.5218     4.9933    -999.25 15826.0938     2.2020     0.8442     0.7127   194.1924    -999.25 -1191.2869     0.0435     2.2020    -999.25
  1272.1592  4763.7090 4763709.0000    -999.25     0.2159    10.1842    10.4842     0.5175   141.0714    -999.25    -999.25    63.5747     0.8520     0.8440     0.8447  1272.1592     0.5175     4.8795    -999.25 15628.9668     2.2048     0.8447     0.7135   194.1783    -999.25 -1191.4392     0.0489     2.2048    -999.25
  1272.3116  4759.3042 4759304.5000    -999.25     0.2159    10.1738    10.4738     0.5348   141.7399    -999.25    -999.25    64.7435     0.8558     0.8478     0.8486  1272.3116     0.5348     4.8250    -999.25 15614.5156     2.2132     0.8486     0.7201   194.1441    -999.25 -1191.5917     0.0566     2.2132    -999.25
  1272.4640  4816.0820 4816082.0000    -999.25     0.2159    10.1503    10.4503     0.5787   140.8600    -999.25    -999.25    67.0007     0.8712     0.8627     0.8639  1272.4640     0.5787     5.0181    -999.25 15800.7939     2.2257     0.8639     0.7463   194.2221    -999.25 -1191.7440     0.0636     2.2257    -999.25
  1272.6164  4935.3506 4935350.5000    -999.25     0.2159    10.1434    10.4434     0.6154   138.4441    -999.25    -999.25    68.1789     0.9051     0.8959     0.8974  1272.6165     0.6154     5.3432    -999.25 16192.0957     2.2417     0.8974     0.8053   194.4426    -999.25 -1191.8964     0.0655     2.2417    -999.25
  1272.7688  5068.0791 5068079.0000    -999.25     0.2159    10.2130    10.5130     0.6057   135.8107    -999.25    -999.25    67.6684     0.9507     0.9406     0.9425  1272.7688     0.6057     5.5726    -999.25 16627.5547     2.2582     0.9425     0.8883   194.6765    -999.25 -1192.0488     0.0630     2.2582    -999.25
  1272.9212  5161.7168 5161717.0000    -999.25     0.2159    10.3252    10.6252     0.5716   133.8371    -999.25    -999.25    65.7999     0.9795     0.9693     0.9714  1272.9213     0.5716     5.6504    -999.25 16934.7656     2.2665     0.9714     0.9436   194.7891    -999.25 -1192.2012     0.0645     2.2665    -999.25
  1273.0736  5215.5078 5215507.5000    -999.25     0.2159    10.4251    10.7251     0.5544   132.3048    -999.25    -999.25    64.0348     0.9765     0.9671     0.9691  1273.0736     0.5544     5.7048    -999.25 17111.2461     2.2639     0.9691     0.9392   194.7482    -999.25 -1192.3536     0.0762     2.2639    -999.25
  1273.2260  5149.4146 5149414.5000    -999.25     0.2159    10.5203    10.8203     0.5659   133.7721    -999.25    -999.25    63.8468     0.9656     0.9572     0.9591  1273.2261     0.5659     5.8355    -999.25 16894.4062     2.2600     0.9591     0.9199   194.6401    -999.25 -1192.5060     0.0860     2.2600    -999.25
  1273.3784  5028.2163 5028216.5000    -999.25     0.2159    10.6298    10.9298     0.5642   137.0753    -999.25    -999.25    64.4347     0.9658     0.9583     0.9599  1273.3784     0.5642     6.0322    -999.25 16496.7734     2.2613     0.9599     0.9214   194.5659    -999.25 -1192.6584     0.0801     2.2613    -999.25
  1273.5308  4925.3442 4925344.5000    -999.25     0.2159    10.7048    11.0048     0.5168   140.0930    -999.25    -999.25    64.4890     0.9592     0.9522     0.9533  1273.5308     0.5168     6.1103    -999.25 16159.2666     2.2638     0.9533     0.9088   194.5585    -999.25 -1192.8108     0.0675     2.2638    -999.25
  1273.6832  4803.6816 4803682.0000    -999.25     0.2159    10.6919    10.9919     0.4687   143.6094    -999.25    -999.25    64.3527     0.9277     0.9208     0.9215  1273.6832     0.4687     5.9094    -999.25 15760.1113     2.2633     0.9215     0.8492   194.5879    -999.25 -1192.9633     0.0644     2.2633    -999.25
