~Version ---------------------------------------------------
VERS. 2.0 : CWLS log ASCII Standard -VERSION 2.0
WRAP.  NO : 
~Well ------------------------------------------------------
STRT.m                                                1239.5456 : 
STOP.m                                                  1697.66 : 
STEP.m                                                   0.1524 : 
NULL.                                                   -999.25 : 
COMP.                                                           : COMPANY
WELL.                                                   Well-16 : WELL
FLD .                                                           : FIELD
LOC .                                                           : LOCATION
SRVC.                                                           : SERVICE COMPANY
DATE. 2021-01-20 14:34:07   : Log Export Date {yyyy-MM-dd HH:mm : ss}
PROV.                                                           : PROVINCE
UWI .                                                   Well-16 : UNIQUE WELL ID
API .                                                           : API NUMBER
~Curve Information -----------------------------------------
DEPTH             .m        : DEPTH
ACOUSTICIMPEDANCE1.kPa.s/m  : ACOUSTICIMPEDANCE1
AI                .kPa.s/m  : AI
AVG_PIGN          .m3/m3    : AVG_PIGN
BIT               .m        : BIT
CALI              .in       : CALI
CALI_1            .in       : CALI_1
NPHI              .m3/m3    : NPHI
DT                .us/ft    : DT
FACIES            ._        : FACIES
FLD1              ._        : FLD1
GR                .gAPI     : GR
M2R2              .ohm.m    : M2R2
LLS               .ohm.m    : LLS
LLD               .ohm.m    : LLD
DEPTH_1           .m        : DEPTH_1
NPHI_1            .m3/m3    : NPHI_1
PEF               .b/e      : PEF
PIGN_MODELLING    .m3/m3    : PIGN_MODELLING
PIMP              .kPa.s/m  : PIMP
RHOB              .g/cm3    : RHOB
RT_MODELLING      .ohm.m    : RT_MODELLING
RT_POWER          .ohm.m    : RT_POWER
SP                .mV       : SP
SUWI_MODELLING    ._        : SUWI_MODELLING
TDVSS             .m        : TDVSS
ZCOR              .g/cm3    : ZCOR
RHOB_1            .g/cm3    : RHOB_1
ZLT               ._        : ZLT
~Params ----------------------------------------------------
~Other -----------------------------------------------------
~ASCII -----------------------------------------------------
# ...
  1391.9456  5902.3237 5902324.0000    -999.25     0.2159     9.0757     9.3757     0.4525   122.4762     0.0000    -999.25    88.2424     1.9758     1.9413     1.9750  1391.9456     0.4525     5.6126     0.0000 19364.5801     2.3717     1.9750     3.9006   182.6699     1.0000 -1311.2256     0.0438     2.3717     1.0000
  1392.0980  5969.2505 5969250.5000    -999.25     0.2159     9.0565     9.3565     0.4803   121.3532     0.0000    -999.25    86.3320     1.9499     1.9136     1.9466  1392.0980     0.4803     5.5353     0.0000 19584.1562     2.3766     1.9466     3.7893   183.9775     1.0000 -1311.3781     0.0399     2.3766     1.0000
  1392.2504  6074.8730 6074873.5000    -999.25     0.2159     9.0565     9.3565     0.5025   119.5744     0.0000    -999.25    86.6771     1.9223     1.8819     1.9136  1392.2504     0.5025     5.5108     0.0000 19930.6875     2.3832     1.9136     3.6619   185.7172     1.0000 -1311.5304     0.0362     2.3832     1.0000
  1392.4028  6144.5381 6144538.0000    -999.25     0.2159     9.0628     9.3628     0.4979   118.6354     0.0000    -999.25    88.8454     1.8916     1.8469     1.8771  1392.4028     0.4979     5.4564     0.0000 20159.2461     2.3916     1.8771     3.5235   187.6783     1.0000 -1311.6829     0.0292     2.3916     1.0000
  1392.5552  6128.5107 6128511.0000    -999.25     0.2159     9.0651     9.3651     0.4684   119.2341     0.0000    -999.25    92.0450     1.8567     1.8091     1.8373  1392.5552     0.4684     5.3185     0.0000 20106.6641     2.3974     1.8373     3.3757   189.6945     1.0000 -1311.8352     0.0198     2.3974     1.0000
  1392.7076  6140.6948 6140695.0000    -999.25     0.2159     9.0633     9.3633     0.4402   118.8933     0.0000    -999.25    96.4048     1.8221     1.7744     1.8000  1392.7076     0.4402     5.1257     0.0000 20146.6367     2.3953     1.8000     3.2400   191.4300     1.0000 -1311.9877     0.0133     2.3953     1.0000
  1392.8600  6204.4077 6204407.5000    -999.25     0.2159     9.0714     9.3714     0.4441   116.9748     0.0000    -999.25    99.0146     1.7977     1.7530     1.7756  1392.8600     0.4441     5.0189     0.0000 20355.6680     2.3811     1.7756     3.1528   192.6282     1.0000 -1312.1400     0.0182     2.3811     1.0000
  1393.0124  6291.5771 6291577.0000    -999.25     0.2159     9.1523     9.4523     0.4702   113.8426     0.0000    -999.25    97.4687     1.7535     1.7186     1.7364  1393.0125     0.4702     5.1616     0.0000 20641.6562     2.3499     1.7364     3.0151   193.2923     1.0000 -1312.2924     0.0321     2.3499     1.0000
  1393.1649  6260.0342 6260034.0000    -999.25     0.2159     9.4217     9.7217     0.4942   112.3664     0.0000    -999.25    94.3647     1.5967     1.5758     1.5871  1393.1649     0.4942     5.5447     0.0000 20538.1699     2.3078     1.5871     2.5189   193.5960     1.0000 -1312.4448     0.0503     2.3078     1.0000
  1393.3172  5935.7612 5935761.0000    -999.25     0.2159     9.8825    10.1825     0.5188   116.7848     0.0000    -999.25    91.5494     1.3303     1.3214     1.3271  1393.3173     0.5188     5.7740     0.0000 19474.2812     2.2743     1.3271     1.7612   193.9308     1.0000 -1312.5972     0.0817     2.2743     1.0000
  1393.4697  5520.7271 5520727.0000    -999.25     0.2159    10.2501    10.5501     0.5392   124.5485     0.0000    -999.25    88.4037     1.1041     1.1018     1.1039  1393.4697     0.5392     5.7543     0.0000 18112.6211     2.2559     1.1039     1.2186   194.7066     1.0000 -1312.7496     0.1127     2.2559     1.0000
  1393.6220  5228.6992 5228699.0000    -999.25     0.2159    10.2417    10.5417     0.5410   131.5513     0.0000    -999.25    85.7098     1.0000     1.0001     0.9998  1393.6221     0.5410     5.7565     0.0000 17154.5254     2.2567     0.9998     0.9996   195.8359     1.0000 -1312.9020     0.1245     2.2567     1.0000
  1393.7744  5237.3721 5237372.0000    -999.25     0.2159     9.9785    10.2785     0.5403   132.9397     0.0000    -999.25    83.3486     0.9829     0.9824     0.9802  1393.7744     0.5403     5.9961     0.0000 17182.9785     2.2843     0.9802     0.9608   196.8771     1.0000 -1313.0544     0.1070     2.2843     1.0000
  1393.9268  5369.2490 5369249.0000    -999.25     0.2159     9.7735    10.0735     0.5293   131.2867     0.0000    -999.25    81.4784     0.9835     0.9804     0.9765  1393.9268     0.5293     6.2489     0.0000 17615.6465     2.3127     0.9765     0.9536   197.6600     1.0000 -1313.2068     0.0799     2.3127     1.0000
  1394.0792  5395.0400 5395040.0000    -999.25     0.2159     9.7133    10.0133     0.4902   130.4105     0.0000    -999.25    82.9460     0.9523     0.9456     0.9404  1394.0792     0.4902     6.2273     0.0000 17700.2637     2.3083     0.9404     0.8844   198.2685     1.0000 -1313.3593     0.0766     2.3083     1.0000
  1394.2316  5323.5981 5323598.0000    -999.25     0.2159     9.7036    10.0036     0.4632   130.7922     0.0000    -999.25    86.3390     0.9082     0.8981     0.8921  1394.2316     0.4632     6.1308     0.0000 17465.8730     2.2844     0.8921     0.7958   198.7024     1.0000 -1313.5116     0.1013     2.2844     1.0000
  1394.3840  5155.8857 5155885.5000    -999.25     0.2159     9.7000    10.0000     0.4929   134.4082     0.0000    -999.25    86.8716     0.8909     0.8776     0.8708  1394.3840     0.4929     6.1168     0.0000 16915.6348     2.2736     0.8708     0.7583   198.9589     1.0000 -1313.6641     0.1184     2.2736     2.0000
  1394.5364  5149.3755 5149375.5000    -999.25     0.2159     9.7011    10.0011     0.5377   135.3121     0.0000    -999.25    85.6895     0.9126     0.8959     0.8883  1394.5364     0.5377     6.1158     0.0000 16894.2754     2.2860     0.8883     0.7891   199.1246     1.0000 -1313.8164     0.1163     2.2860     2.0000
  1394.6888  5273.9922 5273992.5000    -999.25     0.2159     9.7132    10.0132     0.5405   133.3343     0.0000    -999.25    86.6810     0.9658     0.9448     0.9358  1394.6888     0.5405     6.1171     0.0000 17303.1250     2.3071     0.9358     0.8757   199.2175     1.0000 -1313.9689     0.1078     2.3071     2.0000
  1394.8412  5346.4580 5346458.0000    -999.25     0.2159     9.7157    10.0157     0.5150   132.0687     0.0000    -999.25    89.1937     1.0386     1.0121     1.0013  1394.8412     0.5150     6.1562     0.0000 17540.8711     2.3166     1.0013     1.0026   199.1713     1.0000 -1314.1212     0.1038     2.3166     2.0000
  1394.9936  5406.0659 5406066.0000    -999.25     0.2159     9.6236     9.9236     0.5064   129.9923     0.0000    -999.25    90.0806     1.1252     1.0926     1.0801  1394.9937     0.5064     6.2030     0.0000 17736.4375     2.3056     1.0801     1.1666   198.9633     1.0000 -1314.2736     0.1160     2.3056     2.0000
  1395.1461  5611.8979 5611898.0000    -999.25     0.2159     9.4066     9.7066     0.5092   123.9481     0.0000    -999.25    89.1081     1.2270     1.1875     1.1732  1395.1461     0.5092     6.2195     0.0000 18411.7402     2.2821     1.1732     1.3764   198.6268     1.0000 -1314.4260     0.1257     2.2821     2.0000
  1395.2984  5787.1797 5787179.5000    -999.25     0.2159     9.1918     9.4918     0.5082   118.7930     0.0000    -999.25    89.2049     1.3402     1.2935     1.2775  1395.2985     0.5082     6.2606     0.0000 18986.8105     2.2555     1.2775     1.6320   198.1743     1.0000 -1314.5784     0.1163     2.2555     2.0000
  1395.4509  5677.8594 5677859.5000    -999.25     0.2159     9.0899     9.3899     0.5104   119.5288     0.0000    -999.25    89.8485     1.4465     1.3930     1.3758  1395.4509     0.5104     6.2275     0.0000 18628.1484     2.2266     1.3758     1.8928   197.6070     1.0000 -1314.7308     0.1057     2.2266     2.0000
  1395.6032  5469.4663 5469466.5000    -999.25     0.2159     9.0497     9.3497     0.5153   123.0130     0.0000    -999.25    89.2462     1.5267     1.4673     1.4503  1395.6033     0.5153     5.9689     0.0000 17944.4434     2.2074     1.4503     2.1034   196.9912     1.0000 -1314.8832     0.1061     2.2074     2.0000
