~Version ---------------------------------------------------
VERS. 2.0 : CWLS log ASCII Standard -VERSION 2.0
WRAP.  NO : 
~Well ------------------------------------------------------
STRT.m                                                   1250.0 : 
STOP.m                                                1661.9372 : 
STEP.m                                                   0.1524 : 
NULL.                                                   -999.25 : 
COMP.                                                           : COMPANY
WELL.                                                    Well-7 : WELL
FLD .                                                           : FIELD
LOC .                                                           : LOCATION
SRVC.                                                           : SERVICE COMPANY
DATE. 2021-01-20 14:34:01   : Log Export Date {yyyy-MM-dd HH:mm : ss}
PROV.                                                           : PROVINCE
UWI .                                                    Well-7 : UNIQUE WELL ID
API .                                                           : API NUMBER
~Curve Information -----------------------------------------
DEPTH             .m        : DEPTH
ACOUSTICIMPEDANCE1.kPa.s/m  : ACOUSTICIMPEDANCE1
AI                .kPa.s/m  : AI
AVG_PIGN          .m3/m3    : AVG_PIGN
CALI              .in       : CALI
CALI[DERIVED]1    .in       : CALI[DERIVED]1
DEVI              .deg      : DEVI
DFL               .ohm.m    : DFL
DT                .us/ft    : DT
FACIES            ._        : FACIES
FLD1              ._        : FLD1
GR                .gAPI     : GR
HDRS              .ohm.m    : HDRS
HMRS              .ohm.m    : HMRS
DEPTH_1           .m        : DEPTH_1
NPHI              .m3/m3    : NPHI
PEF               .b/e      : PEF
PERF_INT          ._        : PERF_INT
PERMEABILITY      .mD       : PERMEABILITY
PIGN              .m3/m3    : PIGN
PIGN_MODELLING    .m3/m3    : PIGN_MODELLING
PIMP              .kPa.s/m  : PIMP
RHOB              .g/cm3    : RHOB
LLD               .ohm.m    : LLD
RT_MODELLING      .ohm.m    : RT_MODELLING
RT_POWER          .ohm.m    : RT_POWER
SP                .mV       : SP
SUWI              ._        : SUWI
SUWI_MODELLING    ._        : SUWI_MODELLING
SXWI              ._        : SXWI
TDVSS             .m        : TDVSS
VCL               .%        : VCL
WATER_VOL         ._        : WATER_VOL
ZLT               ._        : ZLT
~Params ----------------------------------------------------
~Other -----------------------------------------------------
~ASCII -----------------------------------------------------
# ...
  1496.4308  8352.1924 8344476.5000    -999.25     9.1241     9.1241     0.1982     3.5025    97.0812     0.0000    -999.25    82.5183     2.6717     2.8335  1496.4308     0.4768     6.2836    -999.25     0.1374     0.0300     0.0300 27376.8906     2.6602     2.8482     2.8482     8.1122  -197.9458     1.0000     1.0000     1.0000 -1409.0608    67.0130     0.0300    12.0000
  1496.4548  8366.1182 8366118.0000    -999.25     9.1301     9.1301     0.1849     3.5802    96.9076     0.0000    -999.25    82.7594     2.7103     2.8683  1496.4548     0.4777     6.2906    -999.25     0.1381     0.0299     0.0299 27447.8926     2.6599     2.8656     2.8656     8.2134  -197.9432     1.0000     1.0000     1.0000 -1409.0848    67.1103     0.0299    12.0000
  1496.5832  8336.7070 8333645.0000    -999.25     9.1623     9.1623     0.1981     3.9963    97.1848     0.0000    -999.25    84.0491     2.9170     3.0543  1496.5833     0.4824     6.2652    -999.25     0.1420     0.0294     0.0294 27341.3555     2.6581     2.9588     2.9588     8.7547  -197.9346     1.0000     1.0000     1.0000 -1409.2131    67.6310     0.0294    12.0000
  1496.6072  8327.5752 8327575.0000    -999.25     9.1522     9.1522     0.2006     4.0261    97.2366     0.0000    -999.25    84.6662     2.9258     3.0604  1496.6072     0.4832     6.2604    -999.25     0.1407     0.0292     0.0292 27321.4414     2.6566     2.9478     2.9478     8.6900  -197.9330     1.0000     1.0000     1.0000 -1409.2372    67.8606     0.0292    12.0000
  1496.7356  8214.5898 8216345.0000    -999.25     9.0978     9.0978     0.2421     4.1855    98.2770     0.0000    -999.25    87.9677     2.9728     3.0930  1496.7356     0.4871     6.1900    -999.25     0.1336     0.0281     0.0281 26956.5117     2.6486     2.8885     2.8885     8.3434  -197.9330     1.0000     1.0000     1.0000 -1409.3656    69.0890     0.0281    12.0000
  1496.7596  8195.5547 8195554.5000    -999.25     9.0956     9.0956     0.2498     4.1777    98.4715     0.0000    -999.25    88.4776     2.9544     3.0761  1496.7596     0.4880     6.1768    -999.25     0.1296     0.0277     0.0277 26888.3008     2.6477     2.8597     2.8597     8.1825  -197.9330     1.0000     1.0000     1.0000 -1409.3895    69.5036     0.0277    12.0000
  1496.8880  8097.9326 8101545.5000    -999.25     9.0838     9.0838     0.2102     4.1355    99.4756     0.0000    -999.25    91.2051     2.8560     2.9858  1496.8879     0.4925     6.0938    -999.25     0.1079     0.0257     0.0257 26579.8730     2.6429     2.7059     2.7059     7.3217  -197.9330     1.0000     1.0000     1.0000 -1409.5179    71.7220     0.0257    12.0000
  1496.9120  8083.9731 8083973.5000    -999.25     9.0830     9.0830     0.2028     4.0759    99.6633     0.0000    -999.25    91.5239     2.8229     2.9556  1496.9120     0.4954     6.0783    -999.25     0.1041     0.0253     0.0253 26522.2227     2.6433     2.6767     2.6767     7.1692  -197.9330     1.0000     1.0000     1.0000 -1409.5420    72.2085     0.0253    12.0000
  1497.0404  8043.7861 8046518.5000    -999.25     9.0791     9.0791     0.2480     3.7567   100.2468     0.0000    -999.25    93.2292     2.6462     2.7942  1497.0404     0.5109     6.0451    -999.25     0.0839     0.0229     0.0229 26399.3398     2.6456     2.5206     2.5206     6.3533  -197.9368     1.0000     1.0000     1.0000 -1409.6704    74.8110     0.0229    12.0000
  1497.0645  8039.4888 8039488.5000    -999.25     9.0789     9.0789     0.2565     3.6872   100.3563     0.0000    -999.25    93.5980     2.6196     2.7672  1497.0645     0.5139     6.0389    -999.25     0.0812     0.0225     0.0225 26376.2754     2.6470     2.4993     2.4993     6.2491  -197.9375     1.0000     1.0000     1.0000 -1409.6945    75.2280     0.0225    12.0000
  1497.1928  8070.0439 8065919.0000    -999.25     9.0780     9.0780     0.2621     3.3174   100.2730     0.0000    -999.25    95.5610     2.4780     2.6235  1497.1927     0.5296     6.0824    -999.25     0.0673     0.0205     0.0205 26462.9883     2.6549     2.3863     2.3863     5.6943  -197.9516     1.0000     1.0000     1.0000 -1409.8228    77.4480     0.0205    12.0000
  1497.2168  8070.8633 8070863.0000    -999.25     9.0773     9.0773     0.2631     3.2863   100.2574     0.0000    -999.25    95.9982     2.4595     2.6017  1497.2168     0.5317     6.0905    -999.25     0.0637     0.0200     0.0200 26479.2090     2.6547     2.3650     2.3650     5.5956  -197.9542     1.0000     1.0000     1.0000 -1409.8468    77.9967     0.0200    12.0000
  1497.3452  8108.5454 8098881.5000    -999.25     9.0732     9.0732     0.2514     3.1198    99.7627     0.0000    -999.25    98.3373     2.3603     2.4850  1497.3452     0.5428     6.1629    -999.25     0.0446     0.0174     0.0174 26571.1328     2.6540     2.2512     2.2512     5.0679  -197.9591     1.0000     1.0000     1.0000 -1409.9752    80.9320     0.0174    12.0000
  1497.3693  8104.1406 8104140.5000    -999.25     9.0722     9.0722     0.2492     3.0988    99.6698     0.0000    -999.25    98.7077     2.3372     2.4590  1497.3693     0.5459     6.1765    -999.25     0.0425     0.0171     0.0171 26588.3867     2.6501     2.2240     2.2240     4.9502  -197.9600     1.0000     1.0000     1.0000 -1409.9993    81.4991     0.0171    12.0000
  1497.4976  7968.5024 7960873.5000    -999.25     9.0670     9.0670     0.2563     2.9869   100.5700     0.0000    -999.25   100.6798     2.2141     2.3210  1497.4976     0.5628     6.2407    -999.25     0.0313     0.0152     0.0152 26118.3535     2.6292     2.0793     2.0793     4.3235  -197.9600     1.0000     1.0000     1.0000 -1410.1276    84.5180     0.0152    12.0000
  1497.5216  7934.0742 7934074.0000    -999.25     9.0667     9.0667     0.2576     2.9480   100.7384     0.0000    -999.25   100.9566     2.1851     2.2900  1497.5216     0.5628     6.2527    -999.25     0.0307     0.0152     0.0152 26030.4277     2.6223     2.0520     2.0520     4.2146  -197.9600     1.0000     1.0000     1.0000 -1410.1516    84.9282     0.0152    12.0000
  1497.6500  7545.1909 7546595.0000    -999.25     9.0654     9.0654     0.3799     2.7399   104.4228     0.0000    -999.25   102.4376     2.0296     2.1242  1497.6500     0.5629     6.2915    -999.25     0.0275     0.0150     0.0150 24759.1699     2.5849     1.9058     1.9058     3.6321  -197.9519     1.0000     1.0000     1.0000 -1410.2800    87.1230     0.0150    12.0000
  1497.6741  7473.8672 7473867.0000    -999.25     9.0646     9.0646     0.4029     2.6898   105.1143     0.0000    -999.25   102.6658     2.0029     2.0961  1497.6741     0.5640     6.2988    -999.25     0.0272     0.0150     0.0150 24520.5605     2.5775     1.8856     1.8856     3.5577  -197.9504     1.0000     1.0000     1.0000 -1410.3041    87.5533     0.0150    12.0000
  1497.8024  7075.4893 7087706.5000    -999.25     9.0600     9.0600     0.4158     2.4234   109.3176     0.0000    -999.25   103.8804     1.8609     1.9467  1497.8024     0.5695     6.2874    -999.25     0.0258     0.0150     0.0150 23253.6289     2.5376     1.7780     1.7780     3.1615  -197.9475     1.0000     1.0000     1.0000 -1410.4324    89.8440     0.0150    12.0000
  1497.8264  7015.4702 7015470.5000    -999.25     9.0608     9.0608     0.4182     2.3763   110.1039     0.0000    -999.25   103.9083     1.8432     1.9291  1497.8264     0.5719     6.2853    -999.25     0.0258     0.0150     0.0150 23016.6348     2.5342     1.7684     1.7684     3.1276  -197.9470     1.0000     1.0000     1.0000 -1410.4564    90.0005     0.0150    12.0000
  1497.9548  6816.9678 6830922.0000    -999.25     9.0650     9.0650     0.3848     2.1245   112.4899     0.0000    -999.25   104.0575     1.7484     1.8349  1497.9548     0.5846     6.2460    -999.25     0.0260     0.0150     0.0150 22411.1602     2.5159     1.7166     1.7166     2.9466  -197.9510     1.0000     1.0000     1.0000 -1410.5848    90.8380     0.0150    12.0000
  1497.9788  6796.4268 6796427.0000    -999.25     9.0642     9.0642     0.3786     2.1036   112.9359     0.0000    -999.25   103.9212     1.7417     1.8296  1497.9788     0.5838     6.2387    -999.25     0.0260     0.0150     0.0150 22297.9883     2.5182     1.7162     1.7162     2.9455  -197.9517     1.0000     1.0000     1.0000 -1410.6088    90.7022     0.0150    12.0000
