~Version ---------------------------------------------------
VERS. 2.0 : CWLS log ASCII Standard -VERSION 2.0
WRAP.  NO : 
~Well ------------------------------------------------------
STRT.m                                                   1300.0 : 
STOP.m                                                 1514.884 : 
STEP.m                                                   0.1524 : 
NULL.                                                   -999.25 : 
COMP.                                                           : COMPANY
WELL.                                                    Well-2 : WELL
FLD .                                                           : FIELD
LOC .                                                           : LOCATION
SRVC.                                                           : SERVICE COMPANY
DATE. 2021-01-20 14:33:59   : Log Export Date {yyyy-MM-dd HH:mm : ss}
PROV.                                                           : PROVINCE
UWI .                                                    Well-2 : UNIQUE WELL ID
API .                                                           : API NUMBER
~Curve Information -----------------------------------------
DEPTH             .m        : DEPTH
ACOUSTICIMPEDANCE1.kPa.s/m  : ACOUSTICIMPEDANCE1
AI                .kPa.s/m  : AI
AVG_PIGN          .m3/m3    : AVG_PIGN
CALI              .in       : CALI
CALI[DERIVED]1    .in       : CALI[DERIVED]1
DT                .us/ft    : DT
FACIES            ._        : FACIES
FLD1              ._        : FLD1
GR                .gAPI     : GR
LLD               .ohm.m    : LLD
LLS               .ohm.m    : LLS
LL3               .ohm.m    : LL3
DEPTH_1           .m        : DEPTH_1
NPHI              .m3/m3    : NPHI
PERF_INT          ._        : PERF_INT
PERMEABILITY      .mD       : PERMEABILITY
PIGN              .m3/m3    : PIGN
PIGN_MODELLING    .m3/m3    : PIGN_MODELLING
PIMP              .kPa.s/m  : PIMP
RHOB              .g/cm3    : RHOB
RT_MODELLING      .ohm.m    : RT_MODELLING
RT_POWER          .ohm.m    : RT_POWER
SP                .mV       : SP
SUWI              ._        : SUWI
SUWI_MODELLING    ._        : SUWI_MODELLING
TDVSS             .m        : TDVSS
VCL               .%        : VCL
WATER_VOL         ._        : WATER_VOL
ZLT               ._        : ZLT
~Params ----------------------------------------------------
~Other -----------------------------------------------------
~ASCII -----------------------------------------------------
# ...
  1471.4500  6455.6582 6452786.0000    -999.25     9.2015     9.2015   119.6838     0.0000    -999.25    89.4605     1.6006     1.7002     1.8655  1471.4500     0.5604    -999.25    -999.25     0.0237     0.0237 21170.5586     2.5349     1.6006     2.5618    45.4449     1.0000     1.0000 -1395.4500    81.2990     0.0237    14.0000
  1471.5745  6358.2734 6358273.5000    -999.25     9.2010     9.2010   118.9980     0.0000    -999.25    93.3994     1.5947     1.6776     1.8579  1471.5745     0.5582    -999.25    -999.25     0.0225     0.0225 20860.4766     2.4824     1.5947     2.5431    45.5095     1.0000     1.0000 -1395.5745    82.2662     0.0225    14.0000
  1471.6024  6334.5977 6337146.5000    -999.25     9.2008     9.2008   118.8762     0.0000    -999.25    94.2821     1.5934     1.6725     1.8562  1471.6023     0.5577    -999.25    -999.25     0.0222     0.0222 20791.1621     2.4706     1.5934     2.5389    45.5240     1.0000     1.0000 -1395.6023    82.4830     0.0222    14.0000
  1471.7268  6242.9468 6242947.0000    -999.25     9.1985     9.1985   118.3330     0.0000    -999.25    99.9389     1.5900     1.6467     1.8390  1471.7268     0.5571    -999.25    -999.25     0.0219     0.0219 20482.1094     2.4237     1.5900     2.5280    45.5735     1.0000     1.0000 -1395.7268    82.7973     0.0219    14.0000
  1471.7548  6220.3970 6226777.0000    -999.25     9.1980     9.1980   118.2450     0.0000    -999.25   101.2121     1.5892     1.6408     1.8351  1471.7548     0.5569    -999.25    -999.25     0.0218     0.0218 20429.0566     2.4132     1.5892     2.5256    45.5847     1.0000     1.0000 -1395.7548    82.8680     0.0218    14.0000
  1471.8793  6154.8770 6154877.0000    -999.25     9.1976     9.1976   117.8540     0.0000    -999.25   105.2269     1.5829     1.6302     1.7015  1471.8793     0.5597    -999.25    -999.25     0.0223     0.0223 20193.1660     2.3798     1.5829     2.5055    45.6520     1.0000     1.0000 -1395.8793    82.8312     0.0223    14.0000
  1471.9072  6138.7183 6145444.5000    -999.25     9.1975     9.1975   117.7935     0.0000    -999.25   106.1266     1.5814     1.6279     1.6716  1471.9071     0.5603    -999.25    -999.25     0.0224     0.0224 20162.2188     2.3724     1.5814     2.5010    45.6670     1.0000     1.0000 -1395.9071    82.8230     0.0224    14.0000
  1472.0316  6103.3867 6103387.0000    -999.25     9.1952     9.1952   117.5240     0.0000    -999.25   105.5688     1.5670     1.6282     1.6152  1472.0316     0.5673    -999.25    -999.25     0.0224     0.0224 20024.2344     2.3533     1.5670     2.4557    45.7491     1.0000     1.0000 -1396.0316    82.8230     0.0224    14.0000
  1472.0596  6095.8486 6100488.0000    -999.25     9.1947     9.1947   117.4549     0.0000    -999.25   105.4432     1.5638     1.6283     1.6026  1472.0596     0.5689    -999.25    -999.25     0.0224     0.0224 20014.7227     2.3490     1.5638     2.4455    45.7675     1.0000     1.0000 -1396.0596    82.8230     0.0224    14.0000
  1472.1840  6087.6069 6087607.0000    -999.25     9.1920     9.1920   117.1480     0.0000    -999.25   101.8306     1.5437     1.6210     1.5947  1472.1840     0.5810    -999.25    -999.25     0.0224     0.0224 19972.4648     2.3397     1.5437     2.3831    45.8863     1.0000     1.0000 -1396.1840    82.8230     0.0224    14.0000
  1472.2120  6084.4766 6087493.5000    -999.25     9.1914     9.1914   117.1034     0.0000    -999.25   101.0175     1.5392     1.6194     1.5930  1472.2119     0.5838    -999.25    -999.25     0.0224     0.0224 19972.0938     2.3376     1.5392     2.3690    45.9131     1.0000     1.0000 -1396.2119    82.8230     0.0224    14.0000
  1472.3364  6086.9902 6086990.5000    -999.25     9.1888     9.1888   116.9050     0.0000    -999.25    97.0553     1.5219     1.5969     1.6209  1472.3364     0.6002    -999.25    -999.25     0.0224     0.0224 19970.4414     2.3346     1.5219     2.3163    45.9966     1.0000     1.0000 -1396.3364    82.8230     0.0224    14.0000
  1472.3644  6067.3438 6070961.0000    -999.25     9.1883     9.1883   117.2497     0.0000    -999.25    96.1635     1.5180     1.5918     1.6272  1472.3644     0.6039    -999.25    -999.25     0.0224     0.0224 19917.8496     2.3340     1.5180     2.3044    46.0154     1.0000     1.0000 -1396.3644    82.8230     0.0224    14.0000
  1472.4888  5999.7427 5999743.0000    -999.25     9.1881     9.1881   118.7810     0.0000    -999.25    93.8997     1.5132     1.5670     1.6398  1472.4888     0.6199    -999.25    -999.25     0.0224     0.0224 19684.1953     2.3381     1.5132     2.2898    46.0621     1.0000     1.0000 -1396.4888    82.8230     0.0224    14.0000
  1472.5168  5974.7871 5979882.0000    -999.25     9.1880     9.1880   119.3247     0.0000    -999.25    93.3902     1.5121     1.5615     1.6427  1472.5167     0.6235    -999.25    -999.25     0.0224     0.0224 19619.0352     2.3390     1.5121     2.2865    46.0726     1.0000     1.0000 -1396.5167    82.8230     0.0224    14.0000
  1472.6412  5891.6436 5891643.5000    -999.25     9.1855     9.1855   121.7400     0.0000    -999.25    92.5069     1.5215     1.5521     1.6332  1472.6412     0.6307    -999.25    -999.25     0.0224     0.0224 19329.5391     2.3532     1.5215     2.3150    46.0495     1.0000     1.0000 -1396.6412    82.8238     0.0224    14.0000
  1472.6692  5882.7070 5887325.5000    -999.25     9.1849     9.1849   122.0898     0.0000    -999.25    92.3080     1.5236     1.5500     1.6310  1472.6692     0.6324    -999.25    -999.25     0.0224     0.0224 19315.3730     2.3564     1.5236     2.3214    46.0443     1.0000     1.0000 -1396.6692    82.8240     0.0224    14.0000
  1472.7936  5868.1426 5868142.5000    -999.25     9.1827     9.1827   123.6440     0.0000    -999.25    91.6127     1.5403     1.5630     1.6150  1472.7936     0.6240    -999.25    -999.25     0.0224     0.0224 19252.4355     2.3804     1.5403     2.3727    45.9417     1.0000     1.0000 -1396.7936    82.8452     0.0224    14.0000
  1472.8216  5883.1694 5884213.5000    -999.25     9.1822     9.1822   123.6091     0.0000    -999.25    91.4562     1.5441     1.5659     1.6114  1472.8215     0.6222    -999.25    -999.25     0.0224     0.0224 19305.1621     2.3859     1.5441     2.3842    45.9186     1.0000     1.0000 -1396.8215    82.8500     0.0224    14.0000
  1472.9460  5955.6147 5955615.0000    -999.25     9.1813     9.1813   123.4540     0.0000    -999.25    89.5086     1.5595     1.5940     1.6750  1472.9460     0.6060    -999.25    -999.25     0.0222     0.0222 19539.4180     2.4122     1.5595     2.4322    45.7781     1.0000     1.0000 -1396.9460    82.9414     0.0222    14.0000
  1472.9740  5987.3027 5983682.0000    -999.25     9.1811     9.1811   123.1025     0.0000    -999.25    89.0702     1.5630     1.6003     1.6893  1472.9740     0.6024    -999.25    -999.25     0.0222     0.0222 19631.5020     2.4181     1.5630     2.4430    45.7465     1.0000     1.0000 -1396.9740    82.9620     0.0222    14.0000
  1473.0984  6108.3809 6108381.0000    -999.25     9.1786     9.1786   121.5410     0.0000    -999.25    86.8417     1.5739     1.6285     1.7691  1473.0984     0.5914    -999.25    -999.25     0.0221     0.0221 20040.6191     2.4358     1.5739     2.4771    45.5900     1.0000     1.0000 -1397.0984    83.0363     0.0221    14.0000
  1473.1264  6135.3169 6128360.0000    -999.25     9.1781     9.1781   121.2043     0.0000    -999.25    86.3401     1.5763     1.6348     1.7870  1473.1263     0.5890    -999.25    -999.25     0.0221     0.0221 20106.1660     2.4397     1.5763     2.4848    45.5547     1.0000     1.0000 -1397.1263    83.0530     0.0221    14.0000
  1473.2509  6217.1938 6217194.0000    -999.25     9.1732     9.1732   119.7070     0.0000    -999.25    84.9922     1.5853     1.6516     1.8204  1473.2510     0.5878    -999.25    -999.25     0.0221     0.0221 20397.6172     2.4417     1.5853     2.5133    45.4568     1.0000     1.0000 -1397.2510    83.0538     0.0221    14.0000
  1473.2788  6217.5464 6211694.0000    -999.25     9.1721     9.1721   119.7224     0.0000    -999.25    84.6901     1.5874     1.6553     1.8279  1473.2788     0.5875    -999.25    -999.25     0.0221     0.0221 20379.5723     2.4422     1.5874     2.5197    45.4349     1.0000     1.0000 -1397.2788    83.0540     0.0221    14.0000
