~Version ---------------------------------------------------
VERS. 2.0 : CWLS log ASCII Standard -VERSION 2.0
WRAP.  NO : 
~Well ------------------------------------------------------
STRT.m                                                   1300.0 : 
STOP.m                                                1481.9656 : 
STEP.m                                                   0.1524 : 
NULL.                                                   -999.25 : 
COMP.                                                           : COMPANY
WELL.                                                    Well-3 : WELL
FLD .                                                           : FIELD
LOC .                                                           : LOCATION
SRVC.                                                           : SERVICE COMPANY
DATE. 2021-01-20 14:34:00   : Log Export Date {yyyy-MM-dd HH:mm : ss}
PROV.                                                           : PROVINCE
UWI .                                                    Well-3 : UNIQUE WELL ID
API .                                                           : API NUMBER
~Curve Information -----------------------------------------
DEPTH             .m        : DEPTH
ACOUSTICIMPEDANCE1.kPa.s/m  : ACOUSTICIMPEDANCE1
AI                .kPa.s/m  : AI
AVG_PIGN          .m3/m3    : AVG_PIGN
BS                .in       : BS
CALI              .in       : CALI
CALI[DERIVED]1    .in       : CALI[DERIVED]1
CALI1             .in       : CALI1
DEVI              .deg      : DEVI
DFL               .ohm.m    : DFL
DT                .us/ft    : DT
DT1               .us/ft    : DT1
FACIES            ._        : FACIES
FLD1              ._        : FLD1
GR                .gAPI     : GR
HDRS              .ohm.m    : HDRS
HMRS              .ohm.m    : HMRS
DEPTH_1           .m        : DEPTH_1
NPHI              .m3/m3    : NPHI
PERF_INT          ._        : PERF_INT
PERMEABILITY      .mD       : PERMEABILITY
PIGN              .m3/m3    : PIGN
PIGN_MODELLING    .m3/m3    : PIGN_MODELLING
PIMP              .kPa.s/m  : PIMP
RHOB              .g/cm3    : RHOB
RT_MODELLING      .ohm.m    : RT_MODELLING
RT_POWER          .ohm.m    : RT_POWER
SP                .mV       : SP
SUWI              ._        : SUWI
SUWI_MODELLING    ._        : SUWI_MODELLING
TDVSS             .m        : TDVSS
VCL               .%        : VCL
WATER_VOL         ._        : WATER_VOL
ZLT               ._        : ZLT
~Params ----------------------------------------------------
~Other -----------------------------------------------------
~ASCII -----------------------------------------------------
# ...
  1469.3164  5358.5542 5357325.5000    -999.25     8.5000     8.7896     8.7896     8.7896     0.4306     1.6248   138.3176   138.3175     0.0000    -999.25    93.7552     1.3471     1.3608  1469.3164     0.6537    -999.25     0.0001     0.0086     0.0100 17576.5273     2.4317     1.6248     2.6398   355.4444     1.0000     1.0000 -1393.1564    90.5680     0.0086    12.0000
  1469.3430  5382.6172 5382617.0000    -999.25     8.5000     8.7810     8.7810     8.7854     0.3920     1.5886   137.4539   137.4105     0.0000    -999.25    94.1214     1.3361     1.3467  1469.3430     0.6495    -999.25     0.0001     0.0088     0.0100 17659.5059     2.4274     1.5886     2.5298   355.3923     1.0000     1.0000 -1393.1830    90.2758     0.0088    12.0000
  1469.4688  5510.9214 5515720.5000    -999.25     8.5000     8.7656     8.7656     8.7656     0.2594     1.4176   133.1206   133.1211     0.0000    -999.25    95.8530     1.2840     1.2802  1469.4688     0.6300    -999.25     0.0000     0.0101     0.0101 18096.1973     2.4069     1.4176     2.0095   355.1458     1.0000     1.0000 -1393.3087    88.8940     0.0101    12.0000
  1469.4954  5543.8647 5543865.0000    -999.25     8.5000     8.7624     8.7624     8.7677     0.2314     1.4031   132.2043   132.2349     0.0000    -999.25    95.9534     1.2862     1.2813  1469.4954     0.6256    -999.25     0.0000     0.0103     0.0103 18188.5332     2.4046     1.4031     1.9698   355.0405     1.0000     1.0000 -1393.3353    88.6812     0.0103    12.0000
  1469.6212  5698.3828 5705978.5000    -999.25     8.5000     8.7776     8.7776     8.7776     0.2294     1.3348   128.0432   128.0437     0.0000    -999.25    96.4282     1.2967     1.2868  1469.6211     0.6051    -999.25     0.0000     0.0112     0.0112 18720.4023     2.3938     1.3348     1.7817   354.5420     1.0000     1.0000 -1393.4612    87.6750     0.0112    12.0000
  1469.6478  5740.2573 5740257.0000    -999.25     8.5000     8.7808     8.7808     8.8032     0.2290     1.3488   127.1634   127.2955     0.0000    -999.25    96.1810     1.3088     1.3018  1469.6477     0.6014    -999.25     0.0000     0.0113     0.0113 18832.8652     2.3949     1.3488     1.8201   354.2985     1.0000     1.0000 -1393.4878    87.6136     0.0113    12.0000
  1469.7736  5910.1748 5918468.5000    -999.25     8.5000     8.9242     8.9242     8.9242     0.2068     1.4148   123.7565   123.7569     0.0000    -999.25    95.0122     1.3664     1.3729  1469.7736     0.5844    -999.25     0.0000     0.0115     0.0115 19417.5488     2.3997     1.4148     2.0018   353.1469     1.0000     1.0000 -1393.6135    87.3230     0.0115    12.0000
  1469.8002  5956.1514 5956151.0000    -999.25     8.5000     8.9545     8.9545     8.9699     0.2021     1.4754   123.0361   123.3600     0.0000    -999.25    94.4894     1.3808     1.3928  1469.8002     0.5825    -999.25     0.0000     0.0115     0.0115 19541.1777     2.4043     1.4754     2.1941   352.8586     1.0000     1.0000 -1393.6401    87.4005     0.0115    12.0000
  1469.9260  6086.7671 6088455.0000    -999.25     8.5000     9.1860     9.1860     9.1860     0.3410     1.7618   121.4830   121.4832     0.0000    -999.25    92.0168     1.4492     1.4872  1469.9259     0.5735    -999.25     0.0000     0.0111     0.0111 19975.2461     2.4260     1.7618     3.1039   351.4950     1.0000     1.0000 -1393.7660    87.7670     0.0111    12.0000
  1469.9526  6116.4302 6116430.5000    -999.25     8.5000     9.2350     9.2350     9.2172     0.3704     1.8105   121.1546   121.4979     0.0000    -999.25    91.3447     1.4590     1.4998  1469.9525     0.5730    -999.25     0.0000     0.0110     0.0110 20067.0293     2.4312     1.8105     3.2893   351.2224     1.0000     1.0000 -1393.7926    87.9353     0.0110    12.0000
  1470.0784  6157.6953 6155944.0000    -999.25     8.5000     9.3648     9.3648     9.3648     0.5046     2.0411   121.5677   121.5676     0.0000    -999.25    88.1661     1.5055     1.5594  1470.0784     0.5706    -999.25     0.0000     0.0102     0.0102 20196.6660     2.4560     2.0411     4.1660   349.9335     1.0000     1.0000 -1393.9183    88.7310     0.0102    12.0000
  1470.1050  6164.2993 6164299.0000    -999.25     8.5000     9.3923     9.3923     9.3532     0.5330     2.0457   121.6550   121.6595     0.0000    -999.25    87.3999     1.5080     1.5619  1470.1050     0.5720    -999.25     0.0000     0.0100     0.0102 20224.0781     2.4604     2.0457     4.1848   349.6720     1.0000     1.0000 -1393.9449    88.9610     0.0100    12.0000
  1470.2308  6194.0776 6188175.0000    -999.25     8.5000     9.2982     9.2982     9.2982     0.5725     2.0673   122.0941   122.0941     0.0000    -999.25    83.7760     1.5199     1.5740  1470.2307     0.5785    -999.25     0.0000     0.0091     0.0100 20302.4121     2.4812     2.0673     4.2736   348.4349     1.0000     1.0000 -1394.0708    90.0490     0.0091    12.0000
  1470.2574  6193.2236 6193223.5000    -999.25     8.5000     9.2783     9.2783     9.2764     0.5809     2.0578   122.1870   122.0807     0.0000    -999.25    83.0394     1.5220     1.5745  1470.2573     0.5822    -999.25     0.0000     0.0087     0.0100 20318.9746     2.4827     2.0578     4.2351   348.3011     1.0000     1.0000 -1394.0974    90.3799     0.0087    12.0000
  1470.3832  6220.0864 6217826.5000    -999.25     8.5000     9.1730     9.1730     9.1730     0.6215     2.0132   122.0173   122.0173     0.0000    -999.25    79.5561     1.5319     1.5768  1470.3832     0.5996    -999.25     0.0000     0.0073     0.0100 20399.6934     2.4900     2.0132     4.0531   347.6682     1.0000     1.0000 -1394.2231    91.9450     0.0073    12.0000
  1470.4098  6223.0288 6223029.0000    -999.25     8.5000     9.1507     9.1507     9.1866     0.6301     2.0136   121.9814   121.8938     0.0000    -999.25    78.8987     1.5379     1.5802  1470.4098     0.6063    -999.25     0.0000     0.0069     0.0100 20416.7617     2.4905     2.0136     4.0545   347.6104     1.0000     1.0000 -1394.2498    92.3604     0.0069    12.0000
  1470.5356  6262.7686 6267079.5000    -999.25     8.5000     9.2509     9.2509     9.2510     0.6498     2.0153   121.3098   121.3095     0.0000    -999.25    75.7895     1.5660     1.5964  1470.5355     0.6378    -999.25     0.0000     0.0052     0.0100 20561.2832     2.4926     2.0153     4.0615   347.3365     1.0000     1.0000 -1394.3756    94.3250     0.0052    12.0000
  1470.5623  6276.4287 6276429.0000    -999.25     8.5000     9.2722     9.2722     9.2868     0.6540     2.0168   121.1673   121.1116     0.0000    -999.25    75.2461     1.5747     1.6030  1470.5623     0.6453    -999.25     0.0000     0.0049     0.0100 20591.9570     2.4951     2.0168     4.0673   347.2775     1.0000     1.0000 -1394.4023    94.6566     0.0049    12.0000
  1470.6880  6357.8438 6364050.0000    -999.25     8.5000     9.4555     9.4555     9.4555     0.6507     2.0236   120.1804   120.1803     0.0000    -999.25    72.6881     1.6156     1.6342  1470.6880     0.6805    -999.25     0.0000     0.0034     0.0100 20879.4297     2.5069     2.0236     4.0950   346.9996     1.0000     1.0000 -1394.5280    96.2180     0.0034    12.0000
  1470.7146  6382.5923 6382592.0000    -999.25     8.5000     9.4943     9.4943     9.4726     0.6500     2.0266   119.9715   119.9254     0.0000    -999.25    72.6365     1.6261     1.6438  1470.7146     0.6845    -999.25     0.0000     0.0034     0.0100 20940.2637     2.5122     2.0266     4.1072   346.9297     1.0000     1.0000 -1394.5546    96.2587     0.0034    12.0000
  1470.8404  6515.2397 6507333.0000    -999.25     8.5000     9.5533     9.5533     9.5533     0.6514     2.0408   118.7203   118.7196     0.0000    -999.25    72.3927     1.6755     1.6893  1470.8403     0.7034    -999.25     0.0000     0.0032     0.0100 21349.5195     2.5377     2.0408     4.1649   346.5990     1.0000     1.0000 -1394.6803    96.4510     0.0032    12.0000
  1470.8671  6533.8086 6533808.5000    -999.25     8.5000     9.5658     9.5658     9.5202     0.6517     2.0637   118.4547   118.5936     0.0000    -999.25    73.0068     1.6854     1.6988  1470.8671     0.7027    -999.25    -999.25     0.0034     0.0100 21436.3809     2.5392     2.0637     4.2615   346.5490     1.0000     1.0000 -1394.7070    96.2180     0.0034    12.0000
