~Version ---------------------------------------------------
VERS. 2.0 : CWLS log ASCII Standard -VERSION 2.0
WRAP.  NO : 
~Well ------------------------------------------------------
STRT.m                                                1239.5456 : 
STOP.m                                                  1697.66 : 
STEP.m                                                   0.1524 : 
NULL.                                                   -999.25 : 
COMP.                                                           : COMPANY
WELL.                                                   Well-16 : WELL
FLD .                                                           : FIELD
LOC .                                                           : LOCATION
SRVC.                                                           : SERVICE COMPANY
DATE. 2021-01-20 14:34:07   : Log Export Date {yyyy-MM-dd HH:mm : ss}
PROV.                                                           : PROVINCE
UWI .                                                   Well-16 : UNIQUE WELL ID
API .                                                           : API NUMBER
~Curve Information -----------------------------------------
DEPTH             .m        : DEPTH
ACOUSTICIMPEDANCE1.kPa.s/m  : ACOUSTICIMPEDANCE1
AI                .kPa.s/m  : AI
AVG_PIGN          .m3/m3    : AVG_PIGN
BIT               .m        : BIT
CALI              .in       : CALI
CALI_1            .in       : CALI_1
NPHI              .m3/m3    : NPHI
DT                .us/ft    : DT
FACIES            ._        : FACIES
FLD1              ._        : FLD1
GR                .gAPI     : GR
M2R2              .ohm.m    : M2R2
LLS               .ohm.m    : LLS
LLD               .ohm.m    : LLD
DEPTH_1           .m        : DEPTH_1
NPHI_1            .m3/m3    : NPHI_1
PEF               .b/e      : PEF
PIGN_MODELLING    .m3/m3    : PIGN_MODELLING
PIMP              .kPa.s/m  : PIMP
RHOB              .g/cm3    : RHOB
RT_MODELLING      .ohm.m    : RT_MODELLING
RT_POWER          .ohm.m    : RT_POWER
SP                .mV       : SP
SUWI_MODELLING    ._        : SUWI_MODELLING
TDVSS             .m        : TDVSS
ZCOR              .g/cm3    : ZCOR
RHOB_1            .g/cm3    : RHOB_1
ZLT               ._        : ZLT
~Params ----------------------------------------------------
~Other -----------------------------------------------------
~ASCII -----------------------------------------------------
# ...
  1422.4256  5629.7666 5629766.5000    -999.25     0.2159     9.2660     9.5660     0.4826   125.0165     0.0000    -999.25   105.2689     1.2983     1.3024     1.3014  1422.4257     0.4826     5.4377     0.0000 18470.3633     2.3091     1.3014     1.6936   193.5347     1.0000 -1341.7056     0.1099     2.3091     2.0000
  1422.5781  5689.5195 5689519.5000    -999.25     0.2159     9.1127     9.4127     0.4845   124.7482     0.0000    -999.25   104.2530     1.3695     1.3666     1.3629  1422.5781     0.4845     5.4761     0.0000 18666.4023     2.3286     1.3629     1.8575   193.3222     1.0000 -1341.8580     0.1124     2.3286     2.0000
  1422.7304  5758.0986 5758098.5000    -999.25     0.2159     8.9945     9.2945     0.4969   124.3370     0.0000    -999.25   103.1622     1.4715     1.4583     1.4516  1422.7305     0.4969     5.6600     0.0000 18891.3984     2.3489     1.4516     2.1071   192.9661     1.0000 -1342.0104     0.1152     2.3489     2.0000
  1422.8828  5805.1572 5805157.5000    -999.25     0.2159     8.9443     9.2443     0.4807   124.7467     0.0000    -999.25   102.2462     1.5992     1.5711     1.5612  1422.8828     0.4807     6.1033     0.0000 19045.7930     2.3759     1.5612     2.4373   192.3221     1.0000 -1342.1628     0.1190     2.3759     2.0000
  1423.0352  6108.7812 6108781.0000    -999.25     0.2159     8.9067     9.2067     0.4392   121.1011     0.0000    -999.25   100.1580     1.7688     1.7194     1.7060  1423.0352     0.4392     6.7676     0.0000 20041.9336     2.4271     1.7060     2.9104   191.2051     1.0000 -1342.3152     0.1302     2.4271     2.0000
  1423.1876  6722.5117 6722512.0000    -999.25     0.2159     8.8368     9.1368     0.4032   113.7132     0.0000    -999.25    95.8015     2.0553     1.9720     1.9544  1423.1876     0.4032     7.2078     0.0000 22055.4863     2.5080     1.9544     3.8197   189.3396     1.0000 -1342.4677     0.1199     2.5080     2.0000
  1423.3400  7071.4297 7071429.5000    -999.25     0.2159     8.7657     9.0657     0.3798   110.4515     0.0000    -999.25    89.3959     2.4491     2.3138     2.2915  1423.3400     0.3798     6.8997     0.0000 23200.2285     2.5625     2.2915     5.2510   186.4879     1.0000 -1342.6200     0.0724     2.5625     2.0000
  1423.4924  7066.1025 7066102.5000    -999.25     0.2159     8.7418     9.0418     0.3677   109.7497     0.0000    -999.25    83.7539     2.6501     2.4835     2.4630  1423.4924     0.3677     6.2703     0.0000 23182.7520     2.5443     2.4630     6.0664   183.0266     1.0000 -1342.7725     0.0354     2.5443     2.0000
  1423.6448  6973.3940 6973394.0000    -999.25     0.2159     8.7634     9.0634     0.3756   108.9228     0.0000    -999.25    82.0094     2.5443     2.3955     2.3835  1423.6448     0.3756     6.1356     0.0594 22878.5898     2.4920     2.3835     5.6811   179.9615     0.9974 -1342.9248     0.0431     2.4920     2.0000
  1423.7972  6986.6724 6986672.5000    -999.25     0.2159     8.7966     9.0966     0.4002   107.8738     0.0000    -999.25    82.8357     2.4690     2.3392     2.3352  1423.7972     0.4002     6.3183     0.1187 22922.1543     2.4727     2.3352     5.4532   178.1172     0.9933 -1343.0773     0.0338     2.4727     2.0000
  1423.9496  7392.7378 7392737.5000    -999.25     0.2159     8.8220     9.1220     0.4146   102.9793     0.0000    -999.25    83.2555     2.5347     2.4161     2.4197  1423.9496     0.4146     6.2486     0.1193 24254.3887     2.4977     2.4197     5.8549   177.6149     0.9891 -1343.2296    -0.0284     2.4977     2.0000
  1424.1020  8003.3413 8003341.0000    -999.25     0.2159     8.8454     9.1454     0.4054    96.1852     0.0000    -999.25    84.2346     2.4786     2.3840     2.3944  1424.1021     0.4054     5.6927     0.1175 26257.6816     2.5256     2.3944     5.7332   178.2002     1.0007 -1343.3820    -0.0834     2.5256     2.0000
  1424.2545  7700.9531 7700953.5000    -999.25     0.2159     8.9082     9.2082     0.3876    97.9593     0.0000    -999.25    89.3284     2.1495     2.0914     2.1039  1424.2545     0.3876     5.2140     0.1104 25265.5957     2.4750     2.1039     4.4264   179.8095     1.0479 -1343.5344    -0.0456     2.4750     2.0000
  1424.4068  6866.9199 6866920.0000    -999.25     0.2159     9.0566     9.3566     0.3875   108.1349     0.0000    -999.25    97.5225     1.7742     1.7380     1.7487  1424.4069     0.3875     5.2132     0.1007 22529.2656     2.4362     1.7487     3.0580   182.4010     1.1141 -1343.6868     0.0549     2.4362     2.0000
  1424.5593  6324.0845 6324084.5000    -999.25     0.2159     9.2042     9.5042     0.3974   116.8047     0.0000    -999.25   103.4613     1.5863     1.5566     1.5660  1424.5593     0.3974     5.4246     0.0945 20748.3086     2.4235     1.5660     2.4524   185.1319     1.1572 -1343.8392     0.1211     2.4235     2.0000
  1424.7116  6173.8320 6173832.0000    -999.25     0.2159     9.1936     9.4936     0.3767   121.2124     0.0000    -999.25   104.1633     1.6281     1.5962     1.6053  1424.7117     0.3767     5.9651     0.0963 20255.3535     2.4552     1.6053     2.5770   186.6577     1.1448 -1343.9916     0.1362     2.4552     2.0000
  1424.8640  6595.8281 6595828.0000    -999.25     0.2159     9.0546     9.3546     0.3510   116.9786     0.0000    -999.25   100.3953     1.9442     1.8881     1.8989  1424.8640     0.3510     6.6885     0.1061 21639.8555     2.5314     1.8989     3.6058   186.1983     1.0771 -1344.1440     0.1271     2.5314     2.0000
  1425.0164  7449.0747 7449074.5000    -999.25     0.2159     8.9441     9.2441     0.3559   107.2129     0.0000    -999.25    95.3304     2.5215     2.4104     2.4228  1425.0164     0.3559     7.1379     0.1189 24439.2207     2.6202     2.4228     5.8700   184.0538     0.9927 -1344.2964     0.0901     2.6202     2.0000
  1425.1688  7863.8999 7863900.0000    -999.25     0.2159     8.9072     9.2072     0.3715   102.1465     0.0000    -999.25    92.7241     2.9557     2.7863     2.7945  1425.1688     0.3715     7.2866     0.1266 25800.1973     2.6354     2.7945     7.8092   181.2882     0.9428 -1344.4489     0.0485     2.6354     2.0000
  1425.3212  7837.5928 7837592.5000    -999.25     0.2159     8.9090     9.2090     0.3742   100.8949     0.0000    -999.25    92.1652     2.8742     2.7134     2.7124  1425.3212     0.3742     7.6908     0.1264 25713.8867     2.5944     2.7124     7.3571   178.9802     0.9437 -1344.6012     0.0552     2.5944     2.0000
  1425.4736  7678.7988 7678798.5000    -999.25     0.2159     8.9407     9.2407     0.3810   102.5884     0.0000    -999.25    89.6024     2.6121     2.4901     2.4813  1425.4736     0.3810     7.9528     0.1224 25192.9082     2.5845     2.4813     6.1569   177.8084     0.9694 -1344.7537     0.0818     2.5845     2.0000
  1425.6260  7594.3022 7594302.5000    -999.25     0.2159     8.9807     9.2807     0.4084   105.1466     0.0000    -999.25    85.8437     2.4819     2.3862     2.3711  1425.6260     0.4084     7.4879     0.1186 24915.6895     2.6198     2.3711     5.6221   178.1867     0.9934 -1344.9060     0.0611     2.6198     2.0000
  1425.7784  7678.1509 7678151.0000    -999.25     0.2159     9.0397     9.3397     0.4461   105.6815     0.0000    -999.25    85.9860     2.3428     2.2701     2.2509  1425.7784     0.4461     6.7343     0.1143 25190.7852     2.6622     2.2509     5.0666   180.1601     1.0216 -1345.0585    -0.0134     2.6622     2.0000
  1425.9308  7474.3691 7474369.0000    -999.25     0.2159     9.1871     9.4871     0.4675   107.6983     0.0000    -999.25    89.8405     2.0573     2.0077     1.9892  1425.9308     0.4675     6.2879     0.1071 24522.2090     2.6410     1.9892     3.9569   183.1248     1.0698 -1345.2108    -0.0645     2.6410     2.0000
  1426.0832  6856.3052 6856305.5000    -999.25     0.2159     9.4105     9.7105     0.4612   111.6587     0.0000    -999.25    93.7845     1.7548     1.7164     1.7003  1426.0833     0.4612     5.9591     0.0986 22494.4395     2.5117     1.7003     2.8910   186.0714     1.1281 -1345.3632    -0.0061     2.5117     2.0000
