~Version ---------------------------------------------------
VERS. 2.0 : CWLS log ASCII Standard -VERSION 2.0
WRAP.  NO : 
~Well ------------------------------------------------------
STRT.m                                                1333.6522 : 
STOP.m                                                1778.5078 : 
STEP.m                                                   0.1524 : 
NULL.                                                   -999.25 : 
COMP.                                                           : COMPANY
WELL.                                                   Well-15 : WELL
FLD .                                                           : FIELD
LOC .                                                           : LOCATION
SRVC.                                                           : SERVICE COMPANY
DATE. 2021-01-20 14:34:07   : Log Export Date {yyyy-MM-dd HH:mm : ss}
PROV.                                                           : PROVINCE
UWI .                                                   Well-15 : UNIQUE WELL ID
API .                                                           : API NUMBER
~Curve Information -----------------------------------------
DEPTH             .m        : DEPTH
ACOUSTICIMPEDANCE1.kPa.s/m  : ACOUSTICIMPEDANCE1
AI                .kPa.s/m  : AI
BS                .in       : BS
CALI              .in       : CALI
CALI[DERIVED]1    .in       : CALI[DERIVED]1
DRES              .ohm.m    : DRES
DT                .us/ft    : DT
DT2               .us/ft    : DT2
DT4P              .us/ft    : DT4P
FACIES            ._        : FACIES
FLD1              ._        : FLD1
GR                .gAPI     : GR
GR_EDTC           .gAPI     : GR_EDTC
LLD               .ohm.m    : LLD
LLS               .ohm.m    : LLS
M2R2              .ohm.m    : M2R2
LLS_1             .ohm.m    : LLS_1
LLD_1             .ohm.m    : LLD_1
DEPTH_1           .m        : DEPTH_1
MSFL              .ohm.m    : MSFL
NPHI              .m3/m3    : NPHI
PERF_INT          ._        : PERF_INT
PIMP              .kPa.s/m  : PIMP
PR                ._        : PR
RHOB              .g/cm3    : RHOB
RT_MODELLING      .ohm.m    : RT_MODELLING
RT_POWER          .ohm.m    : RT_POWER
SP                .mV       : SP
TDVSS             .m        : TDVSS
TENS              .t        : TENS
VPVS              ._        : VPVS
ZLT               ._        : ZLT
~Params ----------------------------------------------------
~Other -----------------------------------------------------
~ASCII -----------------------------------------------------
# ...
  1749.5518  2358.3547 2358366.0000     8.5000     8.8176     8.8176    62.4581   149.9602   403.3128   149.9602     3.0000    -999.25    22.9811    23.9752    62.4581    48.2425    -999.25    -999.25    -999.25  1749.5518    12.8998     0.6128    -999.25  7737.4219     0.4198     1.1603    62.4581  3901.0142   -92.3750 -1383.2806  2278.9502     2.6895    21.0000
  1749.7042  2387.2212 2387215.5000     8.5000     8.8727     8.8727    61.6324   149.0917   386.1494   149.0917     3.0000    -999.25    22.7361    21.8920    61.6324    47.5924    -999.25    -999.25    -999.25  1749.7041    13.7337     0.5996    -999.25  7832.0723     0.4124     1.1677    61.6324  3798.5527   -92.3750 -1383.3368  2211.0894     2.5900    21.0000
  1749.8566  2393.4126 2393397.7500     8.5000     8.7626     8.7626    61.7493   149.3810   354.8194   149.3810     3.0000    -999.25    22.9999    22.3135    61.7493    47.6976    -999.25    -999.25    -999.25  1749.8566    13.3203     0.5899    -999.25  7852.3545     0.3923     1.1730    61.7493  3812.9758   -92.3750 -1383.3928  2232.9712     2.3753    21.0000
  1750.0090  2409.1680 2409160.0000     8.5000     8.5548     8.5548    61.3729   148.3661   337.3797   148.3661     3.0000    -999.25    24.4172    23.0896    61.3730    47.3250    -999.25    -999.25    -999.25  1750.0089    14.5449     0.5905    -999.25  7904.0684     0.3801     1.1727    61.3730  3766.6453   -92.3750 -1383.4490  2249.9778     2.2739    21.0000
  1750.1614  2374.6152 2374624.2500     8.5000     8.4712     8.4712    59.9136   150.1014   336.6477   150.1014     3.0000    -999.25    26.2506    23.4798    59.9136    45.7764    -999.25    -999.25    -999.25  1750.1614    17.5971     0.5935    -999.25  7790.7612     0.3759     1.1694    59.9136  3589.6396   -92.3750 -1383.5050  2232.0237     2.2428    21.0000
  1750.3138  2375.1116 2375126.0000     8.5000     8.4580     8.4580    57.7246   150.0444   336.3897   150.0444     3.0000    -999.25    26.5206    22.7711    57.7247    43.2846    -999.25    -999.25    -999.25  1750.3137    14.2920     0.5794    -999.25  7792.4082     0.3758     1.1692    57.7247  3332.1411   -92.3750 -1383.5612  2238.9907     2.2419    21.0000
  1750.4662  2374.3904 2374398.0000     8.5000     8.4285     8.4285    53.8008   150.7575   336.3261   150.7575     3.0000    -999.25    25.0690    22.4674    53.8010    39.6856    -999.25    -999.25    -999.25  1750.4662     9.6346     0.5713    -999.25  7790.0195     0.3743     1.1744    53.8010  2894.5474   -92.3750 -1383.6173  2189.0657     2.2309    21.0000
  1750.6187  2372.4460 2372434.0000     8.5000     8.3625     8.3625    49.9721   151.9088   389.1530   151.9088     3.0000    -999.25    22.3564    22.8204    49.9722    36.7200    -999.25    -999.25    -999.25  1750.6187    11.7490     0.5788    -999.25  7783.5767     0.4101     1.1824    49.9722  2497.2207   -92.3750 -1383.6735  2129.0393     2.5618    21.0000
  1750.7710  2356.8362 2356823.2500     8.5000     8.2908     8.2908    47.1336   152.7856   400.9812   152.7856     3.0000    -999.25    20.8205    23.2357    47.1337    34.9548    -999.25    -999.25    -999.25  1750.7710    17.1991     0.5958    -999.25  7732.3604     0.4151     1.1814    47.1337  2221.5857   -92.3750 -1383.7295  2018.1456     2.6245    21.0000
  1750.9235  2332.7083 2332712.5000     8.5000     8.2554     8.2554    44.6003   153.5820   413.2348   153.5820     3.0000    -999.25    20.3199    24.1744    44.6004    33.6051    -999.25    -999.25    -999.25  1750.9235    15.2155     0.6064    -999.25  7653.2563     0.4199     1.1754    44.6004  1989.1956   -92.3750 -1383.7856  2071.9646     2.6907    21.0000
  1751.0758  2321.9888 2322007.5000     8.5000     8.2655     8.2655    43.2092   153.9366   400.6363   153.9366     3.0000    -999.25    20.5942    24.0675    43.2092    33.1329    -999.25    -999.25    -999.25  1751.0758     8.5540     0.6062    -999.25  7618.1353     0.4134     1.1727    43.2092  1867.0352   -92.3750 -1383.8417  2160.8833     2.6026    21.0000
  1751.2283  2331.1055 2331112.0000     8.5000     8.3307     8.3307    43.4374   153.9229   396.1809   153.9229     3.0000    -999.25    21.1696    25.9072    43.4374    33.7719    -999.25    -999.25    -999.25  1751.2283     5.9812     0.5947    -999.25  7648.0054     0.4111     1.1772    43.4374  1886.8077   -92.3750 -1383.8979  2206.9697     2.5739    21.0000
  1751.3806  2355.2378 2355229.7500     8.5000     8.4034     8.4034    44.5130   153.5623   392.9401   153.5623     3.0000    -999.25    21.5233    26.4594    44.5130    34.7830    -999.25    -999.25    -999.25  1751.3806     7.6635     0.5784    -999.25  7727.1318     0.4099     1.1866    44.5130  1981.4072   -92.3750 -1383.9539  2278.9055     2.5588    21.0000
  1751.5330  2371.0051 2370998.5000     8.5000     8.4363     8.4363    46.1588   153.3510   393.1207   153.3510     3.0000    -999.25    20.3459    27.7344    46.1587    35.9532    -999.25    -999.25    -999.25  1751.5330     7.2978     0.5656    -999.25  7778.8662     0.4103     1.1929    46.1587  2130.6255   -92.3750 -1384.0100  2271.0105     2.5635    21.0000
  1751.6854  2383.8015 2383801.5000     8.5000     8.4155     8.4155    47.2998   153.0009   392.7362   153.0009     3.0000    -999.25    19.1162    28.1258    47.2997    36.5036    -999.25    -999.25    -999.25  1751.6853     8.3893     0.5814    -999.25  7820.8706     0.4105     1.1966    47.2997  2237.2617   -92.3750 -1384.0666  2284.9817     2.5669    21.0000
  1751.8378  2400.0115 2400000.2500     8.5000     8.3604     8.3604    46.1231   152.4247   374.1611   152.4247     3.0000    -999.25    18.9984    30.3303    46.1232    35.6055    -999.25    -999.25    -999.25  1751.8378     5.3115     0.6025    -999.25  7874.0166     0.4005     1.2002    46.1232  2127.3496   -92.3750 -1384.1239  2248.0486     2.4547    21.0000
  1751.9902  2443.9319 2443935.5000     8.5000     8.3163     8.3163    44.8177   149.5981   446.1178   149.5981     3.0000    -999.25    19.2955    28.1063    44.8178    34.8475    -999.25    -999.25    -999.25  1751.9901    10.4422     0.6142    -999.25  8018.1616     0.4367     1.1995    44.8178  2008.6351   -92.3750 -1384.1812  2277.9607     2.9821    21.0000
  1752.1426  2454.2400 2454244.5000     8.5000     8.2845     8.2845    44.1938   149.0195   470.1782   149.0195     3.0000    -999.25    19.0086    29.1637    44.1938    34.4934    -999.25    -999.25    -999.25  1752.1426     8.2260     0.5933    -999.25  8051.9834     0.4442     1.1999    44.1938  1953.0922   -92.3750 -1384.2384  2204.0972     3.1552    21.0000
  1752.2950  2471.4238 2471440.7500     8.5000     8.2698     8.2698    43.9489   148.2423   462.0225   148.2423     3.0000    -999.25    19.9141    24.9353    43.9489    34.3037    -999.25    -999.25    -999.25  1752.2949     8.6522     0.5712    -999.25  8108.4004     0.4426     1.2020    43.9489  1931.5056   -92.3750 -1384.2955  2209.9922     3.1167    21.0000
  1752.4474  2490.3958 2490382.0000     8.5000     8.2596     8.2596    44.6870   148.1289   449.1594   148.1289     3.0000    -999.25    21.3854    26.2778    44.6869    34.8103    -999.25    -999.25    -999.25  1752.4474    10.9245     0.5578    -999.25  8170.5444     0.4390     1.2103    44.6869  1996.9192   -92.3750 -1384.3528  2200.0132     3.0322    21.0000
  1752.5999  2445.4832 2445472.2500     8.5000     8.2608     8.2608    45.7787   151.2482   449.7593   151.2482     3.0000    -999.25    21.7230    22.1006    45.7787    35.6199    -999.25    -999.25    -999.25  1752.5999    14.1438     0.5476    -999.25  8023.2031     0.4362     1.2135    45.7787  2095.6895   -92.3750 -1384.4102  2191.0059     2.9736    21.0000
  1752.7522  2398.6951 2398684.0000     8.5000     8.3020     8.3020    47.0977   153.4995   444.6472   153.4995     3.0000    -999.25    21.5707    24.1962    47.0976    36.6749    -999.25    -999.25    -999.25  1752.7522    12.5601     0.5358    -999.25  7869.6982     0.4323     1.2080    47.0976  2218.1838   -92.3750 -1384.4672  2205.9802     2.8967    21.0000
