~Version ---------------------------------------------------
VERS. 2.0 : CWLS log ASCII Standard -VERSION 2.0
WRAP.  NO : 
~Well ------------------------------------------------------
STRT.m                                                   1250.0 : 
STOP.m                                                1661.9372 : 
STEP.m                                                   0.1524 : 
NULL.                                                   -999.25 : 
COMP.                                                           : COMPANY
WELL.                                                    Well-7 : WELL
FLD .                                                           : FIELD
LOC .                                                           : LOCATION
SRVC.                                                           : SERVICE COMPANY
DATE. 2021-01-20 14:34:01   : Log Export Date {yyyy-MM-dd HH:mm : ss}
PROV.                                                           : PROVINCE
UWI .                                                    Well-7 : UNIQUE WELL ID
API .                                                           : API NUMBER
~Curve Information -----------------------------------------
DEPTH             .m        : DEPTH
ACOUSTICIMPEDANCE1.kPa.s/m  : ACOUSTICIMPEDANCE1
AI                .kPa.s/m  : AI
AVG_PIGN          .m3/m3    : AVG_PIGN
CALI              .in       : CALI
CALI[DERIVED]1    .in       : CALI[DERIVED]1
DEVI              .deg      : DEVI
DFL               .ohm.m    : DFL
DT                .us/ft    : DT
FACIES            ._        : FACIES
FLD1              ._        : FLD1
GR                .gAPI     : GR
HDRS              .ohm.m    : HDRS
HMRS              .ohm.m    : HMRS
DEPTH_1           .m        : DEPTH_1
NPHI              .m3/m3    : NPHI
PEF               .b/e      : PEF
PERF_INT          ._        : PERF_INT
PERMEABILITY      .mD       : PERMEABILITY
PIGN              .m3/m3    : PIGN
PIGN_MODELLING    .m3/m3    : PIGN_MODELLING
PIMP              .kPa.s/m  : PIMP
RHOB              .g/cm3    : RHOB
LLD               .ohm.m    : LLD
RT_MODELLING      .ohm.m    : RT_MODELLING
RT_POWER          .ohm.m    : RT_POWER
SP                .mV       : SP
SUWI              ._        : SUWI
SUWI_MODELLING    ._        : SUWI_MODELLING
SXWI              ._        : SXWI
TDVSS             .m        : TDVSS
VCL               .%        : VCL
WATER_VOL         ._        : WATER_VOL
ZLT               ._        : ZLT
~Params ----------------------------------------------------
~Other -----------------------------------------------------
~ASCII -----------------------------------------------------
# ...
  1276.8224  4591.3936 4594328.0000    -999.25     9.7971     9.7971     0.5553     0.9176   146.9308     0.0000    -999.25    55.0348     0.7351     0.7667  1276.8224     0.6042     5.2620    -999.25    -999.25     0.0301     0.0301 15073.2559     2.2133     0.7077     0.7077     0.5008  -197.8999     1.0000     1.0000     1.0000 -1189.4524    81.9180     0.0301    -999.25
  1276.8464  4562.3369 4562337.0000    -999.25     9.8202     9.8202     0.5629     0.9012   147.5815     0.0000    -999.25    55.1165     0.7293     0.7611  1276.8464     0.6017     5.2439    -999.25    -999.25     0.0308     0.0308 14968.2979     2.2090     0.7051     0.7051     0.4973  -197.9000     1.0000     1.0000     1.0000 -1189.4764    81.5045     0.0308    -999.25
  1276.9748  4453.1558 4457565.0000    -999.25     9.9438     9.9438     0.5965     0.8133   149.6377     0.0000    -999.25    55.5534     0.6982     0.7311  1276.9749     0.5884     5.1436    -999.25    -999.25     0.0345     0.0345 14624.5576     2.1862     0.6916     0.6916     0.4783  -197.9058     1.0000     1.0000     1.0000 -1189.6047    79.2920     0.0345    -999.25
  1276.9988  4437.9814 4437981.5000    -999.25     9.9389     9.9389     0.6028     0.8102   150.0220     0.0000    -999.25    55.6317     0.6969     0.7293  1276.9988     0.5861     5.1248    -999.25    -999.25     0.0349     0.0349 14560.3076     2.1844     0.6920     0.6920     0.4789  -197.9069     1.0000     1.0000     1.0000 -1189.6288    79.0369     0.0349    -999.25
  1277.1272  4415.6694 4418723.5000    -999.25     9.9132     9.9132     0.6646     0.7941   150.0956     0.0000    -999.25    56.0508     0.6901     0.7193  1277.1272     0.5740     5.0533    -999.25    -999.25     0.0372     0.0372 14497.1250     2.1744     0.6944     0.6944     0.4821  -197.9096     1.0000     1.0000     1.0000 -1189.7572    77.6720     0.0372    -999.25
  1277.1512  4415.1240 4415124.0000    -999.25     9.8775     9.8775     0.6762     0.7948   150.1093     0.0000    -999.25    56.1400     0.6910     0.7190  1277.1512     0.5726     5.0399    -999.25    -999.25     0.0372     0.0372 14485.3154     2.1744     0.6961     0.6961     0.4846  -197.9101     1.0000     1.0000     1.0000 -1189.7811    77.6748     0.0372    -999.25
  1277.2796  4439.2930 4441843.5000    -999.25     9.6867     9.6867     0.7470     0.7989   149.2666     0.0000    -999.25    56.6174     0.6961     0.7172  1277.2795     0.5650     5.0015    -999.25    -999.25     0.0372     0.0372 14572.9785     2.1740     0.7053     0.7053     0.4975  -197.9184     1.0000     1.0000     1.0000 -1189.9095    77.6900     0.0372    -999.25
  1277.3036  4446.8379 4446838.0000    -999.25     9.6778     9.6778     0.7602     0.7997   149.1091     0.0000    -999.25    56.6402     0.6981     0.7182  1277.3036     0.5660     4.9943    -999.25    -999.25     0.0373     0.0373 14589.3643     2.1754     0.7074     0.7074     0.5005  -197.9200     1.0000     1.0000     1.0000 -1189.9336    77.6242     0.0373    -999.25
  1277.4320  4498.3027 4499509.0000    -999.25     9.6306     9.6306     0.7608     0.8038   147.9095     0.0000    -999.25    56.7623     0.7088     0.7232  1277.4320     0.5716     4.9709    -999.25    -999.25     0.0379     0.0379 14762.1689     2.1829     0.7187     0.7187     0.5165  -197.9261     1.0000     1.0000     1.0000 -1190.0620    77.2720     0.0379    -999.25
  1277.4560  4509.3540 4509354.0000    -999.25     9.6278     9.6278     0.7609     0.8073   147.6853     0.0000    -999.25    56.6889     0.7109     0.7250  1277.4559     0.5700     4.9665    -999.25    -999.25     0.0381     0.0381 14794.4688     2.1849     0.7210     0.7210     0.5198  -197.9273     1.0000     1.0000     1.0000 -1190.0859    77.1479     0.0381    -999.25
  1277.5844  4575.1357 4576654.0000    -999.25     9.6128     9.6128     0.7805     0.8263   146.2910     0.0000    -999.25    56.2965     0.7218     0.7341  1277.5844     0.5616     4.9432    -999.25    -999.25     0.0392     0.0392 15015.2695     2.1959     0.7333     0.7333     0.5378  -197.9331     1.0000     1.0000     1.0000 -1190.2144    76.4840     0.0392    -999.25
  1277.6084  4589.2334 4589233.5000    -999.25     9.6194     9.6194     0.7842     0.8298   146.0304     0.0000    -999.25    56.1567     0.7242     0.7369  1277.6084     0.5619     4.9388    -999.25    -999.25     0.0392     0.0392 15056.5410     2.1987     0.7366     0.7366     0.5426  -197.9342     1.0000     1.0000     1.0000 -1190.2384    76.4449     0.0392    -999.25
  1277.7368  4676.7832 4677338.0000    -999.25     9.6550     9.6550     0.7834     0.8483   144.2878     0.0000    -999.25    55.4087     0.7369     0.7521  1277.7368     0.5635     4.9234    -999.25    -999.25     0.0395     0.0395 15345.5957     2.2139     0.7539     0.7539     0.5684  -197.9450     1.0000     1.0000     1.0000 -1190.3668    76.2360     0.0395    -999.25
  1277.7608  4693.8057 4693806.0000    -999.25     9.6652     9.6652     0.7833     0.8535   143.9621     0.0000    -999.25    55.2646     0.7404     0.7562  1277.7607     0.5630     4.9205    -999.25    -999.25     0.0396     0.0396 15399.6250     2.2170     0.7587     0.7587     0.5757  -197.9470     1.0000     1.0000     1.0000 -1190.3907    75.9947     0.0396    -999.25
  1277.8892  4791.4146 4790383.0000    -999.25     9.7199     9.7199     0.7735     0.8812   142.0648     0.0000    -999.25    54.4939     0.7594     0.7785  1277.8892     0.5601     4.9192    -999.25    -999.25     0.0405     0.0405 15716.4805     2.2332     0.7842     0.7842     0.6149  -197.9580     1.0000     1.0000     1.0000 -1190.5192    74.7040     0.0405    -999.25
  1277.9132  4808.4351 4808435.0000    -999.25     9.7246     9.7246     0.7717     0.8919   141.7102     0.0000    -999.25    54.3258     0.7648     0.7837  1277.9132     0.5576     4.9190    -999.25    -999.25     0.0405     0.0405 15775.7061     2.2356     0.7884     0.7884     0.6217  -197.9600     1.0000     1.0000     1.0000 -1190.5432    74.7397     0.0405    -999.25
  1278.0416  4893.0151 4890374.0000    -999.25     9.7495     9.7495     0.7630     0.9495   140.0400     0.0000    -999.25    53.4264     0.7943     0.8112  1278.0416     0.5442     4.9410    -999.25    -999.25     0.0401     0.0401 16044.5342     2.2481     0.8110     0.8110     0.6578  -197.9528     1.0000     1.0000     1.0000 -1190.6716    74.9310     0.0401    -999.25
  1278.0656  4905.6895 4905689.5000    -999.25     9.7434     9.7434     0.7614     0.9640   139.7278     0.0000    -999.25    53.2843     0.7982     0.8145  1278.0656     0.5463     4.9451    -999.25    -999.25     0.0398     0.0398 16094.7822     2.2489     0.8103     0.8103     0.6566  -197.9515     1.0000     1.0000     1.0000 -1190.6956    75.2390     0.0398    -999.25
  1278.1940  4937.5654 4932450.5000    -999.25     9.7110     9.7110     0.7269     1.0419   139.0894     0.0000    -999.25    52.5239     0.8191     0.8323  1278.1940     0.5575     4.9671    -999.25    -999.25     0.0384     0.0384 16182.5811     2.2532     0.8065     0.8065     0.6504  -197.9466     1.0000     1.0000     1.0000 -1190.8240    76.8870     0.0384    -999.25
  1278.2180  4937.4526 4937452.5000    -999.25     9.7022     9.7022     0.7205     1.0499   138.9701     0.0000    -999.25    52.5236     0.8163     0.8305  1278.2180     0.5593     4.9712    -999.25    -999.25     0.0386     0.0386 16198.9922     2.2512     0.8004     0.8004     0.6409  -197.9457     1.0000     1.0000     1.0000 -1190.8480    76.7829     0.0386    -999.25
  1278.3464  4867.6934 4864674.5000    -999.25     9.6553     9.6553     0.6695     1.0924   140.2970     0.0000    -999.25    52.5216     0.8012     0.8206  1278.3464     0.5693     4.9860    -999.25    -999.25     0.0396     0.0396 15960.2188     2.2406     0.7680     0.7680     0.5898  -197.9368     1.0000     1.0000     1.0000 -1190.9764    76.2260     0.0396    -999.25
  1278.3704  4851.0713 4851071.0000    -999.25     9.6539     9.6539     0.6600     1.0799   140.5450     0.0000    -999.25    52.5184     0.7938     0.8146  1278.3704     0.5672     4.9888    -999.25    -999.25     0.0401     0.0401 15915.5879     2.2369     0.7614     0.7614     0.5800  -197.9351     1.0000     1.0000     1.0000 -1191.0004    75.9166     0.0401    -999.25
