~Version ---------------------------------------------------
VERS. 2.0 : CWLS log ASCII Standard -VERSION 2.0
WRAP.  NO : 
~Well ------------------------------------------------------
STRT.m                                                   1250.0 : 
STOP.m                                                1661.9372 : 
STEP.m                                                   0.1524 : 
NULL.                                                   -999.25 : 
COMP.                                                           : COMPANY
WELL.                                                    Well-7 : WELL
FLD .                                                           : FIELD
LOC .                                                           : LOCATION
SRVC.                                                           : SERVICE COMPANY
DATE. 2021-01-20 14:34:01   : Log Export Date {yyyy-MM-dd HH:mm : ss}
PROV.                                                           : PROVINCE
UWI .                                                    Well-7 : UNIQUE WELL ID
API .                                                           : API NUMBER
~Curve Information -----------------------------------------
DEPTH             .m        : DEPTH
ACOUSTICIMPEDANCE1.kPa.s/m  : ACOUSTICIMPEDANCE1
AI                .kPa.s/m  : AI
AVG_PIGN          .m3/m3    : AVG_PIGN
CALI              .in       : CALI
CALI[DERIVED]1    .in       : CALI[DERIVED]1
DEVI              .deg      : DEVI
DFL               .ohm.m    : DFL
DT                .us/ft    : DT
FACIES            ._        : FACIES
FLD1              ._        : FLD1
GR                .gAPI     : GR
HDRS              .ohm.m    : HDRS
HMRS              .ohm.m    : HMRS
DEPTH_1           .m        : DEPTH_1
NPHI              .m3/m3    : NPHI
PEF               .b/e      : PEF
PERF_INT          ._        : PERF_INT
PERMEABILITY      .mD       : PERMEABILITY
PIGN              .m3/m3    : PIGN
PIGN_MODELLING    .m3/m3    : PIGN_MODELLING
PIMP              .kPa.s/m  : PIMP
RHOB              .g/cm3    : RHOB
LLD               .ohm.m    : LLD
RT_MODELLING      .ohm.m    : RT_MODELLING
RT_POWER          .ohm.m    : RT_POWER
SP                .mV       : SP
SUWI              ._        : SUWI
SUWI_MODELLING    ._        : SUWI_MODELLING
SXWI              ._        : SXWI
TDVSS             .m        : TDVSS
VCL               .%        : VCL
WATER_VOL         ._        : WATER_VOL
ZLT               ._        : ZLT
~Params ----------------------------------------------------
~Other -----------------------------------------------------
~ASCII -----------------------------------------------------
# ...
  1660.7180  5951.4028 5951906.0000    -999.25     8.7460     8.7460     1.4747     2.5601   125.0000     0.0000    -999.25    65.4220     1.8016     1.8705  1660.7180     0.5904     5.5583    -999.25    -999.25     0.0392     0.0392 19527.2500     2.4407     1.8432     1.8432     3.3973  -197.9355     1.0000     1.0000     1.0000 -1573.3480    76.4830     0.0392    -999.25
  1660.7421  5946.9565 5946957.0000    -999.25     8.7456     8.7456     1.4976     2.5916   125.0000     0.0000    -999.25    65.4220     1.8110     1.8764  1660.7421     0.5890     5.5279    -999.25    -999.25     0.0384     0.0384 19511.0137     2.4389     1.8393     1.8393     3.3830  -197.9359     1.0000     1.0000     1.0000 -1573.3721    76.9419     0.0384    -999.25
  1660.8704  5923.2881 5927370.5000    -999.25     8.7436     8.7436     1.4742     2.7589   125.0000     0.0000    -999.25    65.4220     1.8611     1.9075  1660.8704     0.5819     5.4094    -999.25    -999.25     0.0344     0.0344 19446.7539     2.4292     1.8184     1.8184     3.3067  -197.9338     1.0000     1.0000     1.0000 -1573.5004    79.3850     0.0344    -999.25
  1660.8944  5923.7065 5923706.5000    -999.25     8.7427     8.7427     1.4698     2.7533   125.0000     0.0000    -999.25    65.4220     1.8515     1.8967  1660.8944     0.5876     5.3872    -999.25    -999.25     0.0332     0.0332 19434.7324     2.4293     1.8024     1.8024     3.2499  -197.9334     1.0000     1.0000     1.0000 -1573.5244    80.1085     0.0332    -999.25
  1661.0228  5925.9458 5928803.0000    -999.25     8.7379     8.7379     1.5420     2.7230   125.0000     0.0000    -999.25    65.4220     1.7997     1.8388  1661.0228     0.6181     5.3619    -999.25    -999.25     0.0267     0.0267 19451.4531     2.4303     1.7164     1.7164     2.9460  -197.9111     1.0000     1.0000     1.0000 -1573.6528    83.9790     0.0267    -999.25
  1661.0469  5929.7598 5929759.5000    -999.25     8.7356     8.7356     1.5556     2.6730   125.0000     0.0000    -999.25    65.4220     1.7813     1.8207  1661.0469     0.6207     5.3571    -999.25    -999.25     0.0260     0.0260 19454.5918     2.4318     1.7001     1.7001     2.8919  -197.9069     1.0000     1.0000     1.0000 -1573.6769    84.3849     0.0260    -999.25
  1661.1752  5950.0610 5950342.5000    -999.25     8.7236     8.7236     1.5545     2.4067   125.0000     0.0000    -999.25    65.4220     1.6838     1.7244  1661.1752     0.6343     5.4131    -999.25    -999.25     0.0224     0.0224 19522.1211     2.4401     1.6136     1.6136     2.6037  -197.9011     1.0000     1.0000     1.0000 -1573.8052    86.5460     0.0224    -999.25
  1661.1992  5954.1929 5954193.0000    -999.25     8.7233     8.7233     1.5543     2.3586   125.0000     0.0000    -999.25    65.4220     1.6686     1.7104  1661.1992     0.6358     5.4236    -999.25    -999.25     0.0219     0.0219 19534.7539     2.4418     1.6045     1.6045     2.5749  -197.9000     1.0000     1.0000     1.0000 -1573.8292    86.8680     0.0219    -999.25
  1661.3276  5976.2988 5976198.5000    -999.25     8.7219     8.7219     1.4902     2.1010   125.0000     0.0000    -999.25    65.4220     1.5876     1.6358  1661.3276     0.6443     5.5699    -999.25    -999.25     0.0190     0.0190 19606.9512     2.4509     1.5558     1.5558     2.4205  -197.9000     1.0000     1.0000     1.0000 -1573.9576    88.5910     0.0190    -999.25
  1661.3516  5980.3115 5980311.5000    -999.25     8.7222     8.7222     1.4782     2.0732   125.0000     0.0000    -999.25    65.4220     1.5808     1.6304  1661.3516     0.6459     5.5973    -999.25    -999.25     0.0192     0.0192 19620.4453     2.4526     1.5550     1.5550     2.4181  -197.9000     1.0000     1.0000     1.0000 -1573.9816    88.5049     0.0192    -999.25
  1661.4800  6001.7808 5998005.0000    -999.25     8.7237     8.7237     1.4585     1.9245   125.0000     0.0000    -999.25    65.4220     1.5446     1.6017  1661.4800     0.6550     5.7683    -999.25    -999.25     0.0199     0.0199 19678.4941     2.4614     1.5510     1.5510     2.4056  -197.9173     1.0000     1.0000     1.0000 -1574.1100    88.0440     0.0199    -999.25
  1661.5040  6001.3120 6001312.0000    -999.25     8.7234     8.7234     1.4548     1.9238   125.0000     0.0000    -999.25    65.4220     1.5462     1.6057  1661.5040     0.6529     5.8003    -999.25    -999.25     0.0207     0.0207 19689.3438     2.4612     1.5559     1.5559     2.4210  -197.9205     1.0000     1.0000     1.0000 -1574.1340    87.5986     0.0207    -999.25
  1661.6324  5998.8052 5997770.0000    -999.25     8.7221     8.7221     1.3424     1.9201   125.0000     0.0000    -999.25    65.4220     1.5545     1.6276  1661.6324     0.6415     5.9508    -999.25    -999.25     0.0246     0.0246 19677.7227     2.4601     1.5821     1.5821     2.5031  -197.9406     1.0000     1.0000     1.0000 -1574.2625    85.2160     0.0246    -999.25
  1661.6564  5997.1079 5997108.0000    -999.25     8.7221     8.7221     1.3214     1.9334   125.0000     0.0000    -999.25    65.4220     1.5603     1.6370  1661.6564     0.6385     5.9789    -999.25    -999.25     0.0248     0.0248 19675.5508     2.4594     1.5899     1.5899     2.5281  -197.9443     1.0000     1.0000     1.0000 -1574.2864    85.1928     0.0248    -999.25
  1661.7848  5988.0273 5988897.5000    -999.25     8.7221     8.7221     1.2092     2.0049   125.0000     0.0000    -999.25    65.4220     1.5918     1.6875  1661.7848     0.6224     6.0855    -999.25    -999.25     0.0256     0.0256 19648.6152     2.4557     1.6315     1.6315     2.6620  -197.9466     1.0000     1.0000     1.0000 -1574.4148    85.0690     0.0256    -999.25
  1661.8088  5987.3628 5987363.0000    -999.25     8.7214     8.7214     1.1882     2.0260   125.0000     0.0000    -999.25    65.4220     1.6003     1.6995  1661.8088     0.6235     6.1054    -999.25    -999.25    -999.25    -999.25 19643.5801     2.4554    -999.25    -999.25    -999.25  -197.9470    -999.25    -999.25    -999.25 -1574.4388    -999.25    -999.25    -999.25
  1661.9372  5983.8091    -999.25    -999.25     8.7175     8.7175     1.1587     2.1389   125.0000    -999.25    -999.25    65.4220     1.6460     1.7641  1661.9371     0.6293     6.1538    -999.25    -999.25    -999.25    -999.25    -999.25     2.4540    -999.25    -999.25    -999.25  -197.9434    -999.25    -999.25    -999.25 -1574.5671    -999.25    -999.25    -999.25
