~Version ---------------------------------------------------
VERS. 2.0 : CWLS log ASCII Standard -VERSION 2.0
WRAP.  NO : 
~Well ------------------------------------------------------
STRT.m                                                1333.6522 : 
STOP.m                                                1778.5078 : 
STEP.m                                                   0.1524 : 
NULL.                                                   -999.25 : 
COMP.                                                           : COMPANY
WELL.                                                   Well-15 : WELL
FLD .                                                           : FIELD
LOC .                                                           : LOCATION
SRVC.                                                           : SERVICE COMPANY
DATE. 2021-01-20 14:34:07   : Log Export Date {yyyy-MM-dd HH:mm : ss}
PROV.                                                           : PROVINCE
UWI .                                                   Well-15 : UNIQUE WELL ID
API .                                                           : API NUMBER
~Curve Information -----------------------------------------
DEPTH             .m        : DEPTH
ACOUSTICIMPEDANCE1.kPa.s/m  : ACOUSTICIMPEDANCE1
AI                .kPa.s/m  : AI
BS                .in       : BS
CALI              .in       : CALI
CALI[DERIVED]1    .in       : CALI[DERIVED]1
DRES              .ohm.m    : DRES
DT                .us/ft    : DT
DT2               .us/ft    : DT2
DT4P              .us/ft    : DT4P
FACIES            ._        : FACIES
FLD1              ._        : FLD1
GR                .gAPI     : GR
GR_EDTC           .gAPI     : GR_EDTC
LLD               .ohm.m    : LLD
LLS               .ohm.m    : LLS
M2R2              .ohm.m    : M2R2
LLS_1             .ohm.m    : LLS_1
LLD_1             .ohm.m    : LLD_1
DEPTH_1           .m        : DEPTH_1
MSFL              .ohm.m    : MSFL
NPHI              .m3/m3    : NPHI
PERF_INT          ._        : PERF_INT
PIMP              .kPa.s/m  : PIMP
PR                ._        : PR
RHOB              .g/cm3    : RHOB
RT_MODELLING      .ohm.m    : RT_MODELLING
RT_POWER          .ohm.m    : RT_POWER
SP                .mV       : SP
TDVSS             .m        : TDVSS
TENS              .t        : TENS
VPVS              ._        : VPVS
ZLT               ._        : ZLT
~Params ----------------------------------------------------
~Other -----------------------------------------------------
~ASCII -----------------------------------------------------
# ...
  1608.7342 11241.4180 11240933.0000     8.5000     9.7370     9.7370    10.0689    84.3056   157.1896    84.3056     0.0000    -999.25    41.9937    83.1603    10.0689     7.1666    -999.25    -999.25    -999.25  1608.7341     6.7670     0.3438    -999.25 36879.7031     0.2981     3.1093    10.0689   101.3828   -75.4724 -1334.4868  2003.0289     1.8645    13.0000
  1608.8866 10122.8789 10122824.0000     8.5000    10.0298    10.0298     9.7863    88.9721   165.1269    88.9721     0.0000    -999.25    43.7026    94.1512     9.7863     6.9719    -999.25    -999.25    -999.25  1608.8866     4.5107     0.3371    -999.25 33211.3672     0.2955     2.9549     9.7863    95.7717   -75.4369 -1334.5386  1970.0433     1.8559    13.0000
  1609.0390  9193.2490 9193379.0000     8.5000    10.2816    10.2816     9.3647    91.8785   173.2804    91.8785     0.0000    -999.25    47.9795   100.9538     9.3647     6.6190    -999.25    -999.25    -999.25  1609.0389     2.7333     0.3435    -999.25 30162.0039     0.3045     2.7712     9.3647    87.6976   -75.5766 -1334.5903  2003.9553     1.8860    13.0000
  1609.1914  8606.2842 8606530.0000     8.5000    10.2844    10.2844     8.7851    92.3861   169.6137    92.3861     0.0000    -999.25    50.3719   109.9184     8.7851     6.2382    -999.25    -999.25    -999.25  1609.1914     2.3051     0.3721    -999.25 28236.6465     0.2891     2.6086     8.7851    77.1780   -75.5627 -1334.6421  1955.0643     1.8360    13.0000
  1609.3438  8127.8174 8128062.5000     8.5000    10.0928    10.0928     8.2902    93.8196   190.7980    93.8196     0.0000    -999.25    52.3812   107.1748     8.2902     5.8976    -999.25    -999.25    -999.25  1609.3438     2.3497     0.4054    -999.25 26666.8711     0.3405     2.5018     8.2902    68.7274   -75.4653 -1334.6938  1978.9685     2.0336    13.0000
  1609.4962  8221.2773 8221406.5000     8.5000    10.0278    10.0278     8.1084    90.8437   162.6744    90.8437     0.0000    -999.25    54.3615   114.3277     8.1084     5.7534    -999.25    -999.25    -999.25  1609.4962     2.7833     0.4287    -999.25 26973.1191     0.2734     2.4503     8.1084    65.7462   -75.4513 -1334.7456  1956.0302     1.7907    13.0000
  1609.6486  8667.8389 8667912.0000     8.5000    10.0097    10.0097     7.9584    85.3512   172.1474    85.3512     0.0000    -999.25    58.3456   126.1782     7.9584     5.6962    -999.25    -999.25    -999.25  1609.6486     3.4782     0.4337    -999.25 28438.0332     0.3370     2.4272     7.9584    63.3361   -75.4861 -1334.7974  1950.0079     2.0169    13.0000
  1609.8010  8530.1592 8530150.0000     8.5000     9.7434     9.7434     7.8536    86.1821   169.1400    86.1821     0.0000    -999.25    60.2513   136.1071     7.8536     5.6728    -999.25    -999.25    -999.25  1609.8009     3.9737     0.4309    -999.25 27986.0527     0.3247     2.4119     7.8536    61.6790   -75.5414 -1334.8491  1963.9816     1.9626    13.0000
  1609.9534  9119.0381 9119065.0000     8.5000     9.6607     9.6607     7.8256    80.0218   163.0023    80.0218     0.0000    -999.25    60.6259   140.6447     7.8256     5.6745    -999.25    -999.25    -999.25  1609.9534     3.7568     0.4294    -999.25 29918.1914     0.3413     2.3941     7.8256    61.2400   -75.7011 -1334.9008  1990.9646     2.0370    13.0000
  1610.1058  8953.4668 8953450.0000     8.5000     9.6754     9.6754     7.7424    80.6709   159.6561    80.6709     0.0000    -999.25    61.9013   131.5733     7.7424     5.6089    -999.25    -999.25    -999.25  1610.1057     3.6662     0.4270    -999.25 29374.8320     0.3286     2.3697     7.7424    59.9448   -75.9234 -1334.9524  2007.9777     1.9791    13.0000
  1610.2582  8735.1611 8735200.0000     8.5000     9.6469     9.6469     7.5363    81.6995   150.5054    81.6995     0.0000    -999.25    63.3642   131.1655     7.5363     5.4369    -999.25    -999.25    -999.25  1610.2582     2.9186     0.4277    -999.25 28658.7891     0.2911     2.3414     7.5363    56.7958   -76.1662 -1335.0040  1997.0144     1.8422    13.0000
  1610.4106  8430.9619 8431018.0000     8.5000     9.7230     9.7230     7.1796    83.8809   182.0519    83.8809     0.0000    -999.25    64.2564   126.1846     7.1796     5.1773    -999.25    -999.25    -999.25  1610.4105     2.0763     0.4370    -999.25 27660.8203     0.3652     2.3202     7.1796    51.5467   -76.4995 -1335.0557  2035.9489     2.1704    13.0000
  1610.5630  7462.6001 7462772.0000     8.5000     9.9685     9.9685     6.7413    94.2876   192.0347    94.2876     0.0000    -999.25    64.1854   127.0724     6.7413     4.8626    -999.25    -999.25    -999.25  1610.5630     1.8171     0.4588    -999.25 24484.1582     0.3411     2.3085     6.7413    45.4451   -76.8608 -1335.1073  1981.0721     2.0367    13.0000
  1610.7154  7345.7285 7345734.0000     8.5000    10.1954    10.1954     6.2860    95.6052   210.9768    95.6052     0.0000    -999.25    65.3166   126.1455     6.2861     4.5412    -999.25    -999.25    -999.25  1610.7153     1.5994     0.4797    -999.25 24100.1797     0.3708     2.3041     6.2861    39.5151   -77.1457 -1335.1589  2020.9475     2.2068    13.0000
  1610.8678  7289.9956 7290024.5000     8.5000    10.2781    10.2781     5.8668    96.1939   230.7655    96.1939     0.0000    -999.25    66.8991   124.6802     5.8668     4.2539    -999.25    -999.25    -999.25  1610.8678     1.5088     0.4766    -999.25 23917.4043     0.3949     2.3007     5.8668    34.4193   -77.3123 -1335.2106  1991.0394     2.3989    13.0000
  1611.0202  7264.7798 7264841.0000     8.5000    10.2224    10.2224     5.5884    96.6705   253.9323    96.6705     0.0000    -999.25    66.6497   121.2312     5.5884     4.0403    -999.25    -999.25    -999.25  1611.0201     1.4635     0.4648    -999.25 23834.7793     0.4153     2.3041     5.5884    31.2302   -77.3407 -1335.2621  2015.9672     2.6268    13.0000
  1611.1726  7362.4937 7362550.0000     8.5000    10.1336    10.1336     5.4329    96.1368   255.1606    96.1368     0.0000    -999.25    65.4847   120.0664     5.4329     3.9016    -999.25    -999.25    -999.25  1611.1726     1.6700     0.4694    -999.25 24155.3477     0.4173     2.3222     5.4329    29.5164   -77.1116 -1335.3137  2024.9882     2.6542    13.0000
  1611.3250  7832.9897 7833051.0000     8.5000    10.0114    10.0114     5.3774    91.5919   253.0122    91.5919     0.0000    -999.25    64.5035   125.3865     5.3774     3.8437    -999.25    -999.25    -999.25  1611.3250     2.3483     0.4886    -999.25 25698.9863     0.4246     2.3538     5.3774    28.9164   -76.9023 -1335.3654  1997.0367     2.7624    13.0000
  1611.4774  7914.5688 7914591.5000     8.5000     9.8406     9.8406     5.3857    92.1305   247.5956    92.1305     0.0000    -999.25    65.2882   129.3301     5.3857     3.8354    -999.25    -999.25    -999.25  1611.4773     3.3776     0.5002    -999.25 25966.5078     0.4196     2.3923     5.3857    29.0058   -76.9793 -1335.4170  2041.9409     2.6874    13.0000
  1611.6298  8440.6748 8440681.0000     8.5000     9.7028     9.7028     5.4753    87.9733   207.1531    87.9733     0.0000    -999.25    65.0278   132.2498     5.4753     3.8778    -999.25    -999.25    -999.25  1611.6298     3.2357     0.4881    -999.25 27692.5234     0.3899     2.4362     5.4753    29.9789   -77.0139 -1335.4686  2042.9987     2.3547    13.0000
  1611.7822  8619.2471 8619184.0000     8.5000     9.5846     9.5846     5.6537    87.5015   201.9931    87.5015     0.0000    -999.25    62.9850   129.9205     5.6537     3.9819    -999.25    -999.25    -999.25  1611.7821     3.1100     0.4651    -999.25 28278.1660     0.3845     2.4744     5.6537    31.9643   -76.8619 -1335.5203  2041.0027     2.3085    13.0000
  1611.9346  9204.4336 9204416.0000     8.5000     9.4582     9.4582     5.8903    82.7431   190.3855    82.7431     0.0000    -999.25    60.5686   127.3386     5.8903     4.1348    -999.25    -999.25    -999.25  1611.9346     3.1726     0.4438    -999.25 30198.2168     0.3836     2.4987     5.8903    34.6956   -76.6242 -1335.5719  2008.0433     2.3009    13.0000
