~Version ---------------------------------------------------
VERS. 2.0 : CWLS log ASCII Standard -VERSION 2.0
WRAP.  NO : 
~Well ------------------------------------------------------
STRT.m                                                1239.5456 : 
STOP.m                                                  1697.66 : 
STEP.m                                                   0.1524 : 
NULL.                                                   -999.25 : 
COMP.                                                           : COMPANY
WELL.                                                   Well-16 : WELL
FLD .                                                           : FIELD
LOC .                                                           : LOCATION
SRVC.                                                           : SERVICE COMPANY
DATE. 2021-01-20 14:34:07   : Log Export Date {yyyy-MM-dd HH:mm : ss}
PROV.                                                           : PROVINCE
UWI .                                                   Well-16 : UNIQUE WELL ID
API .                                                           : API NUMBER
~Curve Information -----------------------------------------
DEPTH             .m        : DEPTH
ACOUSTICIMPEDANCE1.kPa.s/m  : ACOUSTICIMPEDANCE1
AI                .kPa.s/m  : AI
AVG_PIGN          .m3/m3    : AVG_PIGN
BIT               .m        : BIT
CALI              .in       : CALI
CALI_1            .in       : CALI_1
NPHI              .m3/m3    : NPHI
DT                .us/ft    : DT
FACIES            ._        : FACIES
FLD1              ._        : FLD1
GR                .gAPI     : GR
M2R2              .ohm.m    : M2R2
LLS               .ohm.m    : LLS
LLD               .ohm.m    : LLD
DEPTH_1           .m        : DEPTH_1
NPHI_1            .m3/m3    : NPHI_1
PEF               .b/e      : PEF
PIGN_MODELLING    .m3/m3    : PIGN_MODELLING
PIMP              .kPa.s/m  : PIMP
RHOB              .g/cm3    : RHOB
RT_MODELLING      .ohm.m    : RT_MODELLING
RT_POWER          .ohm.m    : RT_POWER
SP                .mV       : SP
SUWI_MODELLING    ._        : SUWI_MODELLING
TDVSS             .m        : TDVSS
ZCOR              .g/cm3    : ZCOR
RHOB_1            .g/cm3    : RHOB_1
ZLT               ._        : ZLT
~Params ----------------------------------------------------
~Other -----------------------------------------------------
~ASCII -----------------------------------------------------
# ...
  1662.4556  8232.6523 8232652.5000    -999.25     0.2159     8.9353     9.2353     0.5142    97.0751     0.0000    -999.25    78.0225     3.3083     3.0818     3.0807  1662.4556     0.5142     5.5967     0.0000 27010.0156     2.6220     3.0807     9.4907   198.3228     1.0000 -1581.7356    -0.0469     2.6220    23.0000
  1662.6080  7959.0859 7959086.0000    -999.25     0.2159     8.9444     9.2444     0.4834    98.7497     0.0000    -999.25    77.8862     3.4127     3.1923     3.1942  1662.6080     0.4834     4.5149     0.0000 26112.4883     2.5786     3.1942    10.2029   198.1373     1.0000 -1581.8881    -0.0698     2.5786    23.0000
  1662.7604  7520.8833 7520883.0000    -999.25     0.2159     8.9507     9.2507     0.4694   100.9572     0.0000    -999.25    82.6074     3.0597     2.9022     2.9063  1662.7604     0.4694     4.1471     0.0000 24674.8145     2.4911     2.9063     8.4466   198.0404     1.0000 -1582.0404    -0.0336     2.4911    23.0000
  1662.9128  6876.6772 6876677.0000    -999.25     0.2159     8.9496     9.2496     0.4971   107.2856     0.0000    -999.25    88.8649     2.6021     2.5012     2.5059  1662.9128     0.4971     4.2600     0.0000 22561.2754     2.4205     2.5059     6.2795   198.0226     1.0000 -1582.1929     0.0042     2.4205    23.0000
  1663.0652  6358.6279 6358628.0000    -999.25     0.2159     8.9473     9.2473     0.5460   114.0706     0.0000    -999.25    92.9752     2.3240     2.2514     2.2564  1663.0652     0.5460     4.4750     0.0000 20861.6406     2.3797     2.2564     5.0913   198.1189     1.0000 -1582.3452     0.0200     2.3797    23.0000
  1663.2176  6143.3252 6143325.5000    -999.25     0.2159     8.9481     9.2481     0.5506   117.4482     0.0000    -999.25    94.3882     2.2215     2.1589     2.1642  1663.2177     0.5506     4.7437     0.0000 20155.2676     2.3672     2.1642     4.6838   198.2699     1.0000 -1582.4976     0.0271     2.3672    23.0000
  1663.3701  6184.5571 6184557.0000    -999.25     0.2159     8.9489     9.2489     0.5133   117.8776     0.0000    -999.25    92.6249     2.2819     2.2163     2.2222  1663.3701     0.5133     5.1809     0.0000 20290.5410     2.3918     2.2222     4.9382   198.3043     1.0000 -1582.6500     0.0371     2.3918    23.0000
  1663.5224  6488.6250 6488625.0000    -999.25     0.2159     8.9491     9.2491     0.5001   115.5573     0.0000    -999.25    87.2629     2.5341     2.4512     2.4583  1663.5225     0.5001     5.7509     0.0000 21288.1406     2.4600     2.4583     6.0432   198.1777     1.0000 -1582.8024     0.0391     2.4600    23.0000
  1663.6749  6928.9849 6928985.0000    -999.25     0.2159     8.9476     9.2476     0.5258   112.4934     0.0000    -999.25    80.2737     2.9654     2.8502     2.8587  1663.6749     0.5258     6.1591     0.0000 22732.8906     2.5573     2.8587     8.1722   198.0763     1.0000 -1582.9548     0.0272     2.5573    23.0000
  1663.8272  7408.1045 7408104.5000    -999.25     0.2159     8.9439     9.2439     0.5508   108.7645     0.0000    -999.25    74.8679     3.3589     3.2107     3.2194  1663.8273     0.5508     6.0512     0.0000 24304.8047     2.6435     3.2194    10.3645   198.1857     1.0000 -1583.1072     0.0100     2.6435    23.0000
  1663.9796  7734.0317 7734031.5000    -999.25     0.2159     8.9397     9.2397     0.5433   105.2805     0.0000    -999.25    72.4899     3.5005     3.3408     3.3470  1663.9796     0.5433     5.3860     0.0000 25374.1191     2.6714     3.3470    11.2024   198.4236     1.0000 -1583.2596    -0.0181     2.6714    23.0000
  1664.1320  7562.3647 7562365.0000    -999.25     0.2159     8.9362     9.2362     0.5213   105.7156     0.0000    -999.25    73.9937     3.3983     3.2470     3.2492  1664.1320     0.5213     4.7358     0.0000 24810.9082     2.6229     3.2492    10.5573   198.5501     1.0000 -1583.4120    -0.0434     2.6229    23.0000
  1664.2844  7240.7642 7240764.5000    -999.25     0.2159     8.9364     9.2364     0.5017   107.9358     0.0000    -999.25    80.7960     3.1272     2.9932     2.9916  1664.2844     0.5017     4.5872     0.0000 23755.7891     2.5641     2.9916     8.9497   198.4971     1.0000 -1583.5645    -0.0282     2.5641    23.0000
  1664.4368  6933.9810 6933981.0000    -999.25     0.2159     8.9405     9.2405     0.4836   110.2892     0.0000    -999.25    89.0393     2.8672     2.7424     2.7378  1664.4368     0.4836     4.8116     0.0000 22749.2812     2.5090     2.7378     7.4955   198.3997     1.0000 -1583.7168     0.0058     2.5090    23.0000
  1664.5892  6753.2896 6753289.5000    -999.25     0.2159     8.9433     9.2433     0.4819   113.1724     0.0000    -999.25    90.3500     2.7821     2.6495     2.6422  1664.5892     0.4819     5.2754     0.0000 22156.4609     2.5075     2.6422     6.9812   198.3949     1.0000 -1583.8693     0.0270     2.5075    23.0000
  1664.7416  7070.0464 7070046.5000    -999.25     0.2159     8.9422     9.2422     0.5023   111.1284     0.0000    -999.25    83.2809     2.9034     2.7423     2.7316  1664.7416     0.5023     5.9971     0.0000 23195.6914     2.5777     2.7316     7.4616   198.4807     1.0000 -1584.0216     0.0304     2.5777    23.0000
  1664.8940  7907.7017 7907702.0000    -999.25     0.2159     8.9419     9.2419     0.5049   103.1302     0.0000    -999.25    75.6328     3.2175     3.0035     2.9873  1664.8940     0.5049     6.3531     0.0000 25943.9043     2.6756     2.9873     8.9240   198.5864     1.0000 -1584.1741     0.0034     2.6756    23.0000
  1665.0464  8382.2656 8382266.0000    -999.25     0.2159     8.9427     9.2427     0.4813    98.0078     0.0000    -999.25    76.9671     3.3716     3.1257     3.1046  1665.0464     0.4813     5.5284     0.0000 27500.8711     2.6953     3.1046     9.6385   198.7052     1.0000 -1584.3264    -0.0474     2.6953    23.0000
  1665.1988  8068.3735 8068373.5000    -999.25     0.2159     8.9392     9.2392     0.4682    98.5303     0.0000    -999.25    90.2969     2.8982     2.7120     2.6936  1665.1989     0.4682     4.6892     0.0000 26471.0430     2.6082     2.6936     7.2555   198.9398     1.0000 -1584.4788    -0.0393     2.6082    23.0000
  1665.3513  7505.1450 7505145.0000    -999.25     0.2159     8.9333     9.2333     0.4644   102.7609     0.0000    -999.25   107.1971     2.2545     2.1405     2.1274  1665.3513     0.4644     4.8063     0.0000 24623.1797     2.5303     2.1274     4.5258   199.3263     1.0000 -1584.6312     0.0233     2.5303    23.0000
  1665.5036  7167.3228 7167322.5000    -999.25     0.2159     8.9326     9.2326     0.4505   108.5740     0.0000    -999.25   113.7209     2.0173     1.9263     1.9145  1665.5037     0.4505     5.6161     0.0000 23514.8379     2.5531     1.9145     3.6653   199.7346     1.0000 -1584.7836     0.0424     2.5531    23.0000
  1665.6561  7423.8716 7423871.5000    -999.25     0.2159     8.9342     9.2342     0.4510   109.3259     0.0000    -999.25   106.3776     2.1897     2.0822     2.0668  1665.6561     0.4510     6.6026     0.0000 24356.5332     2.6628     2.0668     4.2717   199.9755     1.0000 -1584.9360     0.0040     2.6628    23.0000
  1665.8084  8008.1621 8008162.0000    -999.25     0.2159     8.9318     9.2318     0.4738   104.9118     0.0000    -999.25    94.4315     2.6718     2.5123     2.4879  1665.8085     0.4738     6.8350     0.0000 26273.4980     2.7564     2.4879     6.1896   199.9656     1.0000 -1585.0884    -0.0287     2.7564    23.0000
  1665.9608  8302.4131 8302413.0000    -999.25     0.2159     8.9285     9.2285     0.4856   101.1642     0.0000    -999.25    87.0501     2.9755     2.7801     2.7483  1665.9608     0.4856     6.0885     0.0000 27238.8867     2.7556     2.7483     7.5532   199.8118     1.0000 -1585.2408    -0.0504     2.7556    23.0000
  1666.1132  8008.1753 8008175.0000    -999.25     0.2159     8.9306     9.2306     0.4654   101.6574     0.0000    -999.25    88.0838     2.7526     2.5901     2.5605  1666.1132     0.4654     5.4081     0.0000 26273.5410     2.6709     2.5605     6.5562   199.7292     1.0000 -1585.3932    -0.0633     2.6709    23.0000
