~Version ---------------------------------------------------
VERS. 2.0 : CWLS log ASCII Standard -VERSION 2.0
WRAP.  NO : 
~Well ------------------------------------------------------
STRT.m                                                1239.5456 : 
STOP.m                                                  1697.66 : 
STEP.m                                                   0.1524 : 
NULL.                                                   -999.25 : 
COMP.                                                           : COMPANY
WELL.                                                   Well-16 : WELL
FLD .                                                           : FIELD
LOC .                                                           : LOCATION
SRVC.                                                           : SERVICE COMPANY
DATE. 2021-01-20 14:34:07   : Log Export Date {yyyy-MM-dd HH:mm : ss}
PROV.                                                           : PROVINCE
UWI .                                                   Well-16 : UNIQUE WELL ID
API .                                                           : API NUMBER
~Curve Information -----------------------------------------
DEPTH             .m        : DEPTH
ACOUSTICIMPEDANCE1.kPa.s/m  : ACOUSTICIMPEDANCE1
AI                .kPa.s/m  : AI
AVG_PIGN          .m3/m3    : AVG_PIGN
BIT               .m        : BIT
CALI              .in       : CALI
CALI_1            .in       : CALI_1
NPHI              .m3/m3    : NPHI
DT                .us/ft    : DT
FACIES            ._        : FACIES
FLD1              ._        : FLD1
GR                .gAPI     : GR
M2R2              .ohm.m    : M2R2
LLS               .ohm.m    : LLS
LLD               .ohm.m    : LLD
DEPTH_1           .m        : DEPTH_1
NPHI_1            .m3/m3    : NPHI_1
PEF               .b/e      : PEF
PIGN_MODELLING    .m3/m3    : PIGN_MODELLING
PIMP              .kPa.s/m  : PIMP
RHOB              .g/cm3    : RHOB
RT_MODELLING      .ohm.m    : RT_MODELLING
RT_POWER          .ohm.m    : RT_POWER
SP                .mV       : SP
SUWI_MODELLING    ._        : SUWI_MODELLING
TDVSS             .m        : TDVSS
ZCOR              .g/cm3    : ZCOR
RHOB_1            .g/cm3    : RHOB_1
ZLT               ._        : ZLT
~Params ----------------------------------------------------
~Other -----------------------------------------------------
~ASCII -----------------------------------------------------
# ...
  1540.5356  6353.7935 6353793.5000    -999.25     0.2159     9.1287     9.4287     0.4552   114.1670     0.0000    -999.25   112.6624     1.7779     1.6803     1.6317  1540.5356     0.4552     7.5257     0.0955 20845.7793     2.3799     1.6317     2.6624   197.2758     1.1500 -1459.8157     0.2035     2.3799    14.0000
  1540.6880  6628.0171 6628017.0000    -999.25     0.2159     9.2072     9.5072     0.4676   110.8599     0.0000    -999.25   112.1582     1.6892     1.5989     1.5539  1540.6880     0.4676     7.9891     0.0927 21745.4629     2.4107     1.5539     2.4146   197.6956     1.1701 -1459.9680     0.1753     2.4107    14.0000
  1540.8404  7213.9565 7213956.5000    -999.25     0.2159     9.1798     9.4798     0.4775   104.8258     0.0000    -999.25   108.2645     1.7050     1.6086     1.5631  1540.8405     0.4775     8.2952     0.0931 23667.8359     2.4810     1.5631     2.4433   197.8636     1.1675 -1460.1204     0.0983     2.4810    14.0000
  1540.9929  8051.8345 8051834.5000    -999.25     0.2159     9.0962     9.3962     0.4836    98.0021     0.0000    -999.25   100.8666     1.8222     1.7085     1.6589  1540.9929     0.4836     8.2003     0.0960 26416.7793     2.5889     1.6589     2.7519   197.7085     1.1464 -1460.2728     0.0606     2.5889    14.0000
  1541.1452  8646.4609 8646461.0000    -999.25     0.2159     9.0715     9.3715     0.4778    94.5020     0.0000    -999.25    94.0553     1.9437     1.8166     1.7644  1541.1453     0.4778     7.7556     0.0993 28367.6543     2.6808     1.7644     3.1131   197.3256     1.1234 -1460.4252     0.0613     2.6808    14.0000
  1541.2977  8666.6934 8666694.0000    -999.25     0.2159     9.0433     9.3433     0.4497    94.5557     0.0000    -999.25    93.0828     1.9804     1.8580     1.8091  1541.2977     0.4497     6.7533     0.1015 28434.0332     2.6886     1.8091     3.2728   196.8483     1.1082 -1460.5776     0.0304     2.6886    14.0000
  1541.4500  7774.9292 7774929.0000    -999.25     0.2159     8.9561     9.2561     0.4331   102.0021     0.0000    -999.25    97.6199     2.0086     1.9009     1.8573  1541.4501     0.4331     5.6274     0.1040 25508.2969     2.6019     1.8573     3.4496   196.2647     1.0914 -1460.7300     0.0170     2.6019    14.0000
  1541.6024  6844.9995 6844999.5000    -999.25     0.2159     8.8792     9.1792     0.4495   110.5785     0.0000    -999.25   100.2579     2.1352     2.0410     2.0014  1541.6024     0.4495     5.1231     0.1090 22457.3477     2.4833     2.0014     4.0056   195.4603     1.0576 -1460.8824     0.0529     2.4833    14.0000
  1541.7548  6519.0576 6519057.5000    -999.25     0.2159     8.8513     9.1513     0.4806   112.9653     0.0000    -999.25    95.2882     2.4046     2.3230     2.2868  1541.7548     0.4806     5.1296     0.1167 21387.9844     2.4161     2.2868     5.2295   194.3917     1.0068 -1461.0348     0.0601     2.4161    14.0000
  1541.9072  6629.6826 6629682.5000    -999.25     0.2159     8.8421     9.1421     0.4811   111.2964     0.0000    -999.25    85.5276     2.7047     2.6481     2.6228  1541.9072     0.4811     5.2800     0.1245 21750.9277     2.4208     2.6228     6.8791   193.1536     0.9565 -1461.1873     0.0320     2.4208    14.0000
  1542.0596  7095.9805 7095980.5000    -999.25     0.2159     8.8441     9.1441     0.4514   105.9200     0.0000    -999.25    77.8121     2.8694     2.8529     2.8495  1542.0596     0.4514     5.4125     0.1301 23280.7754     2.4659     2.8495     8.1196   191.8941     0.9213 -1461.3396     0.0160     2.4659    14.0000
  1542.2120  7650.5708 7650571.0000    -999.25     0.2159     8.8471     9.1472     0.4323   100.3733     0.0000    -999.25    73.5300     2.9509     2.9748     2.9975  1542.2120     0.4323     5.5537     0.1340 25100.2969     2.5194     2.9975     8.9850   190.7015     0.8969 -1461.4921     0.0176     2.5194    14.0000
  1542.3644  8028.2769 8028277.0000    -999.25     0.2159     8.8498     9.1498     0.4555    97.5949     0.0000    -999.25    69.2078     3.0752     3.1398     3.1931  1542.3644     0.4555     5.8007     0.1381 26339.4902     2.5706     3.1931    10.1959   189.5968     0.8722 -1461.6444     0.0209     2.5706    14.0000
  1542.5168  8225.7402 8225740.0000    -999.25     0.2159     8.8510     9.1510     0.4939    96.7602     0.0000    -999.25    63.8026     3.2483     3.3543     3.4438  1542.5168     0.4939     6.0661     0.1425 26987.3359     2.6113     3.4438    11.8598   188.6192     0.8457 -1461.7969     0.0070     2.6113    14.0000
  1542.6693  8214.5361 8214536.5000    -999.25     0.2159     8.8493     9.1493     0.5025    97.5749     0.0000    -999.25    60.4722     3.3938     3.5354     3.6650  1542.6693     0.5025     6.2305     0.1465 26950.5781     2.6297     3.6650    13.4322   187.8319     0.8221 -1461.9492    -0.0088     2.6297    14.0000
  1542.8216  8170.5464 8170546.0000    -999.25     0.2159     8.8459     9.1459     0.4952    98.3763     0.0000    -999.25    61.0690     3.5220     3.6885     3.8571  1542.8217     0.4952     6.3113     0.0740 26806.2539     2.6371     3.8571    14.8772   187.3475     0.9060 -1462.1016     0.0036     2.6371    14.0000
  1542.9741  8225.3867 8225387.0000    -999.25     0.2159     8.8448     9.1448     0.5003    97.7908     0.0000    -999.25    61.9395     3.7703     3.9615     4.1790  1542.9741     0.5003     5.8768     0.0000 26986.1777     2.6390     4.1790    17.4640   187.2143     1.0000 -1462.2540     0.0121     2.6390    14.0000
  1543.1264  7794.0654 7794065.5000    -999.25     0.2159     8.8460     9.1460     0.5085    99.2723     0.0000    -999.25    60.1049     4.0999     4.3074     4.5762  1543.1265     0.5085     4.1116     0.0000 25571.0820     2.5385     4.5762    20.9416   187.3332     1.0000 -1462.4064    -0.0277     2.5385    14.0000
  1543.2789  6580.5576 6580557.5000    -999.25     0.2159     8.8470     9.1470     0.5137   103.6788     0.0000    -999.25    58.4704     4.2481     4.4385     4.7382  1543.2789     0.5137     2.0801     0.0000 21589.7559     2.2384     4.7382    22.4505   187.6171     1.0000 -1462.5588    -0.1121     2.2384    14.0000
  1543.4312  5072.5591 5072559.0000    -999.25     0.2159     8.8459     9.1459     0.5385   112.0341     0.0000    -999.25    57.6613     4.5543     4.7191     5.0265  1543.4313     0.5385     1.3556     0.0000 16642.2539     1.8645     5.0265    25.2657   188.0957     1.0000 -1462.7112    -0.1521     1.8645    15.0000
  1543.5836  3756.2202 3756220.2500    -999.25     0.2159     8.8420     9.1420     0.6024   124.6718     0.0000    -999.25    51.3751     5.9969     6.2073     6.6775  1543.5836     0.6024     1.6278     0.0000 12323.5576     1.5364     6.6775    44.5890   188.6808     1.0000 -1462.8636    -0.1112     1.5364    15.0000
  1543.7360  2949.1558 2949155.7500    -999.25     0.2159     8.8345     9.1346     0.6642   135.2666     3.0000    -999.25    38.5901    10.1003    10.4369    11.5430  1543.7360     0.6642     2.2079     0.0000  9675.7080     1.3088    11.5430   133.2409   189.1763     1.0000 -1463.0160    -0.0607     1.3088    15.0000
  1543.8884  2576.7334 2576733.2500    -999.25     0.2159     8.8288     9.1288     0.6534   141.1901     3.0000    -999.25    27.9788    13.2735    13.4721    15.0845  1543.8884     0.6534     2.8273     0.0000  8453.8496     1.1936    15.0845   227.5421   189.6091     1.0000 -1463.1685    -0.0404     1.1936    15.0000
  1544.0408  2517.9685 2517968.5000    -999.25     0.2159     8.8274     9.1274     0.5932   143.1779     3.0000    -999.25    24.7200    11.0772    11.4054    12.5457  1544.0408     0.5932     3.4388     0.0000  8261.0518     1.1828    12.5457   157.3946   190.1753     1.0000 -1463.3208    -0.0380     1.1828    15.0000
  1544.1932  2684.6211 2684621.0000    -999.25     0.2159     8.8269     9.1269     0.5658   142.1806     3.0000    -999.25    27.1460     6.3113     6.5185     6.8790  1544.1932     0.5658     4.0307     0.0000  8807.8125     1.2523     6.8790    47.3206   190.9497     1.0000 -1463.4733    -0.0371     1.2523    15.0000
