~Version ---------------------------------------------------
VERS. 2.0 : CWLS log ASCII Standard -VERSION 2.0
WRAP.  NO : 
~Well ------------------------------------------------------
STRT.m                                                   1250.0 : 
STOP.m                                                1661.9372 : 
STEP.m                                                   0.1524 : 
NULL.                                                   -999.25 : 
COMP.                                                           : COMPANY
WELL.                                                    Well-7 : WELL
FLD .                                                           : FIELD
LOC .                                                           : LOCATION
SRVC.                                                           : SERVICE COMPANY
DATE. 2021-01-20 14:34:01   : Log Export Date {yyyy-MM-dd HH:mm : ss}
PROV.                                                           : PROVINCE
UWI .                                                    Well-7 : UNIQUE WELL ID
API .                                                           : API NUMBER
~Curve Information -----------------------------------------
DEPTH             .m        : DEPTH
ACOUSTICIMPEDANCE1.kPa.s/m  : ACOUSTICIMPEDANCE1
AI                .kPa.s/m  : AI
AVG_PIGN          .m3/m3    : AVG_PIGN
CALI              .in       : CALI
CALI[DERIVED]1    .in       : CALI[DERIVED]1
DEVI              .deg      : DEVI
DFL               .ohm.m    : DFL
DT                .us/ft    : DT
FACIES            ._        : FACIES
FLD1              ._        : FLD1
GR                .gAPI     : GR
HDRS              .ohm.m    : HDRS
HMRS              .ohm.m    : HMRS
DEPTH_1           .m        : DEPTH_1
NPHI              .m3/m3    : NPHI
PEF               .b/e      : PEF
PERF_INT          ._        : PERF_INT
PERMEABILITY      .mD       : PERMEABILITY
PIGN              .m3/m3    : PIGN
PIGN_MODELLING    .m3/m3    : PIGN_MODELLING
PIMP              .kPa.s/m  : PIMP
RHOB              .g/cm3    : RHOB
LLD               .ohm.m    : LLD
RT_MODELLING      .ohm.m    : RT_MODELLING
RT_POWER          .ohm.m    : RT_POWER
SP                .mV       : SP
SUWI              ._        : SUWI
SUWI_MODELLING    ._        : SUWI_MODELLING
SXWI              ._        : SXWI
TDVSS             .m        : TDVSS
VCL               .%        : VCL
WATER_VOL         ._        : WATER_VOL
ZLT               ._        : ZLT
~Params ----------------------------------------------------
~Other -----------------------------------------------------
~ASCII -----------------------------------------------------
# ...
  1414.2872  7854.2500 7835769.5000    -999.25     9.0812     9.0812     0.1401     5.2340   106.2583     0.0000    -999.25    75.3790     2.9128     3.0802  1414.2872     0.4557     5.8766    -999.25     0.0102     0.0150     0.0150 25707.9062     2.7381     2.7100     2.7100     7.3443  -197.9285     1.0000     1.0000     1.0000 -1326.9172    58.9070     0.0150     2.0000
  1414.3112  7777.2046 7777204.5000    -999.25     9.1568     9.1568     0.1204     5.1087   106.7415     0.0000    -999.25    76.1144     2.8700     3.0272  1414.3112     0.4591     5.8726    -999.25     0.0101     0.0151     0.0151 25515.7637     2.7236     2.6547     2.6547     7.0639  -197.9254     1.0000     1.0000     1.0000 -1326.9412    60.0450     0.0151     2.0000
  1414.4396  7431.8936 7427531.0000    -999.25     9.5611     9.5611     0.1215     4.4384   108.5132     0.0000    -999.25    80.0487     2.6410     2.7436  1414.4396     0.4772     5.8349    -999.25     0.0096     0.0157     0.0157 24368.5391     2.6459     2.3589     2.3589     5.5642  -197.9080     1.0000     1.0000     1.0000 -1327.0696    66.1330     0.0157     2.0000
  1414.4636  7362.1714 7362171.5000    -999.25     9.5995     9.5995     0.1217     4.2912   108.8443     0.0000    -999.25    80.6926     2.5800     2.6723  1414.4636     0.4870     5.8279    -999.25     0.0111     0.0169     0.0169 24154.1055     2.6290     2.3011     2.3011     5.3128  -197.9047     1.0000     1.0000     1.0000 -1327.0936    66.9215     0.0169     2.0000
  1414.5920  6968.5024 6977846.5000    -999.25     9.8045     9.8045     0.1234     3.5038   111.0563     0.0000    -999.25    84.1373     2.2531     2.2908  1414.5920     0.5391     5.7791    -999.25     0.0191     0.0233     0.0233 22893.1973     2.5390     1.9920     1.9920     3.9679  -197.9017     1.0000     1.0000     1.0000 -1327.2220    71.1400     0.0233     2.0000
  1414.6160  6906.0103 6906010.0000    -999.25     9.7775     9.7775     0.1237     3.3662   111.4698     0.0000    -999.25    84.4393     2.1961     2.2300  1414.6160     0.5392     5.7700    -999.25     0.0285     0.0257     0.0257 22657.5137     2.5256     1.9572     1.9572     3.8371  -197.9011     1.0000     1.0000     1.0000 -1327.2460    70.3334     0.0257     2.0000
  1414.7444  6507.3682 6526966.5000    -999.25     9.6332     9.6332     0.1427     2.6305   114.9401     0.0000    -999.25    86.0550     1.8910     1.9047  1414.7444     0.5397     5.7644    -999.25     0.0791     0.0384     0.0384 21413.9316     2.4539     1.7713     1.7713     3.1375  -197.9061     1.0000     1.0000     1.0000 -1327.3744    66.0180     0.0384     2.0000
  1414.7684  6456.1172 6456117.0000    -999.25     9.5828     9.5828     0.1463     2.5187   115.5888     0.0000    -999.25    85.9266     1.8649     1.8789  1414.7684     0.5269     5.7634    -999.25     0.1181     0.0405     0.0405 21181.4863     2.4483     1.7748     1.7748     3.1498  -197.9070     1.0000     1.0000     1.0000 -1327.3984    64.6402     0.0405     2.0000
  1414.8968  6254.7671 6268296.0000    -999.25     9.3135     9.3135     0.1293     1.9205   117.8531     0.0000    -999.25    85.2399     1.7256     1.7406  1414.8969     0.4579     5.8345    -999.25     0.3271     0.0515     0.0515 20565.2754     2.4184     1.7933     1.7933     3.2160  -197.9167     1.0000     1.0000     1.0000 -1327.5267    57.2690     0.0515     2.0000
  1414.9208  6233.1895 6233189.5000    -999.25     9.2478     9.2478     0.1261     1.8899   118.2763     0.0000    -999.25    84.7564     1.7394     1.7580  1414.9208     0.4482     5.8478    -999.25     0.3653     0.0521     0.0521 20450.0957     2.4188     1.8363     1.8363     3.3817  -197.9185     1.0000     1.0000     1.0000 -1327.5508    56.3443     0.0521     2.0000
  1415.0492  6343.4370 6353231.0000    -999.25     8.8962     8.8962     0.1312     1.7259   116.3008     0.0000    -999.25    82.1696     1.8133     1.8514  1415.0492     0.3962     5.9807    -999.25     0.5698     0.0553     0.0553 20843.9336     2.4204     2.0660     2.0660     4.2684  -197.9139     1.0000     1.0000     1.0000 -1327.6792    51.3970     0.0553     2.0000
  1415.0732  6375.6685 6375668.5000    -999.25     8.8770     8.8770     0.1322     1.7880   115.9316     0.0000    -999.25    81.4513     1.8681     1.9122  1415.0732     0.3942     6.0055    -999.25     0.5650     0.0549     0.0549 20917.5488     2.4250     2.1328     2.1328     4.5727  -197.9130     1.0000     1.0000     1.0000 -1327.7031    50.9712     0.0549     2.0000
  1415.2016  6769.2329 6781111.0000    -999.25     8.7746     8.7746     0.1788     2.1201   110.2934     0.0000    -999.25    77.6081     2.1607     2.2375  1415.2015     0.3838     6.1972    -999.25     0.5390     0.0531     0.0531 22247.7402     2.4495     2.4901     2.4901     6.2006  -197.9117     1.0000     1.0000     1.0000 -1327.8315    48.6930     0.0531     2.0000
  1415.2256  6856.8945 6856894.5000    -999.25     8.7821     8.7821     0.1875     2.2831   109.2395     0.0000    -999.25    76.8099     2.2330     2.3199  1415.2256     0.3879     6.2330    -999.25     0.5059     0.0521     0.0521 22496.3730     2.4575     2.5465     2.5465     6.5018  -197.9115     1.0000     1.0000     1.0000 -1327.8556    48.6626     0.0521     2.0000
  1415.3540  7315.2974 7316942.5000    -999.25     8.8223     8.8223     0.2065     3.1553   104.1803     0.0000    -999.25    72.5395     2.6196     2.7603  1415.3540     0.4096     6.4442    -999.25     0.3288     0.0468     0.0468 24005.7168     2.5004     2.8484     2.8484     8.1131  -197.9077     1.0000     1.0000     1.0000 -1327.9840    48.5000     0.0468     2.0000
  1415.3781  7403.2910 7403291.0000    -999.25     8.8208     8.8208     0.2101     3.3551   103.2307     0.0000    -999.25    72.0672     2.6686     2.8216  1415.3781     0.4130     6.4839    -999.25     0.3034     0.0455     0.0455 24289.0117     2.5074     2.8756     2.8756     8.2731  -197.9070     1.0000     1.0000     1.0000 -1328.0081    48.6570     0.0455     2.0000
  1415.5064  7601.2734 7596627.0000    -999.25     8.8129     8.8129     0.2523     4.4190   102.0388     0.0000    -999.25    69.5528     2.9291     3.1480  1415.5063     0.4308     6.6322    -999.25     0.1679     0.0386     0.0386 24923.3184     2.5447     3.0208     3.0208     9.1251  -197.8952     1.0000     1.0000     1.0000 -1328.1364    49.4930     0.0386     2.0000
  1415.5304  7632.7935 7632793.0000    -999.25     8.8066     8.8066     0.2602     4.4546   101.8158     0.0000    -999.25    69.6301     2.9465     3.1702  1415.5304     0.4316     6.6600    -999.25     0.1598     0.0379     0.0379 25041.9727     2.5497     3.0353     3.0353     9.2139  -197.8930     1.0000     1.0000     1.0000 -1328.1604    49.5974     0.0379     2.0000
  1415.6588  7609.2104 7600996.5000    -999.25     8.7730     8.7730     0.2715     4.6455   103.1961     0.0000    -999.25    70.0434     3.0392     3.2891  1415.6588     0.4362     6.7324    -999.25     0.1164     0.0343     0.0343 24937.6523     2.5763     3.1127     3.1127     9.6888  -197.8888     1.0000     1.0000     1.0000 -1328.2888    50.1560     0.0343     2.0000
  1415.6829  7595.0288 7595028.5000    -999.25     8.7885     8.7885     0.2736     4.6892   103.4552     0.0000    -999.25    70.4781     3.0558     3.2999  1415.6829     0.4370     6.7460    -999.25     0.1125     0.0339     0.0339 24918.0723     2.5779     3.1223     3.1223     9.7490  -197.8880     1.0000     1.0000     1.0000 -1328.3129    50.4119     0.0339     2.0000
  1415.8112  7540.7734 7530826.0000    -999.25     8.8711     8.8711     0.2781     4.9218   104.5555     0.0000    -999.25    72.7921     3.1440     3.3573  1415.8112     0.4412     6.6821    -999.25     0.0921     0.0320     0.0320 24707.4336     2.5867     3.1732     3.1732    10.0695  -197.8910     1.0000     1.0000     1.0000 -1328.4412    51.7740     0.0320     2.0000
  1415.8352  7518.8159 7518816.0000    -999.25     8.8950     8.8950     0.2790     4.9859   104.7613     0.0000    -999.25    73.1583     3.1520     3.3578  1415.8352     0.4437     6.6701    -999.25     0.0906     0.0320     0.0320 24668.0312     2.5843     3.1601     3.1601     9.9873  -197.8916     1.0000     1.0000     1.0000 -1328.4652    52.1381     0.0320     2.0000
