~Version ---------------------------------------------------
VERS. 2.0 : CWLS log ASCII Standard -VERSION 2.0
WRAP.  NO : 
~Well ------------------------------------------------------
STRT.m                                                   1300.0 : 
STOP.m                                                1481.9656 : 
STEP.m                                                   0.1524 : 
NULL.                                                   -999.25 : 
COMP.                                                           : COMPANY
WELL.                                                    Well-3 : WELL
FLD .                                                           : FIELD
LOC .                                                           : LOCATION
SRVC.                                                           : SERVICE COMPANY
DATE. 2021-01-20 14:34:00   : Log Export Date {yyyy-MM-dd HH:mm : ss}
PROV.                                                           : PROVINCE
UWI .                                                    Well-3 : UNIQUE WELL ID
API .                                                           : API NUMBER
~Curve Information -----------------------------------------
DEPTH             .m        : DEPTH
ACOUSTICIMPEDANCE1.kPa.s/m  : ACOUSTICIMPEDANCE1
AI                .kPa.s/m  : AI
AVG_PIGN          .m3/m3    : AVG_PIGN
BS                .in       : BS
CALI              .in       : CALI
CALI[DERIVED]1    .in       : CALI[DERIVED]1
CALI1             .in       : CALI1
DEVI              .deg      : DEVI
DFL               .ohm.m    : DFL
DT                .us/ft    : DT
DT1               .us/ft    : DT1
FACIES            ._        : FACIES
FLD1              ._        : FLD1
GR                .gAPI     : GR
HDRS              .ohm.m    : HDRS
HMRS              .ohm.m    : HMRS
DEPTH_1           .m        : DEPTH_1
NPHI              .m3/m3    : NPHI
PERF_INT          ._        : PERF_INT
PERMEABILITY      .mD       : PERMEABILITY
PIGN              .m3/m3    : PIGN
PIGN_MODELLING    .m3/m3    : PIGN_MODELLING
PIMP              .kPa.s/m  : PIMP
RHOB              .g/cm3    : RHOB
RT_MODELLING      .ohm.m    : RT_MODELLING
RT_POWER          .ohm.m    : RT_POWER
SP                .mV       : SP
SUWI              ._        : SUWI
SUWI_MODELLING    ._        : SUWI_MODELLING
TDVSS             .m        : TDVSS
VCL               .%        : VCL
WATER_VOL         ._        : WATER_VOL
ZLT               ._        : ZLT
~Params ----------------------------------------------------
~Other -----------------------------------------------------
~ASCII -----------------------------------------------------
# ...
  1432.4356  6223.2153 6246257.5000    -999.25     8.5000     8.7042     8.7042     8.7042     0.3518     2.9497   115.7284   115.7287     0.0000     0.0000    71.1217     2.4012     2.5184  1432.4355     0.5417    -999.25     0.0744     0.0333     0.0333 20492.9727     2.3629     2.9497     8.7009   330.5948     1.0000     1.0000 -1356.2755    63.3320     0.0333     8.0000
  1432.4622  6285.1436 6285143.5000    -999.25     8.5000     8.7050     8.7050     8.7039     0.3613     2.9786   115.2089   115.6083     0.0000     0.0000    71.1055     2.3944     2.5078  1432.4622     0.5422    -999.25     0.0841     0.0325     0.0325 20620.5508     2.3757     2.9786     8.8763   330.6514     1.0000     1.0000 -1356.3021    64.1902     0.0325     8.0000
  1432.5880  6454.8203 6482695.5000    -999.25     8.5000     8.7027     8.7027     8.7027     0.4224     3.1154   115.0391   115.0391     0.0000     0.0000    71.0292     2.3619     2.4580  1432.5880     0.5443    -999.25     0.1302     0.0289     0.0289 21268.6855     2.4362     3.1154     9.7057   330.9192     1.0000     1.0000 -1356.4280    68.2490     0.0289     8.0000
  1432.6146  6524.4673 6524467.5000    -999.25     8.5000     8.7022     8.7022     8.7027     0.4353     3.1397   115.0032   115.3281     0.0000     0.0000    71.1311     2.3451     2.4362  1432.6146     0.5412    -999.25     0.1588     0.0283     0.0283 21405.7324     2.4617     3.1397     9.8602   330.9872     1.0000     1.0000 -1356.4546    68.8321     0.0283     8.0000
  1432.7404  6745.0796 6747785.5000    -999.25     8.5000     8.7025     8.7025     8.7025     0.4318     3.2544   116.6952   116.6950     0.0000     0.0000    71.6134     2.2654     2.3335  1432.7404     0.5265    -999.25     0.2940     0.0258     0.0258 22138.4043     2.5824     3.2544    10.5912   331.3089     1.0000     1.0000 -1356.5803    71.5900     0.0258     8.0000
  1432.7670  6795.0054 6795005.5000    -999.25     8.5000     8.7026     8.7026     8.7056     0.4311     3.1918   117.0530   116.8553     0.0000     0.0000    71.6190     2.2369     2.3019  1432.7670     0.5216    -999.25     0.3682     0.0261     0.0261 22293.3242     2.6095     3.1918    10.2059   331.3343     1.0000     1.0000 -1356.6069    71.3465     0.0261     8.0000
  1432.8928  7094.6460 7037849.0000    -999.25     8.5000     8.7203     8.7203     8.7203     0.3974     2.8954   117.6136   117.6135     0.0000     0.0000    71.6452     2.1022     2.1523  1432.8927     0.4985    -999.25     0.7193     0.0271     0.0271 23090.0566     2.7376     2.8954     8.3834   331.4541     1.0000     1.0000 -1356.7328    70.1950     0.0271     8.0000
  1432.9194  7089.1978 7089197.5000    -999.25     8.5000     8.7240     8.7240     8.7243     0.3903     2.8181   117.7321   116.9760     0.0000     0.0000    71.2523     2.0856     2.1367  1432.9193     0.4950    -999.25     0.7954     0.0279     0.0279 23258.5234     2.7383     2.8181     7.9700   331.4558     1.0000     1.0000 -1356.7594    69.3020     0.0279     8.0000
  1433.0452  7332.1045 7284128.5000    -999.25     8.5000     8.7435     8.7435     8.7435     0.3602     2.4525   113.9604   113.9608     0.0000     0.0000    69.3944     2.0072     2.0631  1433.0452     0.4782    -999.25     1.1554     0.0318     0.0318 23898.0586     2.7414     2.4525     6.0147   331.4638     1.0000     1.0000 -1356.8851    65.0790     0.0318     8.0000
  1433.0718  7325.3457 7325346.0000    -999.25     8.5000     8.7476     8.7476     8.7458     0.3538     2.4568   113.1629   112.5500     0.0000     0.0000    68.4739     2.0267     2.0865  1433.0718     0.4780    -999.25     1.1226     0.0325     0.0325 24033.2871     2.7197     2.4568     6.0360   331.4742     1.0000     1.0000 -1356.9117    64.1986     0.0325     8.0000
  1433.1976  7534.0884 7531472.5000    -999.25     8.5000     8.7570     8.7570     8.7570     0.3502     2.4773   105.8769   105.8777     0.0000     0.0000    64.1202     2.1194     2.1972  1433.1975     0.4767    -999.25     0.9676     0.0363     0.0363 24709.5547     2.6171     2.4773     6.1371   331.5233     1.0000     1.0000 -1357.0376    60.0350     0.0363     8.0000
  1433.2242  7575.0566 7575057.0000    -999.25     8.5000     8.7590     8.7590     8.7532     0.3494     2.5764   104.3363   104.4242     0.0000     0.0000    63.0303     2.1841     2.2657  1433.2241     0.4793    -999.25     0.8840     0.0367     0.0367 24852.5488     2.5930     2.5764     6.6840   331.6141     1.0000     1.0000 -1357.0642    59.6496     0.0367     8.0000
  1433.3500  7746.6138 7784183.5000    -999.25     8.5000     8.7354     8.7354     8.7354     0.3785     3.0447    97.5491    97.5499     0.0000     0.0000    57.8756     2.4903     2.5894  1433.3500     0.4914    -999.25     0.4887     0.0383     0.0383 25538.6582     2.4792     3.0447     9.2702   332.0438     1.0000     1.0000 -1357.1899    57.8270     0.0383     8.0000
  1433.3766  7828.4023 7828402.5000    -999.25     8.5000     8.7304     8.7304     8.7274     0.3846     3.3387    96.1140    96.9908     0.0000     0.0000    57.2532     2.5439     2.6419  1433.3766     0.4942    -999.25     0.4501     0.0380     0.0380 25683.7344     2.4686     3.3387    11.5557   332.2352     1.0000     1.0000 -1357.2166    58.1565     0.0380     8.0000
  1433.5024  7811.7227 7862685.0000    -999.25     8.5000     8.6896     8.6896     8.6895     0.4837     4.7291    94.3478    94.3468     0.0000     0.0000    54.3100     2.7974     2.8904  1433.5023     0.5072    -999.25     0.2678     0.0366     0.0366 25796.2109     2.4180     4.7291    22.3648   333.1402     1.0000     1.0000 -1357.3424    59.7150     0.0366     8.0000
  1433.5291  7869.9609 7869961.0000    -999.25     8.5000     8.6809     8.6809     8.6846     0.5047     5.0002    93.9729    95.1292     0.0000     0.0000    54.4568     2.8007     2.8904  1433.5291     0.5073    -999.25     0.2728     0.0359     0.0359 25820.0820     2.4264     5.0002    25.3478   333.3452     1.0000     1.0000 -1357.3691    60.5267     0.0359     8.0000
  1433.6548  7605.7490 7646744.5000    -999.25     8.5000     8.6613     8.6613     8.6613     0.4629     6.2763    98.8124    98.8125     0.0000     0.0000    55.1477     2.8160     2.8907  1433.6548     0.5079    -999.25     0.2963     0.0324     0.0324 25087.7441     2.4657     6.2763    39.3918   334.3104     1.0000     1.0000 -1357.4948    64.3480     0.0324     8.0000
  1433.6814  7599.5083 7599508.5000    -999.25     8.5000     8.6572     8.6572     8.6651     0.4541     5.9997    99.8365   100.2919     0.0000     0.0000    55.9598     2.7448     2.8180  1433.6814     0.5051    -999.25     0.3303     0.0319     0.0319 24932.7695     2.4892     5.9997    36.3579   334.4053     1.0000     1.0000 -1357.5214    64.9608     0.0319     8.0000
  1433.8072  7387.8438 7383383.0000    -999.25     8.5000     8.6830     8.6830     8.6830     0.3827     4.6914   107.2842   107.2883     0.0000     0.0000    59.8007     2.4084     2.4740  1433.8071     0.4917    -999.25     0.4912     0.0292     0.0292 24223.6953     2.6004     4.6914    22.0095   334.8540     1.0000     1.0000 -1357.6471    67.8590     0.0292     8.0000
  1433.8339  7337.5117 7337512.0000    -999.25     8.5000     8.6885     8.6885     8.6831     0.3675     4.3758   108.8649   108.3796     0.0000     0.0000    60.6629     2.3406     2.4040  1433.8339     0.4884    -999.25     0.5477     0.0292     0.0292 24073.2012     2.6207     4.3758    19.6168   334.7917     1.0000     1.0000 -1357.6738    67.8520     0.0292     8.0000
  1433.9596  7293.8574 7246202.5000    -999.25     8.5000     8.6834     8.6834     8.6834     0.3282     2.8900   113.5174   113.5176     0.0000     0.0000    64.7219     2.0211     2.0746  1433.9596     0.4726    -999.25     0.8137     0.0293     0.0293 23773.6309     2.7165     2.8900     8.3520   334.4982     1.0000     1.0000 -1357.7996    67.8190     0.0293     8.0000
  1433.9862  7226.8804 7226880.0000    -999.25     8.5000     8.6823     8.6823     8.6757     0.3199     2.7725   114.5020   113.3662     0.0000     0.0000    64.7616     2.0153     2.0672  1433.9862     0.4724    -999.25     0.8443     0.0297     0.0297 23710.2363     2.7149     2.7725     7.7520   334.3902     1.0000     1.0000 -1357.8262    67.3442     0.0297     8.0000
