~Version ---------------------------------------------------
VERS. 2.0 : CWLS log ASCII Standard -VERSION 2.0
WRAP.  NO : 
~Well ------------------------------------------------------
STRT.m                                                 998.5724 : 
STOP.m                                                  1489.91 : 
STEP.m                                                   0.1524 : 
NULL.                                                   -999.25 : 
COMP.                                                           : COMPANY
WELL.                                                    Well-4 : WELL
FLD .                                                           : FIELD
LOC .                                                           : LOCATION
SRVC.                                                           : SERVICE COMPANY
DATE. 2021-01-20 14:34:00   : Log Export Date {yyyy-MM-dd HH:mm : ss}
PROV.                                                           : PROVINCE
UWI .                                                    Well-4 : UNIQUE WELL ID
API .                                                           : API NUMBER
~Curve Information -----------------------------------------
DEPTH             .m        : DEPTH
ACOUSTICIMPEDANCE1.kPa.s/m  : ACOUSTICIMPEDANCE1
AVG_PIGN          .m3/m3    : AVG_PIGN
CALI              .in       : CALI
CALI[DERIVED]1    .in       : CALI[DERIVED]1
DFL               .ohm.m    : DFL
DT                .us/ft    : DT
FACIES            ._        : FACIES
FLD1              ._        : FLD1
GR                .gAPI     : GR
HDRS              .ohm.m    : HDRS
HMRS              .ohm.m    : HMRS
NPHI              .m3/m3    : NPHI
PERF_INT          ._        : PERF_INT
PIGN              .m3/m3    : PIGN
PIGN_MODELLING    .m3/m3    : PIGN_MODELLING
RHOB              .g/cm3    : RHOB
SP                .mV       : SP
SUWI              ._        : SUWI
SUWI_MODELLING    ._        : SUWI_MODELLING
TDVSS             .m        : TDVSS
VCL               .%        : VCL
ZLT               ._        : ZLT
~Params ----------------------------------------------------
~Other -----------------------------------------------------
~ASCII -----------------------------------------------------
# ...
  1193.6444  4605.4429    -999.25     9.6519     9.6519     1.3469   141.8054    -999.25    -999.25    61.6385     1.1032     1.1226     0.5905    -999.25     0.0228     0.0228     2.1426   278.8169     1.0000     1.0000 -1115.0244    82.4920    -999.25
  1193.7968  4581.4238    -999.25     9.6088     9.6088     1.3125   143.2873    -999.25    -999.25    60.2780     1.0840     1.1016     0.5959    -999.25     0.0208     0.0208     2.1537   278.7397     1.0000     1.0000 -1115.1768    84.0220    -999.25
  1193.9492  4550.5742    -999.25     9.5856     9.5856     1.2924   144.0725    -999.25    -999.25    59.6193     1.0867     1.1051     0.6040    -999.25     0.0193     0.0193     2.1510   278.4144     1.0000     1.0000 -1115.3292    85.2040    -999.25
  1194.1016  4559.5298    -999.25     9.5992     9.5992     1.2971   143.7909    -999.25    -999.25    59.6059     1.0862     1.1070     0.6011    -999.25     0.0184     0.0184     2.1510   277.8095     1.0000     1.0000 -1115.4816    85.8750    -999.25
  1194.2540  4595.4556    -999.25     9.6326     9.6326     1.2818   142.9586    -999.25    -999.25    59.4789     1.0914     1.1113     0.5889    -999.25     0.0162     0.0162     2.1554   277.1143     1.0000     1.0000 -1115.6340    87.5980    -999.25
  1194.4064  4594.7749    -999.25     9.5886     9.5886     1.2893   142.5061    -999.25    -999.25    59.0777     1.1187     1.1405     0.5695    -999.25     0.0159     0.0159     2.1482   276.5616     1.0000     1.0000 -1115.7864    87.7870    -999.25
  1194.5588  4581.8105    -999.25     9.4796     9.4796     1.3335   142.6187    -999.25    -999.25    58.4797     1.1372     1.1606     0.5491    -999.25     0.0188     0.0188     2.1439   276.2086     1.0000     1.0000 -1115.9388    85.5930    -999.25
  1194.7112  4580.1128    -999.25     9.3218     9.3218     1.3456   143.2092    -999.25    -999.25    58.2344     1.1223     1.1477     0.5355    -999.25     0.0204     0.0204     2.1519   275.8785     1.0000     1.0000 -1116.0912    84.3640    -999.25
  1194.8636  4597.6167    -999.25     9.1565     9.1565     1.3287   144.2219    -999.25    -999.25    58.1051     1.1058     1.1305     0.5320    -999.25     0.0206     0.0206     2.1754   275.4010     1.0000     1.0000 -1116.2437    84.2240    -999.25
  1195.0160  4681.8750    -999.25     8.9775     8.9775     1.2934   144.8711    -999.25    -999.25    57.8377     1.1131     1.1254     0.5323    -999.25     0.0204     0.0204     2.2253   274.7378     1.0000     1.0000 -1116.3960    84.3710    -999.25
  1195.1684  4798.1367    -999.25     8.7976     8.7976     1.3032   144.4716    -999.25    -999.25    57.6984     1.1582     1.1570     0.5315    -999.25     0.0212     0.0212     2.2743   273.9043     1.0000     1.0000 -1116.5485    83.7290    -999.25
  1195.3208  4855.1851    -999.25     8.7031     8.7031     1.3685   142.7477    -999.25    -999.25    57.4619     1.2471     1.2556     0.5379    -999.25     0.0248     0.0248     2.2738   272.9358     1.0000     1.0000 -1116.7008    80.9820    -999.25
  1195.4732  4912.0371    -999.25     8.6834     8.6834     1.4708   139.6106    -999.25    -999.25    57.8877     1.3494     1.3602     0.5548    -999.25     0.0308     0.0308     2.2499   272.1310     1.0000     1.0000 -1116.8531    76.3560    -999.25
  1195.6256  4961.1562    -999.25     8.6951     8.6951     1.6884   135.6050    -999.25    -999.25    59.8385     1.5041     1.5278     0.5853    -999.25     0.0338     0.0338     2.2072   271.8025     1.0000     1.0000 -1117.0056    74.1190    -999.25
  1195.7780  4960.9111    -999.25     8.6735     8.6735     2.0570   133.2383    -999.25    -999.25    62.1995     1.6392     1.7092     0.6227    -999.25     0.0305     0.0305     2.1686   271.7706     1.0000     1.0000 -1117.1580    76.6280    -999.25
  1195.9304  4954.2915    -999.25     8.6200     8.6200     2.0657   134.3207    -999.25    -999.25    64.0196     1.4522     1.4955     0.6533    -999.25     0.0227     0.0227     2.1833   271.6067     1.0000     1.0000 -1117.3104    82.6130    -999.25
  1196.0828  4938.8770    -999.25     8.5833     8.5833     1.5715   137.7725    -999.25    -999.25    64.5376     1.1570     1.1545     0.6624    -999.25     0.0146     0.0146     2.2324   270.8952     1.0000     1.0000 -1117.4628    88.8350    -999.25
  1196.2352  4904.5845    -999.25     8.5276     8.5276     1.1227   141.3174    -999.25    -999.25    62.8708     1.0630     1.0558     0.6480    -999.25     0.0123     0.0123     2.2740   269.4156     1.0000     1.0000 -1117.6152    90.5560    -999.25
  1196.3876  4922.8560    -999.25     8.4050     8.4050     1.0752   141.9655    -999.25    -999.25    59.4053     1.1800     1.1930     0.6262    -999.25     0.0174     0.0174     2.2929   267.5378     1.0000     1.0000 -1117.7676    86.6590    -999.25
  1196.5400  5048.1064    -999.25     8.2856     8.2856     1.3481   138.0453    -999.25    -999.25    54.9569     1.4129     1.4469     0.6061    -999.25     0.0277     0.0277     2.2863   265.9346     1.0000     1.0000 -1117.9200    78.7850    -999.25
  1196.6924  5244.2036    -999.25     8.2276     8.2276     1.7832   131.7790    -999.25    -999.25    51.3300     1.6764     1.7231     0.5921    -999.25     0.0391     0.0391     2.2673   264.8997     1.0000     1.0000 -1118.0724    70.0440    -999.25
  1196.8448  5396.4331    -999.25     8.1984     8.1984     2.1913   126.5903    -999.25    -999.25    49.9054     1.9001     1.9345     0.5846    -999.25     0.0476     0.0476     2.2413   264.3304     1.0000     1.0000 -1118.2249    63.5410    -999.25
  1196.9972  5417.9951    -999.25     8.1878     8.1878     2.4766   123.9476    -999.25    -999.25    49.7545     2.0201     2.0513     0.5827    -999.25     0.0518     0.0518     2.2032   264.1375     1.0000     1.0000 -1118.3772    60.2520    -999.25
  1197.1496  5356.8120    -999.25     8.1972     8.1972     2.5626   123.5004    -999.25    -999.25    50.1307     2.0626     2.1000     0.5839    -999.25     0.0529     0.0529     2.1705   264.3707     1.0000     1.0000 -1118.5297    59.4230    -999.25
  1197.3020  5257.3369    -999.25     8.2161     8.2161     2.5766   124.6353    -999.25    -999.25    51.3964     2.0506     2.0925     0.5816    -999.25     0.0522     0.0522     2.1498   265.0615     1.0000     1.0000 -1118.6820    59.9790    -999.25
  1197.4544  5132.5518    -999.25     8.2465     8.2465     2.4819   126.9345    -999.25    -999.25    53.2839     1.9944     2.0205     0.5771    -999.25     0.0500     0.0500     2.1375   266.0317     1.0000     1.0000 -1118.8344    61.6740    -999.25
  1197.6068  4969.7627    -999.25     8.2727     8.2727     2.2361   130.3116    -999.25    -999.25    55.3428     1.8231     1.8307     0.5752    -999.25     0.0457     0.0457     2.1247   266.9060     1.0000     1.0000 -1118.9868    64.9360    -999.25
  1197.7592  4795.1899    -999.25     8.2705     8.2705     1.8828   134.0571    -999.25    -999.25    57.3400     1.5801     1.6001     0.5756    -999.25     0.0406     0.0406     2.1090   267.2998     1.0000     1.0000 -1119.1392    68.8970    -999.25
  1197.9116  4668.0610    -999.25     8.2289     8.2289     1.5973   136.5758    -999.25    -999.25    58.7065     1.4842     1.5041     0.5705    -999.25     0.0382     0.0382     2.0917   266.9048     1.0000     1.0000 -1119.2916    70.7470    -999.25
  1198.0640  4609.7236    -999.25     8.1828     8.1828     1.5316   136.9758    -999.25    -999.25    58.5601     1.5333     1.5377     0.5570    -999.25     0.0404     0.0404     2.0716   265.9524     1.0000     1.0000 -1119.4440    69.0250    -999.25
  1198.2164  4623.6450    -999.25     8.1964     8.1964     1.6252   135.5930    -999.25    -999.25    56.5407     1.5880     1.6023     0.5380    -999.25     0.0454     0.0454     2.0569   264.7888     1.0000     1.0000 -1119.5964    65.1980    -999.25
  1198.3688  4670.1514    -999.25     8.2616     8.2616     1.7558   134.0554    -999.25    -999.25    53.9673     1.6415     1.6630     0.5193    -999.25     0.0506     0.0506     2.0540   263.8023     1.0000     1.0000 -1119.7488    61.2410    -999.25
