~Version ---------------------------------------------------
VERS. 2.0 : CWLS log ASCII Standard -VERSION 2.0
WRAP.  NO : 
~Well ------------------------------------------------------
STRT.m                                                 998.5724 : 
STOP.m                                                  1489.91 : 
STEP.m                                                   0.1524 : 
NULL.                                                   -999.25 : 
COMP.                                                           : COMPANY
WELL.                                                    Well-4 : WELL
FLD .                                                           : FIELD
LOC .                                                           : LOCATION
SRVC.                                                           : SERVICE COMPANY
DATE. 2021-01-20 14:34:00   : Log Export Date {yyyy-MM-dd HH:mm : ss}
PROV.                                                           : PROVINCE
UWI .                                                    Well-4 : UNIQUE WELL ID
API .                                                           : API NUMBER
~Curve Information -----------------------------------------
DEPTH             .m        : DEPTH
ACOUSTICIMPEDANCE1.kPa.s/m  : ACOUSTICIMPEDANCE1
AVG_PIGN          .m3/m3    : AVG_PIGN
CALI              .in       : CALI
CALI[DERIVED]1    .in       : CALI[DERIVED]1
DFL               .ohm.m    : DFL
DT                .us/ft    : DT
FACIES            ._        : FACIES
FLD1              ._        : FLD1
GR                .gAPI     : GR
HDRS              .ohm.m    : HDRS
HMRS              .ohm.m    : HMRS
NPHI              .m3/m3    : NPHI
PERF_INT          ._        : PERF_INT
PIGN              .m3/m3    : PIGN
PIGN_MODELLING    .m3/m3    : PIGN_MODELLING
RHOB              .g/cm3    : RHOB
SP                .mV       : SP
SUWI              ._        : SUWI
SUWI_MODELLING    ._        : SUWI_MODELLING
TDVSS             .m        : TDVSS
VCL               .%        : VCL
ZLT               ._        : ZLT
~Params ----------------------------------------------------
~Other -----------------------------------------------------
~ASCII -----------------------------------------------------
# ...
  1032.7100  4196.2827    -999.25     8.3472     8.3472     1.9176   148.9679    -999.25    -999.25    66.5602     1.6421     1.7208     0.5619    -999.25     0.0255     0.0255     2.0509   270.9167     1.0000     1.0000  -954.0900    80.4180    -999.25
  1032.8624  4243.3320    -999.25     8.3097     8.3097     1.7093   149.8740    -999.25    -999.25    72.5105     1.4252     1.4368     0.5658    -999.25     0.0243     0.0243     2.0865   272.0287     1.0000     1.0000  -954.2424    81.3490    -999.25
  1033.0148  4270.8862    -999.25     8.3022     8.3022     1.4168   151.3785    -999.25    -999.25    76.7476     1.1571     1.1246     0.5759    -999.25     0.0221     0.0221     2.1211   273.0964     1.0000     1.0000  -954.3948    83.0430    -999.25
  1033.1672  4278.1812    -999.25     8.2860     8.2860     1.0794   152.4299    -999.25    -999.25    77.6742     0.9161     0.9028     0.5897    -999.25     0.0194     0.0194     2.1395   273.6622     1.0000     1.0000  -954.5472    85.1350    -999.25
  1033.3196  4282.7446    -999.25     8.2823     8.2823     0.9095   151.9828    -999.25    -999.25    74.9782     0.8257     0.8191     0.6044    -999.25     0.0175     0.0175     2.1355   273.7737     1.0000     1.0000  -954.6996    86.6170    -999.25
  1033.4720  4309.1489    -999.25     8.2420     8.2420     0.8744   150.3633    -999.25    -999.25    70.8525     0.8619     0.8412     0.6167    -999.25     0.0175     0.0175     2.1258   273.7631     1.0000     1.0000  -954.8520    86.6000    -999.25
  1033.6244  4358.4907    -999.25     8.0923     8.0923     0.9672   148.4268    -999.25    -999.25    67.0310     0.8777     0.8675     0.6262    -999.25     0.0194     0.0194     2.1224   273.5882     1.0000     1.0000  -955.0044    85.1090    -999.25
  1033.7768  4400.3843    -999.25     7.9118     7.9118     1.0615   146.9153    -999.25    -999.25    64.3003     0.8226     0.8310     0.6315    -999.25     0.0210     0.0210     2.1210   273.2661     1.0000     1.0000  -955.1568    83.8990    -999.25
  1033.9292  4429.1416    -999.25     7.8325     7.8325     1.0061   146.2030    -999.25    -999.25    62.4986     0.7912     0.8019     0.6340    -999.25     0.0216     0.0216     2.1245   273.1714     1.0000     1.0000  -955.3092    83.4400    -999.25
  1034.0816  4428.5024    -999.25     7.8526     7.8526     0.9178   146.2337    -999.25    -999.25    61.0019     0.8132     0.8178     0.6385    -999.25     0.0221     0.0221     2.1247   273.4326     1.0000     1.0000  -955.4616    83.0880    -999.25
  1034.2340  4377.4849    -999.25     7.8949     7.8949     0.8605   146.8887    -999.25    -999.25    59.9955     0.8969     0.8962     0.6494    -999.25     0.0213     0.0213     2.1096   273.6111     1.0000     1.0000  -955.6140    83.6480    -999.25
  1034.3864  4300.1816    -999.25     7.9378     7.9378     1.0264   147.8175    -999.25    -999.25    60.0073     1.0914     1.0802     0.6638    -999.25     0.0198     0.0198     2.0854   273.4199     1.0000     1.0000  -955.7664    84.7940    -999.25
  1034.5388  4253.8267    -999.25     8.0100     8.0100     1.3961   148.5212    -999.25    -999.25    60.9778     1.3788     1.3628     0.6767    -999.25     0.0189     0.0189     2.0728   273.0903     1.0000     1.0000  -955.9188    85.4960    -999.25
  1034.6912  4247.3027    -999.25     8.1054     8.1054     1.7911   148.6575    -999.25    -999.25    62.1507     1.5692     1.5869     0.6840    -999.25     0.0189     0.0189     2.0715   272.8268     1.0000     1.0000  -956.0712    85.5390    -999.25
  1034.8436  4269.8496    -999.25     8.2152     8.2152     1.9222   148.0923    -999.25    -999.25    63.0666     1.6041     1.6493     0.6809    -999.25     0.0201     0.0201     2.0746   272.3813     1.0000     1.0000  -956.2236    84.6220    -999.25
  1034.9960  4326.0879    -999.25     8.3049     8.3049     1.8049   146.5378    -999.25    -999.25    63.4097     1.5860     1.6131     0.6703    -999.25     0.0228     0.0228     2.0798   271.6866     1.0000     1.0000  -956.3760    82.5240    -999.25
  1035.1484  4418.3936    -999.25     8.3691     8.3691     1.7042   144.0579    -999.25    -999.25    62.9248     1.5899     1.5997     0.6608    -999.25     0.0261     0.0261     2.0883   271.1899     1.0000     1.0000  -956.5284    80.0120    -999.25
  1035.3008  4495.3550    -999.25     8.4190     8.4190     1.7484   141.9727    -999.25    -999.25    62.1506     1.6781     1.7078     0.6643    -999.25     0.0277     0.0277     2.0939   271.0804     1.0000     1.0000  -956.6808    78.7720    -999.25
  1035.4532  4494.1680    -999.25     8.4351     8.4351     1.9504   141.7036    -999.25    -999.25    62.6167     1.7897     1.8461     0.6806    -999.25     0.0260     0.0260     2.0894   271.0444     1.0000     1.0000  -956.8332    80.0860    -999.25
  1035.6056  4393.8540    -999.25     8.4327     8.4327     2.0434   143.5431    -999.25    -999.25    65.3078     1.7997     1.8579     0.6969    -999.25     0.0218     0.0218     2.0693   270.8734     1.0000     1.0000  -956.9856    83.2960    -999.25
  1035.7580  4265.9028    -999.25     8.4303     8.4303     1.9671   146.0701    -999.25    -999.25    69.6125     1.7444     1.7677     0.6973    -999.25     0.0181     0.0181     2.0444   270.7995     1.0000     1.0000  -957.1380    86.1650    -999.25
  1035.9104  4169.3345    -999.25     8.4054     8.4054     1.8038   147.7536    -999.25    -999.25    74.6833     1.6990     1.6940     0.6885    -999.25     0.0162     0.0162     2.0211   270.6767     1.0000     1.0000  -957.2904    87.5600    -999.25
  1036.0628  4130.0479    -999.25     8.3795     8.3795     1.6972   147.8115    -999.25    -999.25    77.8223     1.6643     1.6760     0.6852    -999.25     0.0158     0.0158     2.0029   270.0802     1.0000     1.0000  -957.4428    87.8990    -999.25
  1036.2152  4194.3701    -999.25     8.3941     8.3941     1.6385   145.8049    -999.25    -999.25    76.2202     1.6619     1.6704     0.6897    -999.25     0.0171     0.0171     2.0064   269.1561     1.0000     1.0000  -957.5952    86.8730    -999.25
  1036.3676  4342.9868    -999.25     8.4141     8.4141     1.6187   142.8753    -999.25    -999.25    71.6650     1.7248     1.6956     0.6915    -999.25     0.0209     0.0209     2.0358   268.5651     1.0000     1.0000  -957.7476    83.9620    -999.25
  1036.5200  4538.1680    -999.25     8.3989     8.3989     1.7382   140.4688    -999.25    -999.25    66.1658     1.7859     1.7733     0.6858    -999.25     0.0265     0.0265     2.0914   268.6597     1.0000     1.0000  -957.9000    79.6560    -999.25
  1036.6724  4717.1636    -999.25     8.3560     8.3560     1.9394   138.9264    -999.25    -999.25    61.5919     1.8091     1.8345     0.6663    -999.25     0.0327     0.0327     2.1501   269.0326     1.0000     1.0000  -958.0524    74.6940    -999.25
  1036.8248  4813.9741    -999.25     8.3421     8.3421     2.0610   137.9610    -999.25    -999.25    59.9286     1.8210     1.8472     0.6299    -999.25     0.0391     0.0391     2.1789   269.5871     1.0000     1.0000  -958.2048    69.6250    -999.25
  1036.9772  4827.6230    -999.25     8.3157     8.3157     2.0602   137.2484    -999.25    -999.25    60.8847     1.8052     1.8133     0.5935    -999.25     0.0445     0.0445     2.1738   270.4709     1.0000     1.0000  -958.3572    65.6970    -999.25
  1037.1296  4789.9292    -999.25     8.2632     8.2632     1.9659   137.1029    -999.25    -999.25    65.7990     1.7558     1.7256     0.5749    -999.25     0.0462     0.0462     2.1546   271.3949     1.0000     1.0000  -958.5096    64.6020    -999.25
  1037.2820  4724.9937    -999.25     8.2109     8.2109     1.8942   138.0575    -999.25    -999.25    80.3066     1.7085     1.6930     0.5752    -999.25     0.0392     0.0392     2.1402   271.8362     1.0000     1.0000  -958.6620    67.7610    -999.25
  1037.4344  4664.3877    -999.25     8.2089     8.2089     1.8691   140.0833    -999.25    -999.25   111.6300     1.6685     1.7074     0.5890    -999.25     0.0204     0.0204     2.1437   271.7602     1.0000     1.0000  -958.8144    75.3800    -999.25
