~Version ---------------------------------------------------
VERS. 2.0 : CWLS log ASCII Standard -VERSION 2.0
WRAP.  NO : 
~Well ------------------------------------------------------
STRT.m                                                 998.5724 : 
STOP.m                                                  1489.91 : 
STEP.m                                                   0.1524 : 
NULL.                                                   -999.25 : 
COMP.                                                           : COMPANY
WELL.                                                    Well-4 : WELL
FLD .                                                           : FIELD
LOC .                                                           : LOCATION
SRVC.                                                           : SERVICE COMPANY
DATE. 2021-01-20 14:34:00   : Log Export Date {yyyy-MM-dd HH:mm : ss}
PROV.                                                           : PROVINCE
UWI .                                                    Well-4 : UNIQUE WELL ID
API .                                                           : API NUMBER
~Curve Information -----------------------------------------
DEPTH             .m        : DEPTH
ACOUSTICIMPEDANCE1.kPa.s/m  : ACOUSTICIMPEDANCE1
AVG_PIGN          .m3/m3    : AVG_PIGN
CALI              .in       : CALI
CALI[DERIVED]1    .in       : CALI[DERIVED]1
DFL               .ohm.m    : DFL
DT                .us/ft    : DT
FACIES            ._        : FACIES
FLD1              ._        : FLD1
GR                .gAPI     : GR
HDRS              .ohm.m    : HDRS
HMRS              .ohm.m    : HMRS
NPHI              .m3/m3    : NPHI
PERF_INT          ._        : PERF_INT
PIGN              .m3/m3    : PIGN
PIGN_MODELLING    .m3/m3    : PIGN_MODELLING
RHOB              .g/cm3    : RHOB
SP                .mV       : SP
SUWI              ._        : SUWI
SUWI_MODELLING    ._        : SUWI_MODELLING
TDVSS             .m        : TDVSS
VCL               .%        : VCL
ZLT               ._        : ZLT
~Params ----------------------------------------------------
~Other -----------------------------------------------------
~ASCII -----------------------------------------------------
# ...
  1388.7164  6806.7095    -999.25     8.8264     8.8264     1.5763   112.2367     0.0000    -999.25    79.8549     1.5668     1.5729     0.4881    -999.25     0.0494     0.0494     2.5064   295.1161     1.0000     1.0000 -1310.0964    57.4850     2.0000
  1388.8688  6879.1416    -999.25     8.8248     8.8248     2.0641   113.2611     0.0000    -999.25    75.6210     2.0815     2.1540     0.4881    -999.25     0.0483     0.0483     2.5562   294.4239     1.0000     1.0000 -1310.2488    55.5620     2.0000
  1389.0212  6939.7632    -999.25     8.9472     8.9472     3.1624   109.6531     0.0000    -999.25    71.9345     2.8473     3.1049     0.4988    -999.25     0.0722     0.0722     2.4966   295.4698     1.0000     1.0000 -1310.4012    46.3690     2.0000
  1389.1736  6756.7368    -999.25     9.1192     9.1192     3.9884   107.2020     0.0000    -999.25    70.4471     2.5763     2.7691     0.5105    -999.25     0.1165     0.1165     2.3764   297.1868     1.0000     1.0000 -1310.5536    37.4990     2.0000
  1389.3260  6346.8008    -999.25     9.1683     9.1683     3.0366   109.8938     0.0000    -999.25    73.1545     1.8139     1.8201     0.5075    -999.25     0.1237     0.1237     2.2883   297.5593     1.0000     1.0000 -1310.7061    40.4810     2.0000
  1389.4784  6033.5864    -999.25     9.0900     9.0900     1.9551   115.4505     0.0000    -999.25    78.9957     1.4304     1.3746     0.4894    -999.25     0.0778     0.0778     2.2854   295.8062     1.0000     1.0000 -1310.8584    54.1960     2.0000
  1389.6308  6009.1064    -999.25     8.9195     8.9195     1.6249   119.9356     0.0000    -999.25    84.0278     1.4654     1.4385     0.4715    -999.25     0.0461     0.0461     2.3645   292.1754     1.0000     1.0000 -1311.0109    64.3920     2.0000
  1389.7832  6184.3701    -999.25     8.6898     8.6898     1.7964   120.8930     0.0000    -999.25    86.0403     1.7295     1.7740     0.4629    -999.25     0.0410     0.0410     2.4529   288.3226     1.0000     1.0000 -1311.1632    66.7550     2.0000
  1389.9356  6563.5117    -999.25     8.5276     8.5276     2.3592   117.2964     0.0000    -999.25    84.2736     1.9749     2.0922     0.4631    -999.25     0.0393     0.0393     2.5258   286.5194     1.0000     1.0000 -1311.3156    63.7090     2.0000
  1390.0880  7209.7686    -999.25     8.5469     8.5469     3.0721   110.8446     0.0000    -999.25    79.2995     2.1461     2.3187     0.4663    -999.25     0.0384     0.0384     2.6219   287.4918     1.0000     1.0000 -1311.4680    58.0750     2.0000
  1390.2404  7828.8936    -999.25     8.6481     8.6481     3.6573   104.9692     0.0000    -999.25    72.9369     2.3871     2.5436     0.4684    -999.25     0.0394     0.0394     2.6962   290.3376     1.0000     1.0000 -1311.6204    52.5400     2.0000
  1390.3928  8031.4097    -999.25     8.7161     8.7161     3.6150   101.8119     0.0000    -999.25    67.1072     2.1774     2.3291     0.4652    -999.25     0.0416     0.0416     2.6827   293.2772     1.0000     1.0000 -1311.7728    49.2520     2.0000
  1390.5452  8051.9312    -999.25     8.7250     8.7250     2.9323   100.7420     0.0000    -999.25    64.0795     1.9529     2.1041     0.4559    -999.25     0.0421     0.0421     2.6613   294.9683     1.0000     1.0000 -1311.9252    48.3020     2.0000
  1390.6976  7909.0107    -999.25     8.7312     8.7312     2.6955   100.8594     0.0000    -999.25    64.9973     2.2825     2.3627     0.4423    -999.25     0.0507     0.0507     2.6171   295.5211     1.0000     1.0000 -1312.0776    45.9730     2.0000
  1390.8500  7597.8657    -999.25     8.7451     8.7451     2.9963   101.2481     0.0000    -999.25    68.2844     2.3816     2.4537     0.4307    -999.25     0.0649     0.0649     2.5239   295.5909     1.0000     1.0000 -1312.2300    43.3470     2.0000
  1391.0024  7370.3193    -999.25     8.7480     8.7480     3.0008   101.3794     0.0000    -999.25    72.3264     2.0765     2.1920     0.4285    -999.25     0.0707     0.0707     2.4514   295.4619     1.0000     1.0000 -1312.3824    43.6340     2.0000
  1391.1548  7201.4365    -999.25     8.7381     8.7381     2.8741   102.3420     0.0000    -999.25    76.0890     2.0143     2.1078     0.4377    -999.25     0.0722     0.0722     2.4180   295.3918     1.0000     1.0000 -1312.5348    44.3310     2.0000
  1391.3072  6952.1265    -999.25     8.7343     8.7343     3.0166   104.5710     0.0000    -999.25    78.3474     2.1799     2.2431     0.4525    -999.25     0.0732     0.0732     2.3851   295.3188     1.0000     1.0000 -1312.6873    43.8970     2.0000
  1391.4596  6705.7529    -999.25     8.7299     8.7299     3.4623   106.9239     0.0000    -999.25    78.8761     2.3649     2.4467     0.4677    -999.25     0.0712     0.0712     2.3524   295.0940     1.0000     1.0000 -1312.8396    45.4040     2.0000
  1391.6120  6512.2378    -999.25     8.7285     8.7285     3.6896   108.9929     0.0000    -999.25    78.1573     2.4576     2.5458     0.4813    -999.25     0.0617     0.0617     2.3287   294.6725     1.0000     1.0000 -1312.9921    52.6750     2.0000
  1391.7644  6258.3545    -999.25     8.7220     8.7220     3.5675   111.0976     0.0000    -999.25    76.4361     2.4220     2.4728     0.4930    -999.25     0.0459     0.0459     2.2811   293.7380     1.0000     1.0000 -1313.1444    60.4080     3.0000
  1391.9168  5538.1880    -999.25     8.6971     8.6971     3.1878   113.2636     3.0000    -999.25    71.5869     2.3398     2.3844     0.5054    -999.25     0.0191     0.0191     2.0580   292.2557     1.0000     1.0000 -1313.2968    62.6320     3.0000
  1392.0692  4558.7852    -999.25     8.6325     8.6325     2.8147   115.6576     3.0000    -999.25    62.4846     2.3113     2.4002     0.5280    -999.25     0.0001     0.0001     1.7298   290.8286     1.0000     1.0000 -1313.4492    51.3000     3.0000
  1392.2216  3764.9258    -999.25     8.6063     8.6063     2.7625   119.5584     3.0000    -999.25    50.2483     2.5587     2.6835     0.5773    -999.25     0.0001     0.0001     1.4768   290.1323     1.0000     1.0000 -1313.6016    30.9620     3.0000
  1392.3740  3153.1433    -999.25     8.6363     8.6363     3.2573   125.5481     3.0000    -999.25    37.4945     3.4729     3.6555     0.6557    -999.25     0.0001     0.0001     1.2988   290.5183     1.0000     1.0000 -1313.7540    16.0730     3.0000
  1392.5264  2745.7993    -999.25     8.6884     8.6884     6.0159   133.1216     3.0000    -999.25    26.5848     6.5384     7.1502     0.7484    -999.25     0.0001     0.0001     1.1992   291.4834     1.0000     1.0000 -1313.9064     6.5140     3.0000
  1392.6788  2586.8923    -999.25     8.7049     8.7049    15.9779   140.4448     3.0000    -999.25    19.6185    16.3592    16.3409     0.8249    -999.25     0.0001     0.0001     1.1920   292.2010     1.0000     1.0000 -1314.0588     3.0530     3.0000
  1392.8312  2565.8386    -999.25     8.7019     8.7019    47.4443   145.7335     3.0000    -999.25    17.5776    35.0556    29.0498     0.8637    -999.25     0.0001     0.0001     1.2268   292.7347     1.0000     1.0000 -1314.2112     3.6380     3.0000
  1392.9836  2572.9707    -999.25     8.7078     8.7078    55.6515   148.6216     3.0000    -999.25    18.8163    32.0263    27.7683     0.8719    -999.25     0.0001     0.0001     1.2546   293.3407     1.0000     1.0000 -1314.3636     5.2720     3.0000
  1393.1360  2609.2261    -999.25     8.7225     8.7225    37.1925   149.7631     3.0000    -999.25    21.7952    23.0422    21.2403     0.8521    -999.25     0.0001     0.0001     1.2820   294.4384     1.0000     1.0000 -1314.5160     7.6960     3.0000
  1393.2884  2731.5947    -999.25     8.7502     8.7502    26.9432   149.9622     3.0000    -999.25    26.3915    23.3861    22.9844     0.8030    -999.25     0.0001     0.0001     1.3439   296.2448     1.0000     1.0000 -1314.6685    12.6360     3.0000
  1393.4408  2973.5452    -999.25     8.7760     8.7760    23.5867   148.6512     3.0000    -999.25    33.5367    19.8604    19.6374     0.7346    -999.25     0.0001     0.0001     1.4502   298.2635     1.0000     1.0000 -1314.8208    21.5130     3.0000
