~Version ---------------------------------------------------
VERS. 2.0 : CWLS log ASCII Standard -VERSION 2.0
WRAP.  NO : 
~Well ------------------------------------------------------
STRT.m                                                1239.5456 : 
STOP.m                                                  1697.66 : 
STEP.m                                                   0.1524 : 
NULL.                                                   -999.25 : 
COMP.                                                           : COMPANY
WELL.                                                   Well-16 : WELL
FLD .                                                           : FIELD
LOC .                                                           : LOCATION
SRVC.                                                           : SERVICE COMPANY
DATE. 2021-01-20 14:34:07   : Log Export Date {yyyy-MM-dd HH:mm : ss}
PROV.                                                           : PROVINCE
UWI .                                                   Well-16 : UNIQUE WELL ID
API .                                                           : API NUMBER
~Curve Information -----------------------------------------
DEPTH             .m        : DEPTH
ACOUSTICIMPEDANCE1.kPa.s/m  : ACOUSTICIMPEDANCE1
AI                .kPa.s/m  : AI
AVG_PIGN          .m3/m3    : AVG_PIGN
BIT               .m        : BIT
CALI              .in       : CALI
CALI_1            .in       : CALI_1
NPHI              .m3/m3    : NPHI
DT                .us/ft    : DT
FACIES            ._        : FACIES
FLD1              ._        : FLD1
GR                .gAPI     : GR
M2R2              .ohm.m    : M2R2
LLS               .ohm.m    : LLS
LLD               .ohm.m    : LLD
DEPTH_1           .m        : DEPTH_1
NPHI_1            .m3/m3    : NPHI_1
PEF               .b/e      : PEF
PIGN_MODELLING    .m3/m3    : PIGN_MODELLING
PIMP              .kPa.s/m  : PIMP
RHOB              .g/cm3    : RHOB
RT_MODELLING      .ohm.m    : RT_MODELLING
RT_POWER          .ohm.m    : RT_POWER
SP                .mV       : SP
SUWI_MODELLING    ._        : SUWI_MODELLING
TDVSS             .m        : TDVSS
ZCOR              .g/cm3    : ZCOR
RHOB_1            .g/cm3    : RHOB_1
ZLT               ._        : ZLT
~Params ----------------------------------------------------
~Other -----------------------------------------------------
~ASCII -----------------------------------------------------
# ...
  1692.9356  6007.6636 6007664.0000    -999.25     0.2159     8.5982     8.8982    -999.25   124.1338    -999.25    -999.25    85.2207     1.7897     1.7282     1.7292  1692.9357    -999.25     5.7771    -999.25 19710.1836     2.4467     1.7292     2.9901   203.6862    -999.25 -1612.2156     0.0073     2.4467    25.0000
  1693.0881  6016.2974 6016297.5000    -999.25     0.2159     8.3907     8.6907    -999.25   123.9050    -999.25    -999.25    83.5967     1.7248     1.6680     1.6681  1693.0880    -999.25     5.6022    -999.25 19738.5098     2.4457     1.6681     2.7826   204.0645    -999.25 -1612.3680     0.0244     2.4457    25.0000
  1693.2404  6050.9360 6050936.0000    -999.25     0.2159     7.6055     7.9055    -999.25   123.5735    -999.25    -999.25    83.7533     1.6841     1.6300     1.6292  1693.2404    -999.25     5.5720    -999.25 19852.1523     2.4532     1.6292     2.6543   204.3090    -999.25 -1612.5204     0.0405     2.4532    25.0000
  1693.3928  6084.1733 6084173.5000    -999.25     0.2159     6.0350     6.3350    -999.25   123.2491    -999.25    -999.25    84.8769     1.6601     1.6074     1.6056  1693.3928    -999.25     5.6519    -999.25 19961.1992     2.4602     1.6056     2.5780   204.4758    -999.25 -1612.6729     0.0457     2.4602    25.0000
  1693.5452  6079.8887 6079888.5000    -999.25     0.2159     4.2367     4.5367    -999.25   123.5766    -999.25    -999.25    84.2256     1.6292     1.5784     1.5755  1693.5452    -999.25     6.0415    -999.25 19947.1406     2.4650     1.5755     2.4822   204.6507    -999.25 -1612.8252     0.0630     2.4650    25.0000
  1693.6976  6122.7070 6122707.0000    -999.25     0.2159     3.0529     3.3529    -999.25   123.0061    -999.25    -999.25    82.2089     1.5931     1.5444     1.5405  1693.6976    -999.25     6.5671    -999.25 20087.6211     2.4709     1.5405     2.3731   204.8366    -999.25 -1612.9777     0.1040     2.4709    25.0000
  1693.8500  6144.8823 6144882.5000    -999.25     0.2159     2.6428     2.9429    -999.25   122.4382    -999.25    -999.25    81.9948     1.5916     1.5428     1.5380  1693.8500    -999.25     6.9430    -999.25 20160.3750     2.4684     1.5380     2.3654   204.8986    -999.25 -1613.1300     0.1179     2.4684    25.0000
  1694.0024  6070.8271 6070827.0000    -999.25     0.2159     2.5862     2.8862    -999.25   123.5050    -999.25    -999.25    84.3168     1.6570     1.6039     1.5977  1694.0024    -999.25     6.9565    -999.25 19917.4121     2.4599     1.5977     2.5526   204.7078    -999.25 -1613.2825     0.0792     2.4599    25.0000
  1694.1548  6122.0737 6122073.5000    -999.25     0.2159     2.5794     2.8794    -999.25   122.5110    -999.25    -999.25    87.5136     1.7725     1.7119     1.7039  1694.1548    -999.25     6.5932    -999.25 20085.5430     2.4607     1.7039     2.9033   204.2699    -999.25 -1613.4348     0.0320     2.4607    25.0000
  1694.3072  6170.7197 6170720.0000    -999.25     0.2159     2.5756     2.8756    -999.25   121.8959    -999.25    -999.25    89.3748     1.8416     1.7768     1.7674  1694.3073    -999.25     6.2163    -999.25 20245.1445     2.4678     1.7674     3.1237   203.8194    -999.25 -1613.5872     0.0162     2.4678    25.0000
  1694.4597  6168.3223 6168322.0000    -999.25     0.2159     2.5764     2.8764    -999.25   121.9927    -999.25    -999.25    88.5109     1.8029     1.7419     1.7323  1694.4597    -999.25     6.0456    -999.25 20237.2773     2.4688     1.7323     3.0009   203.6656    -999.25 -1613.7396     0.0137     2.4688    25.0000
  1694.6120  6226.1279 6226128.0000    -999.25     0.2159     2.5715     2.8715    -999.25   120.8258    -999.25    -999.25    86.7308     1.7229     1.6685     1.6595  1694.6121    -999.25     5.9646    -999.25 20426.9297     2.4681     1.6595     2.7539   203.8579    -999.25 -1613.8920     0.0132     2.4681    25.0000
  1694.7645  6227.2373 6227237.5000    -999.25     0.2159     2.5464     2.8464    -999.25   120.8728    -999.25    -999.25    85.2349     1.6744     1.6239     1.6155  1694.7645    -999.25     5.9516    -999.25 20430.5684     2.4695     1.6155     2.6098   204.1703    -999.25 -1614.0444     0.0128     2.4695    25.0000
  1694.9168  6161.2544 6161254.5000    -999.25     0.2159     2.5155     2.8155    -999.25   122.2860    -999.25    -999.25    83.1048     1.6602     1.6106     1.6026  1694.9169    -999.25     6.0022    -999.25 20214.0898     2.4719     1.6026     2.5683   204.4011    -999.25 -1614.1968     0.0144     2.4719    25.0000
  1695.0692  6040.4077 6040407.5000    -999.25     0.2159     2.5059     2.8059    -999.25   124.7224    -999.25    -999.25    81.2451     1.6577     1.6071     1.5998  1695.0692    -999.25     6.0554    -999.25 19817.6094     2.4717     1.5998     2.5594   204.5236    -999.25 -1614.3492     0.0163     2.4717    25.0000
  1695.2216  5887.4805 5887480.5000    -999.25     0.2159     2.5154     2.8154    -999.25   127.7291    -999.25    -999.25    81.3435     1.6613     1.6090     1.6025  1695.2216    -999.25     6.0662    -999.25 19315.8809     2.4672     1.6025     2.5680   204.5695    -999.25 -1614.5016     0.0140     2.4672    25.0000
  1695.3740  5732.8916 5732892.0000    -999.25     0.2159     2.5251     2.8251    -999.25   131.0032    -999.25    -999.25    81.9928     1.6794     1.6246     1.6190  1695.3740    -999.25     6.0237    -999.25 18808.6992     2.4640     1.6190     2.6212   204.5617    -999.25 -1614.6541     0.0111     2.4640    25.0000
  1695.5264  5675.8486 5675848.5000    -999.25     0.2159     2.5311     2.8311    -999.25   132.4648    -999.25    -999.25    82.6878     1.7178     1.6602     1.6556  1695.5264    -999.25     6.0337    -999.25 18621.5508     2.4667     1.6556     2.7410   204.5140    -999.25 -1614.8064     0.0130     2.4667    25.0000
  1695.6788  5759.2114 5759211.0000    -999.25     0.2159     2.5360     2.8360    -999.25   130.9073    -999.25    -999.25    84.9497     1.7869     1.7258     1.7221  1695.6788    -999.25     6.0498    -999.25 18895.0508     2.4735     1.7221     2.9656   204.4643    -999.25 -1614.9589     0.0167     2.4735    25.0000
  1695.8312  5938.4346 5938434.5000    -999.25     0.2159     8.7136     2.8397    -999.25   127.5878    -999.25    -999.25    89.4762     1.8812     1.8160     1.8135  1695.8312    -999.25     6.0602    -999.25 19483.0527     2.4858     1.8135     3.2888   204.3516    -999.25 -1615.1112     0.0218     2.4858    25.0000
  1695.9836  6199.6904 6199690.5000    -999.25     0.2159     8.7059     2.8410    -999.25   123.3715    -999.25    -999.25    95.0624     1.9406     1.8747     1.8734  1695.9836    -999.25     6.0563    -999.25 20340.1914     2.5094     1.8734     3.5096   204.1232    -999.25 -1615.2637     0.0351     2.5094    25.0000
  1696.1360  6407.4131 6407413.5000    -999.25     0.2159     8.7162     2.8410    -999.25   120.9417    -999.25    -999.25    98.2434     1.9233     1.8620     1.8617  1696.1360    -999.25     6.0429    -999.25 21021.6973     2.5424     1.8617     3.4659   203.9374    -999.25 -1615.4160     0.0582     2.5424    25.0000
  1696.2884  6491.2012 6491201.5000    -999.25     0.2159     8.7474     2.8392    -999.25   120.8738    -999.25    -999.25    97.4277     1.8705     1.8149     1.8154  1696.2885    -999.25     6.0381    -999.25 21296.5918     2.5742     1.8154     3.2957   203.9853    -999.25 -1615.5684     0.0838     2.5742    25.0000
  1696.4409  6472.8242 6472824.0000    -999.25     0.2159     8.7692     2.8360    -999.25   120.7555    -999.25    -999.25    95.3570     1.8277     1.7755     1.7764  1696.4409    -999.25     5.6894    -999.25 21236.2988     2.5644     1.7764     3.1556   204.2304    -999.25 -1615.7208    -999.25     2.5644    25.0000
  1696.5932  6313.9253 6313925.5000    -999.25     0.2159     8.7635    -999.25    -999.25   121.1732    -999.25    -999.25    94.3475     1.8041     1.7522     1.7532  1696.5933    -999.25     3.5653    -999.25 20714.9785     2.5101     1.7532     3.0737   204.4842    -999.25 -1615.8732    -999.25     2.5101    25.0000
