~Version ---------------------------------------------------
VERS. 2.0 : CWLS log ASCII Standard -VERSION 2.0
WRAP.  NO : 
~Well ------------------------------------------------------
STRT.m                                                   1280.0 : 
STOP.m                                                 1564.988 : 
STEP.m                                                   0.1524 : 
NULL.                                                   -999.25 : 
COMP.                                                           : COMPANY
WELL.                                                   Well-11 : WELL
FLD .                                                           : FIELD
LOC .                                                           : LOCATION
SRVC.                                                           : SERVICE COMPANY
DATE. 2021-01-20 14:34:05   : Log Export Date {yyyy-MM-dd HH:mm : ss}
PROV.                                                           : PROVINCE
UWI .                                                   Well-11 : UNIQUE WELL ID
API .                                                           : API NUMBER
~Curve Information -----------------------------------------
DEPTH             .m        : DEPTH
ACOUSTICIMPEDANCE1.kPa.s/m  : ACOUSTICIMPEDANCE1
AI                .kPa.s/m  : AI
AVG_PIGN          .m3/m3    : AVG_PIGN
CALI              .in       : CALI
CALI[DERIVED]1    .in       : CALI[DERIVED]1
DFL               .ohm.m    : DFL
DT                .us/ft    : DT
DT1               .us/ft    : DT1
FACIES            ._        : FACIES
FLD1              ._        : FLD1
GR                .gAPI     : GR
HDRS              .ohm.m    : HDRS
HMRS              .ohm.m    : HMRS
DEPTH_1           .m        : DEPTH_1
NPHI              .m3/m3    : NPHI
PERF_INT          ._        : PERF_INT
PERMEABILITY      .mD       : PERMEABILITY
PIGN              .m3/m3    : PIGN
PIGN_MODELLING    .m3/m3    : PIGN_MODELLING
PIMP              .kPa.s/m  : PIMP
RHOB              .g/cm3    : RHOB
LLD               .ohm.m    : LLD
RT_MODELLING      .ohm.m    : RT_MODELLING
RT_POWER          .ohm.m    : RT_POWER
SP                .mV       : SP
SUWI              ._        : SUWI
SUWI_MODELLING    ._        : SUWI_MODELLING
SXWI              ._        : SXWI
TDVSS             .m        : TDVSS
VCL               .%        : VCL
WATER_VOL         ._        : WATER_VOL
ZLT               ._        : ZLT
~Params ----------------------------------------------------
~Other -----------------------------------------------------
~ASCII -----------------------------------------------------
# ...
  1524.7544  9098.0771 9126248.0000    -999.25     9.1812     9.1812     7.1714    87.9239    87.9247     0.0000    -999.25    73.1212     5.0473     4.6432  1524.7544     0.4492    -999.25    -999.25     0.0599     0.0599 29941.7598     2.6245     5.2316     5.2316    27.3696   143.6597     1.0000     1.0000     1.0000 -1444.6344    54.0540     0.0599    -999.25
  1524.7740  9159.3232 9159323.0000    -999.25     9.1767     9.1767     7.6613    86.9329    87.6645     0.0000    -999.25    72.7808     5.0534     4.6637  1524.7739     0.4532    -999.25    -999.25     0.0588     0.0588 30050.2734     2.6124     5.2114     5.2114    27.1614   143.6501     1.0000     1.0000     1.0000 -1444.6539    54.9082     0.0588    -999.25
  1524.9068  8978.1084 9003795.0000    -999.25     9.1463     9.1463    10.9806    85.9014    85.9016     0.0000    -999.25    70.4744     5.0947     4.8022  1524.9069     0.4800    -999.25    -999.25     0.0513     0.0513 29540.0117     2.5303     5.0745     5.0745    25.7506   143.5852     1.0000     1.0000     1.0000 -1444.7869    60.6960     0.0513    -999.25
  1524.9264  8980.8408 8980841.0000    -999.25     9.1425     9.1425    10.6653    85.7492    86.5324     0.0000    -999.25    71.1773     4.9518     4.6839  1524.9264     0.4838    -999.25    -999.25     0.0496     0.0496 29464.7031     2.5266     4.9135     4.9135    24.3178   143.5581     1.0000     1.0000     1.0000 -1444.8064    61.9930     0.0496    -999.25
  1525.0592  8396.3877 8407725.0000    -999.25     9.1166     9.1166     8.5290    90.8041    90.8069     0.0000    -999.25    75.9401     3.9835     3.8821  1525.0592     0.5088    -999.25    -999.25     0.0381     0.0381 27584.4004     2.5014     3.8223     3.8223    14.6100   143.3742     1.0000     1.0000     1.0000 -1444.9392    70.7810     0.0381    -999.25
  1525.0789  8322.7080 8322707.5000    -999.25     9.1154     9.1154     8.0997    91.5540    91.9774     0.0000    -999.25    77.2615     3.8727     3.7812  1525.0789     0.5113    -999.25    -999.25     0.0373     0.0373 27305.4707     2.4999     3.7191     3.7191    13.9036   143.3374     1.0000     1.0000     1.0000 -1444.9589    71.4088     0.0373    -999.25
  1525.2116  7599.9644 7608714.0000    -999.25     9.1068     9.1068     5.2081    99.8622    99.8620     0.0000    -999.25    86.1619     3.1268     3.1018  1525.2117     0.5278    -999.25    -999.25     0.0318     0.0318 24962.9707     2.4900     3.0241     3.0241     9.1452   143.0893     1.0000     1.0000     1.0000 -1445.0917    75.6380     0.0318    -999.25
  1525.2312  7503.2559 7503256.0000    -999.25     9.1113     9.1113     5.0456   101.0893   101.0218     0.0000    -999.25    87.2544     3.0714     3.0479  1525.2312     0.5287    -999.25    -999.25     0.0314     0.0314 24616.9805     2.4885     2.9756     2.9756     8.8701   143.0474     1.0000     1.0000     1.0000 -1445.1112    75.9571     0.0314    -999.25
  1525.3640  6938.6206 6936600.0000    -999.25     9.1420     9.1420     3.9447   108.8761   108.8803     0.0000    -999.25    94.6563     2.6955     2.6826  1525.3640     0.5355    -999.25    -999.25     0.0285     0.0285 22757.8730     2.4785     2.6470     2.6470     7.0066   142.7633     1.0000     1.0000     1.0000 -1445.2440    78.1190     0.0285    -999.25
  1525.3837  6852.5405 6852540.5000    -999.25     9.1487     9.1487     3.9090   110.0312   109.6423     0.0000    -999.25    95.0287     2.6673     2.6536  1525.3837     0.5361    -999.25    -999.25     0.0283     0.0283 22482.0879     2.4737     2.6217     2.6217     6.8778   142.7139     1.0000     1.0000     1.0000 -1445.2637    78.3007     0.0283    -999.25
  1525.5164  6483.8218 6482971.5000    -999.25     9.1940     9.1940     3.6685   114.7751   114.7750     0.0000    -999.25    97.5371     2.4767     2.4588  1525.5165     0.5404    -999.25    -999.25     0.0267     0.0267 21269.5898     2.4415     2.4516     2.4516     6.0103   142.3812     1.0000     1.0000     1.0000 -1445.3965    79.5250     0.0267    -999.25
  1525.5360  6428.3853 6428385.5000    -999.25     9.1975     9.1975     3.6614   115.4758   115.1460     0.0000    -999.25    97.4832     2.4610     2.4421  1525.5360     0.5420    -999.25    -999.25     0.0275     0.0275 21090.5020     2.4354     2.4372     2.4372     5.9413   142.3245     1.0000     1.0000     1.0000 -1445.4160    79.6117     0.0275    -999.25
  1525.6688  6202.0469 6209266.5000    -999.25     9.2211     9.2211     3.6129   117.6597   117.6594     0.0000    -999.25    97.1180     2.3539     2.3289  1525.6688     0.5525    -999.25    -999.25     0.0326     0.0326 20371.6094     2.3941     2.3395     2.3395     5.4733   141.9400     1.0000     1.0000     1.0000 -1445.5488    80.1990     0.0326    -999.25
  1525.6884  6176.9268 6176926.5000    -999.25     9.2170     9.2170     3.5964   117.9820   117.7931     0.0000    -999.25    97.0776     2.3528     2.3269  1525.6884     0.5553    -999.25    -999.25     0.0319     0.0319 20265.5078     2.3910     2.3403     2.3403     5.4772   141.9250     1.0000     1.0000     1.0000 -1445.5684    80.6523     0.0319    -999.25
  1525.8212  6084.5708 6088342.0000    -999.25     9.1892     9.1892     3.4848   118.6985   118.6985     0.0000    -999.25    96.8042     2.3452     2.3129  1525.8213     0.5742    -999.25    -999.25     0.0271     0.0271 19974.8750     2.3695     2.3461     2.3461     5.5042   141.8235     1.0000     1.0000     1.0000 -1445.7012    83.7240     0.0271    -999.25
  1525.8408  6075.2681 6075268.0000    -999.25     9.1840     9.1840     3.4947   118.8043   118.7564     0.0000    -999.25    96.8755     2.3597     2.3262  1525.8408     0.5773    -999.25    -999.25     0.0264     0.0264 19931.9805     2.3680     2.3625     2.3625     5.5834   141.8569     1.0000     1.0000     1.0000 -1445.7207    84.1789     0.0264    -999.25
  1525.9736  6031.4180 6040197.0000    -999.25     9.1483     9.1483     3.5618   119.1493   119.1492     0.0000    -999.25    97.3587     2.4574     2.4164  1525.9736     0.5982    -999.25    -999.25     0.0212     0.0212 19816.9199     2.3577     2.4739     2.4739     6.1202   142.0832     1.0000     1.0000     1.0000 -1445.8536    87.2610     0.0212    -999.25
  1525.9932  6035.0210 6035021.0000    -999.25     9.1486     9.1486     3.6369   119.2002   119.2045     0.0000    -999.25    97.4053     2.4758     2.4358  1525.9932     0.5997    -999.25    -999.25     0.0209     0.0209 19799.9375     2.3602     2.4925     2.4925     6.2149   142.1159     1.0000     1.0000     1.0000 -1445.8732    87.4327     0.0209    -999.25
  1526.1260  6057.6338 6072933.5000    -999.25     9.1505     9.1505     4.1454   119.5791   119.5790     0.0000    -999.25    97.7210     2.5999     2.5672  1526.1260     0.6097    -999.25    -999.25     0.0190     0.0190 19924.3223     2.3765     2.6185     2.6185     6.8565   142.3378     1.0000     1.0000     1.0000 -1446.0060    88.5960     0.0190    -999.25
  1526.1456  6078.5288 6078529.0000    -999.25     9.1563     9.1563     4.2006   119.6350   119.6179     0.0000    -999.25    97.8211     2.6057     2.5760  1526.1455     0.6083    -999.25    -999.25     0.0187     0.0187 19942.6797     2.3858     2.6224     2.6224     6.8769   142.3731     1.0000     1.0000     1.0000 -1446.0255    88.4494     0.0187    -999.25
  1526.2784  6226.4556 6230894.0000    -999.25     9.1960     9.1960     4.5750   119.8815   119.8815     0.0000    -999.25    98.4991     2.6447     2.6361  1526.2784     0.5987    -999.25    -999.25     0.0164     0.0164 20442.5664     2.4489     2.6486     2.6486     7.0151   142.6123     1.0000     1.0000     1.0000 -1446.1584    87.4560     0.0164    -999.25
  1526.2980  6253.3813 6253381.5000    -999.25     9.2085     9.2085     4.5189   119.9179   119.7746     0.0000    -999.25    98.4849     2.6418     2.6351  1526.2980     0.5951    -999.25    -999.25     0.0178     0.0178 20516.3438     2.4603     2.6447     2.6447     6.9946   142.6671     1.0000     1.0000     1.0000 -1446.1780    86.3167     0.0178    -999.25
