~Version ---------------------------------------------------
VERS. 2.0 : CWLS log ASCII Standard -VERSION 2.0
WRAP.  NO : 
~Well ------------------------------------------------------
STRT.m                                                   1250.0 : 
STOP.m                                                1661.9372 : 
STEP.m                                                   0.1524 : 
NULL.                                                   -999.25 : 
COMP.                                                           : COMPANY
WELL.                                                    Well-7 : WELL
FLD .                                                           : FIELD
LOC .                                                           : LOCATION
SRVC.                                                           : SERVICE COMPANY
DATE. 2021-01-20 14:34:01   : Log Export Date {yyyy-MM-dd HH:mm : ss}
PROV.                                                           : PROVINCE
UWI .                                                    Well-7 : UNIQUE WELL ID
API .                                                           : API NUMBER
~Curve Information -----------------------------------------
DEPTH             .m        : DEPTH
ACOUSTICIMPEDANCE1.kPa.s/m  : ACOUSTICIMPEDANCE1
AI                .kPa.s/m  : AI
AVG_PIGN          .m3/m3    : AVG_PIGN
CALI              .in       : CALI
CALI[DERIVED]1    .in       : CALI[DERIVED]1
DEVI              .deg      : DEVI
DFL               .ohm.m    : DFL
DT                .us/ft    : DT
FACIES            ._        : FACIES
FLD1              ._        : FLD1
GR                .gAPI     : GR
HDRS              .ohm.m    : HDRS
HMRS              .ohm.m    : HMRS
DEPTH_1           .m        : DEPTH_1
NPHI              .m3/m3    : NPHI
PEF               .b/e      : PEF
PERF_INT          ._        : PERF_INT
PERMEABILITY      .mD       : PERMEABILITY
PIGN              .m3/m3    : PIGN
PIGN_MODELLING    .m3/m3    : PIGN_MODELLING
PIMP              .kPa.s/m  : PIMP
RHOB              .g/cm3    : RHOB
LLD               .ohm.m    : LLD
RT_MODELLING      .ohm.m    : RT_MODELLING
RT_POWER          .ohm.m    : RT_POWER
SP                .mV       : SP
SUWI              ._        : SUWI
SUWI_MODELLING    ._        : SUWI_MODELLING
SXWI              ._        : SXWI
TDVSS             .m        : TDVSS
VCL               .%        : VCL
WATER_VOL         ._        : WATER_VOL
ZLT               ._        : ZLT
~Params ----------------------------------------------------
~Other -----------------------------------------------------
~ASCII -----------------------------------------------------
# ...
  1523.2532  3631.0515 3674812.2500    -999.25     8.9279     8.9279     0.5430    12.5404   140.1817     3.0000    -999.25    53.0354     5.6591     6.0770  1523.2532     0.7737     2.8332    -999.25     0.0000     0.0001     0.0100 12056.4707     1.6700     5.8479     5.8479    34.1978  -197.9008     1.0000     1.0000     1.0000 -1435.8832    15.0330     0.0001    16.0000
  1523.2772  3626.6384 3626638.5000    -999.25     8.9252     8.9252     0.5510    14.1501   141.1858     3.0000    -999.25    54.3261     5.7134     6.1467  1523.2772     0.7554     2.7843    -999.25     0.0000     0.0001     0.0100 11898.4199     1.6799     5.7506     5.7506    33.1202  -197.9000     1.0000     1.0000     1.0000 -1435.9072    17.9538     0.0001    16.0000
  1523.4056  3704.3354 3738925.2500    -999.25     8.9112     8.9112     0.5627    22.7622   142.5905     3.0000    -999.25    61.2313     6.0044     6.5196  1523.4056     0.6578     2.9360    -999.25     0.0000     0.0001     0.0100 12266.8154     1.7329     5.2302     5.2302    27.3549  -197.9059     1.0000     1.0000     1.0000 -1436.0356    33.5800     0.0001    16.0000
  1523.4296  3759.9136 3759913.5000    -999.25     8.9086     8.9086     0.5649    21.6589   142.8531     3.0000    -999.25    63.7677     5.8260     6.3213  1523.4296     0.6483     2.9644    -999.25     0.0000     0.0002     0.0100 12335.6748     1.7622     5.0201     5.0201    25.4375  -197.9070     1.0000     1.0000     1.0000 -1436.0596    37.9820     0.0002    16.0000
  1523.5580  4194.5044 4213329.0000    -999.25     8.8949     8.8949     0.5291    15.7564   139.4194     3.0000    -999.25    77.3374     4.8718     5.2603  1523.5580     0.5974     3.4512    -999.25     0.0000     0.0008     0.0100 13823.2578     1.9186     3.8961     3.8961    15.1798  -197.9070     1.0000     1.0000     1.0000 -1436.1880    61.5330     0.0008    16.0000
  1523.5820  4298.0791 4298079.5000    -999.25     8.8903     8.8903     0.5224    14.3954   138.7776     3.0000    -999.25    79.7255     4.6583     5.0182  1523.5820     0.5944     3.5422    -999.25     0.0026     0.0020     0.0100 14101.3105     1.9569     3.7524     3.7524    14.1912  -197.9070     1.0000     1.0000     1.0000 -1436.2120    65.5965     0.0020    16.0000
  1523.7104  5004.7295 5003151.0000    -999.25     8.8659     8.8659     0.5103     7.1136   131.6704     3.0000    -999.25    92.5019     3.5157     3.7226  1523.7104     0.5784     4.1396    -999.25     0.0162     0.0081     0.0100 16414.5371     2.1620     2.9837     2.9837     8.9022  -197.9031     1.0000     1.0000     1.0000 -1436.3403    87.3360     0.0081    16.0000
  1523.7344  5134.9404 5134940.0000    -999.25     8.8607     8.8607     0.5080     6.5979   130.3419     3.0000    -999.25    93.7425     3.4055     3.5973  1523.7344     0.5790     4.2513    -999.25     0.0302     0.0093     0.0108 16846.9160     2.1959     2.9296     2.9296     8.5979  -197.9024     1.0000     1.0000     1.0000 -1436.3644    89.0127     0.0093    16.0000
  1523.8628  5940.6064 5930057.0000    -999.25     8.8326     8.8326     0.4494     3.8389   121.9620     3.0000    -999.25   100.3796     2.8159     2.9274  1523.8628     0.5823     4.7478    -999.25     0.1053     0.0153     0.0153 19455.5684     2.3771     2.6401     2.6401     6.9700  -197.9011     1.0000     1.0000     1.0000 -1436.4928    97.9830     0.0153    16.0000
  1523.8868  6078.6772 6078677.0000    -999.25     8.8316     8.8316     0.4385     3.7348   120.3956     3.0000    -999.25   100.5622     2.7809     2.8856  1523.8868     0.5783     4.8406    -999.25     0.1114     0.0158     0.0158 19943.1660     2.4011     2.6278     2.6278     6.9060  -197.9009     1.0000     1.0000     1.0000 -1436.5167    96.3195     0.0158    16.0000
  1524.0152  6768.6133 6756264.5000    -999.25     8.8262     8.8262     0.4654     3.1775   113.9078     3.0000    -999.25   101.5388     2.5934     2.6621  1524.0151     0.5569     5.2012    -999.25     0.1437     0.0183     0.0183 22166.2227     2.5295     2.5620     2.5620     6.5637  -197.8922     1.0000     1.0000     1.0000 -1436.6451    87.4200     0.0183    16.0000
  1524.0392  6882.9165 6882916.5000    -999.25     8.8239     8.8239     0.4704     3.1929   112.6951     3.0000    -999.25   101.2112     2.5879     2.6517  1524.0392     0.5544     5.2686    -999.25     0.1517     0.0188     0.0188 22581.7480     2.5449     2.5604     2.5604     6.5558  -197.8906     1.0000     1.0000     1.0000 -1436.6692    85.6855     0.0188    16.0000
  1524.1676  7305.8184 7287151.5000    -999.25     8.8113     8.8113     0.4498     3.2754   109.5939     0.0000    -999.25    99.4586     2.5586     2.5960  1524.1676     0.5408     5.5073    -999.25     0.1946     0.0214     0.0214 23907.9766     2.6269     2.5521     2.5521     6.5134  -197.8822     1.0000     1.0000     1.0000 -1436.7976    76.4060     0.0214    16.0000
  1524.1917  7363.0239 7363024.0000    -999.25     8.8078     8.8078     0.4459     3.3151   109.0118     0.0000    -999.25    98.9339     2.5575     2.5901  1524.1917     0.5414     5.5521    -999.25     0.1970     0.0215     0.0215 24156.9023     2.6334     2.5499     2.5499     6.5019  -197.8806     1.0000     1.0000     1.0000 -1436.8217    76.3413     0.0215    16.0000
  1524.3200  7482.6914 7471461.5000    -999.25     8.7888     8.7888     0.4901     3.5264   108.6796     0.0000    -999.25    96.1411     2.5514     2.5586  1524.3199     0.5446     5.6698    -999.25     0.2094     0.0218     0.0218 24512.6680     2.6680     2.5379     2.5379     6.4409  -197.8834     1.0000     1.0000     1.0000 -1436.9500    75.9970     0.0218    16.0000
  1524.3440  7491.7461 7491746.0000    -999.25     8.7982     8.7982     0.4984     3.5507   108.6174     0.0000    -999.25    95.9188     2.5481     2.5520  1524.3440     0.5447     5.6918    -999.25     0.2110     0.0219     0.0219 24579.2188     2.6697     2.5370     2.5370     6.4364  -197.8839     1.0000     1.0000     1.0000 -1436.9740    75.9436     0.0219    16.0000
  1524.4724  7476.0127 7464882.0000    -999.25     8.8484     8.8484     0.4581     3.6806   109.2170     0.0000    -999.25    94.7294     2.5303     2.5167  1524.4724     0.5454     5.7548    -999.25     0.2193     0.0221     0.0221 24491.0820     2.6788     2.5322     2.5322     6.4122  -197.8863     1.0000     1.0000     1.0000 -1437.1024    75.6580     0.0221    16.0000
  1524.4965  7459.8398 7459839.5000    -999.25     8.8519     8.8519     0.4505     3.7217   109.3295     0.0000    -999.25    94.9498     2.5306     2.5166  1524.4965     0.5435     5.7666    -999.25     0.2158     0.0221     0.0221 24474.5391     2.6758     2.5369     2.5369     6.4361  -197.8867     1.0000     1.0000     1.0000 -1437.1265    75.7122     0.0221    16.0000
  1524.6248  7331.5054 7319727.0000    -999.25     8.8706     8.8706     0.4508     3.9406   110.5702     0.0000    -999.25    96.1230     2.5322     2.5161  1524.6248     0.5338     5.7469    -999.25     0.1975     0.0221     0.0221 24014.8535     2.6596     2.5619     2.5619     6.5633  -197.8920     1.0000     1.0000     1.0000 -1437.2548    76.0010     0.0221    16.0000
  1524.6488  7293.5176 7293517.5000    -999.25     8.8712     8.8712     0.4508     3.9714   110.8023     0.0000    -999.25    96.3274     2.5379     2.5244  1524.6488     0.5329     5.7432    -999.25     0.2093     0.0225     0.0225 23928.8633     2.6514     2.5763     2.5763     6.6384  -197.8930     1.0000     1.0000     1.0000 -1437.2788    76.0777     0.0225    16.0000
  1524.7772  7081.2334 7073885.0000    -999.25     8.8746     8.8746     0.5589     4.1363   112.2295     0.0000    -999.25    97.4211     2.5684     2.5687  1524.7772     0.5286     5.6358    -999.25     0.2724     0.0249     0.0249 23208.2832     2.6074     2.6533     2.6533     7.0402  -197.9049     1.0000     1.0000     1.0000 -1437.4072    76.4880     0.0249    16.0000
  1524.8013  7032.6611 7032661.0000    -999.25     8.8730     8.8730     0.5792     4.1160   112.4974     0.0000    -999.25    97.4722     2.5862     2.5918  1524.8013     0.5281     5.6156    -999.25     0.2953     0.0255     0.0255 23073.0352     2.5957     2.6823     2.6823     7.1994  -197.9071     1.0000     1.0000     1.0000 -1437.4313    76.8163     0.0255    16.0000
