~Version ---------------------------------------------------
VERS. 2.0 : CWLS log ASCII Standard -VERSION 2.0
WRAP.  NO : 
~Well ------------------------------------------------------
STRT.m                                                1333.6522 : 
STOP.m                                                1778.5078 : 
STEP.m                                                   0.1524 : 
NULL.                                                   -999.25 : 
COMP.                                                           : COMPANY
WELL.                                                   Well-15 : WELL
FLD .                                                           : FIELD
LOC .                                                           : LOCATION
SRVC.                                                           : SERVICE COMPANY
DATE. 2021-01-20 14:34:07   : Log Export Date {yyyy-MM-dd HH:mm : ss}
PROV.                                                           : PROVINCE
UWI .                                                   Well-15 : UNIQUE WELL ID
API .                                                           : API NUMBER
~Curve Information -----------------------------------------
DEPTH             .m        : DEPTH
ACOUSTICIMPEDANCE1.kPa.s/m  : ACOUSTICIMPEDANCE1
AI                .kPa.s/m  : AI
BS                .in       : BS
CALI              .in       : CALI
CALI[DERIVED]1    .in       : CALI[DERIVED]1
DRES              .ohm.m    : DRES
DT                .us/ft    : DT
DT2               .us/ft    : DT2
DT4P              .us/ft    : DT4P
FACIES            ._        : FACIES
FLD1              ._        : FLD1
GR                .gAPI     : GR
GR_EDTC           .gAPI     : GR_EDTC
LLD               .ohm.m    : LLD
LLS               .ohm.m    : LLS
M2R2              .ohm.m    : M2R2
LLS_1             .ohm.m    : LLS_1
LLD_1             .ohm.m    : LLD_1
DEPTH_1           .m        : DEPTH_1
MSFL              .ohm.m    : MSFL
NPHI              .m3/m3    : NPHI
PERF_INT          ._        : PERF_INT
PIMP              .kPa.s/m  : PIMP
PR                ._        : PR
RHOB              .g/cm3    : RHOB
RT_MODELLING      .ohm.m    : RT_MODELLING
RT_POWER          .ohm.m    : RT_POWER
SP                .mV       : SP
TDVSS             .m        : TDVSS
TENS              .t        : TENS
VPVS              ._        : VPVS
ZLT               ._        : ZLT
~Params ----------------------------------------------------
~Other -----------------------------------------------------
~ASCII -----------------------------------------------------
# ...
  1381.2010  8800.7227 8800700.0000     8.5000     8.7626     8.7626     2.1068    69.3883   230.4734    69.3883     0.0000    -999.25    76.8524    53.6072    59.3987    54.6835     2.3390     2.0290     2.0770  1381.2009    29.7082     0.5258    -999.25 28873.6855     0.4502     2.0035    59.3987  3528.2056   238.7366 -1213.0023  1720.1339     3.3215    -999.25
  1381.3534  8906.7832 8906714.0000     8.5000     8.7492     8.7492     2.2275    67.9700   232.1028    67.9700     0.0000    -999.25    78.1972    54.0950    60.5200    57.0078     2.5397     2.1678     2.2248  1381.3534     8.3950     0.5288    -999.25 29221.5020     0.4531     1.9862    60.5200  3662.6704   238.6723 -1213.1094  1654.0867     3.4148    -999.25
  1381.5058  8850.2842 8850283.0000     8.5000     8.7454     8.7454     2.3159    67.3845   231.9548    67.3845     0.0000    -999.25    79.8526    52.2142    60.5200    87.1961     2.7029     2.2839     2.3529  1381.5057    11.3397     0.5404    -999.25 29036.3633     0.4539     1.9566    60.5200  3662.6704   238.5476 -1213.2164  1591.0826     3.4423    -999.25
  1381.6582  8721.7295 8721804.0000     8.5000     8.7450     8.7450     2.2101    67.3433   234.0490    67.3433     0.0000    -999.25    80.0276    53.7691    60.5200    98.6000     2.5253     2.1562     2.2242  1381.6582    10.4788     0.5471    -999.25 28614.8398     0.4549     1.9270    60.5200  3662.6704   238.4352 -1213.3235  1581.0132     3.4755    -999.25
  1381.8106  8572.9668 8572994.0000     8.5000     8.7488     8.7488     2.0896    67.9039   231.0384    67.9039     0.0000    -999.25    79.4596    51.1098    60.5200    91.2225     2.2902     1.9892     2.0531  1381.8105    26.9782     0.5407    -999.25 28126.6230     0.4527     1.9099    60.5200  3662.6704   238.4075 -1213.4305  1727.8071     3.4024    -999.25
  1381.9630  8423.0996 8423102.0000     8.5000     8.7464     8.7464     2.1915    68.6597   230.8166    68.6597     0.0000    -999.25    79.6338    54.4143    60.5200    79.9907     2.3878     2.0718     2.1488  1381.9630    21.6553     0.5380    -999.25 27634.8477     0.4515     1.8974    60.5200  3662.6704   238.4416 -1213.5376  1910.7599     3.3618    -999.25
  1382.1154  8318.3838 8318377.0000     8.5000     8.7423     8.7423     2.5295    69.0697   232.7050    69.0697     0.0000    -999.25    79.9038    53.1728    60.5200    91.1812     2.8373     2.4195     2.5334  1382.1154     6.4894     0.5307    -999.25 27291.2617     0.4517     1.8850    60.5200  3662.6704   238.4889 -1213.6447  2004.8766     3.3691    -999.25
  1382.2678  8248.5234 8248568.5000     8.5000     8.7416     8.7416     2.8208    69.1410   234.3552    69.1410     0.0000    -999.25    77.7662    56.0914    60.5200    98.6000     3.2006     2.7067     2.8617  1382.2677     4.4295     0.5249    -999.25 27062.2344     0.4523     1.8711    60.5200  3662.6704   238.5539 -1213.7517  1927.1024     3.3896    -999.25
  1382.4202  8213.6855 8213705.0000     8.5000     8.7413     8.7413     2.8723    69.2079   234.3161    69.2079     0.0000    -999.25    72.3538    56.2233    60.5200    95.2541     3.1861     2.7320     2.9010  1382.4202     4.3423     0.5282    -999.25 26947.8516     0.4522     1.8650    60.5200  3662.6704   238.6616 -1213.8588  1885.0552     3.3857    -999.25
  1382.5726  8120.4907 8120488.0000     8.5000     8.7417     8.7417     2.7746    69.9046   245.0092    69.9046     0.0000    -999.25    66.0412    54.3253    60.5200    83.7278     2.9643     2.6072     2.7672  1382.5725     4.2562     0.5420    -999.25 26642.0215     0.4557     1.8624    60.5200  3662.6704   238.7826 -1213.9658  1862.0302     3.5049    -999.25
  1382.7250  8184.6289 8184627.5000     8.5000     8.7393     8.7393     2.6986    69.2339   233.2945    69.2339     0.0000    -999.25    62.6099    55.0283    60.5200    79.0102     2.8231     2.5331     2.6871  1382.7250     4.5410     0.5509    -999.25 26852.4531     0.4517     1.8591    60.5200  3662.6704   238.8550 -1214.0729  1806.0735     3.3697    -999.25
  1382.8774  8303.3242 8303379.0000     8.5000     8.7408     8.7408     2.7180    68.1084   244.6321    68.1084     0.0000    -999.25    63.5964    52.6930    60.5200    84.2299     2.7940     2.5400     2.6950  1382.8773    19.2479     0.5515    -999.25 27242.0566     0.4580     1.8554    60.5200  3662.6704   238.8476 -1214.1799  1748.0762     3.5918    -999.25
  1383.0298  8482.9092 8482948.0000     8.5000     8.7431     8.7431     2.9758    66.8533   236.3431    66.8533     0.0000    -999.25    67.2454    56.4413    60.5200    78.6683     2.9866     2.7267     2.9036  1383.0298    12.4308     0.5514    -999.25 27831.1953     0.4565     1.8606    60.5200  3662.6704   238.7758 -1214.2870  1696.0682     3.5353    -999.25
  1383.1822  8558.7285 8558755.0000     8.5000     8.7429     8.7429     3.6958    66.6529   241.5316    66.6529     0.0000    -999.25    70.7436    56.0327    60.5200    83.6258     3.7518     3.3989     3.6718  1383.1821     4.4555     0.5525    -999.25 28079.9043     0.4588     1.8716    60.5200  3662.6704   238.6689 -1214.3940  1786.8806     3.6237    -999.25
  1383.3346  8424.0869 8424036.0000     8.5000     8.7391     8.7391     4.2683    68.2754   233.0943    68.2754     0.0000    -999.25    73.7842    54.7193    60.5200    80.8719     4.4694     4.0434     4.4183  1383.3346    13.3023     0.5433    -999.25 27637.9160     0.4531     1.8870    60.5200  3662.6704   238.5578 -1214.5011  1829.9436     3.4141    -999.25
  1383.4870  8578.6035 8578545.0000     8.5000     8.7399     8.7399     3.7698    67.2623   233.2710    67.2623     0.0000    -999.25    78.4330    52.3806    60.5200    91.5325     3.8863     3.6679     3.9641  1383.4869    12.5160     0.5307    -999.25 28144.8340     0.4547     1.8931    60.5200  3662.6704   238.4971 -1214.6082  1921.8793     3.4681    -999.25
  1383.6394  8506.9053 8506905.0000     8.5000     8.7423     8.7423     2.5945    67.6787   233.9318    67.6787     0.0000    -999.25    83.9799    49.9981    60.5200    88.5739     2.3878     2.3487     2.4678  1383.6394    12.4862     0.5250    -999.25 27909.7969     0.4543     1.8889    60.5200  3662.6704   238.5455 -1214.7152  1926.9934     3.4565    -999.25
  1383.7918  8679.0498 8679095.0000     8.5000     8.7420     8.7420     1.8427    66.1854   233.0272    66.1854     0.0000    -999.25    87.3063    50.3998    60.5200    73.3098     1.6906     1.6816     1.7646  1383.7917    22.9293     0.5337    -999.25 28474.7207     0.4561     1.8846    60.5200  3662.6704   238.6991 -1214.8223  1909.0237     3.5208    -999.25
  1383.9442  8622.9844 8622955.0000     8.5000     8.7389     8.7389     1.6636    66.7005   231.6434    66.7005     0.0000    -999.25    88.6624    48.8076    60.5200    88.5177     1.5490     1.5431     1.6111  1383.9442   238.3761     0.5455    -999.25 28290.5332     0.4548     1.8870    60.5200  3662.6704   238.8873 -1214.9293  1909.9987     3.4729    -999.25
  1384.0966  8429.9668 8429959.0000     8.5000     8.7412     8.7412     1.8849    68.1301   231.5798    68.1301     0.0000    -999.25    90.5609    52.2557    60.5200    91.9442     1.8036     1.7746     1.8456  1384.0966   794.3214     0.5489    -999.25 27657.3438     0.4526     1.8843    60.5200  3662.6704   239.0385 -1215.0364  1845.0853     3.3991    -999.25
  1384.2490  8755.5273 8755548.0000     8.5000     8.7414     8.7414     2.2029    65.4193   242.1156    65.4193     0.0000    -999.25    92.6960    56.9018    60.5200    73.8129     2.2485     2.1586     2.2645  1384.2489   341.9182     0.5491    -999.25 28725.5527     0.4606     1.8792    60.5200  3662.6704   239.1288 -1215.1434  1849.9934     3.7010    -999.25
  1384.4014  8494.8281 8494886.0000     8.5000     8.7414     8.7414     2.1957    67.2655   238.0869    67.2655     0.0000    -999.25    93.2912    57.2806    60.5200    65.1589     2.2811     2.1412     2.2472  1384.4014    37.3760     0.5511    -999.25 27870.3613     0.4566     1.8747    60.5200  3662.6704   239.1649 -1215.2505  1833.0223     3.5395    -999.25
