~Version ---------------------------------------------------
VERS. 2.0 : CWLS log ASCII Standard -VERSION 2.0
WRAP.  NO : 
~Well ------------------------------------------------------
STRT.m                                                   1250.0 : 
STOP.m                                                1661.9372 : 
STEP.m                                                   0.1524 : 
NULL.                                                   -999.25 : 
COMP.                                                           : COMPANY
WELL.                                                    Well-7 : WELL
FLD .                                                           : FIELD
LOC .                                                           : LOCATION
SRVC.                                                           : SERVICE COMPANY
DATE. 2021-01-20 14:34:01   : Log Export Date {yyyy-MM-dd HH:mm : ss}
PROV.                                                           : PROVINCE
UWI .                                                    Well-7 : UNIQUE WELL ID
API .                                                           : API NUMBER
~Curve Information -----------------------------------------
DEPTH             .m        : DEPTH
ACOUSTICIMPEDANCE1.kPa.s/m  : ACOUSTICIMPEDANCE1
AI                .kPa.s/m  : AI
AVG_PIGN          .m3/m3    : AVG_PIGN
CALI              .in       : CALI
CALI[DERIVED]1    .in       : CALI[DERIVED]1
DEVI              .deg      : DEVI
DFL               .ohm.m    : DFL
DT                .us/ft    : DT
FACIES            ._        : FACIES
FLD1              ._        : FLD1
GR                .gAPI     : GR
HDRS              .ohm.m    : HDRS
HMRS              .ohm.m    : HMRS
DEPTH_1           .m        : DEPTH_1
NPHI              .m3/m3    : NPHI
PEF               .b/e      : PEF
PERF_INT          ._        : PERF_INT
PERMEABILITY      .mD       : PERMEABILITY
PIGN              .m3/m3    : PIGN
PIGN_MODELLING    .m3/m3    : PIGN_MODELLING
PIMP              .kPa.s/m  : PIMP
RHOB              .g/cm3    : RHOB
LLD               .ohm.m    : LLD
RT_MODELLING      .ohm.m    : RT_MODELLING
RT_POWER          .ohm.m    : RT_POWER
SP                .mV       : SP
SUWI              ._        : SUWI
SUWI_MODELLING    ._        : SUWI_MODELLING
SXWI              ._        : SXWI
TDVSS             .m        : TDVSS
VCL               .%        : VCL
WATER_VOL         ._        : WATER_VOL
ZLT               ._        : ZLT
~Params ----------------------------------------------------
~Other -----------------------------------------------------
~ASCII -----------------------------------------------------
# ...
  1551.7520  2473.5146 2472310.0000    -999.25     8.7471     8.7471     0.8889    88.7541   150.3597     3.0000    -999.25    14.3938    83.0356    94.2889  1551.7520     0.8148     0.8043    -999.25     0.0519     0.0001     0.0100  8111.2534     1.2202    78.9335    78.9335  6230.4932  -197.9575     1.0000     1.0000     1.0000 -1464.3820     0.0010     0.0001    19.0000
  1551.7760  2473.5237 2473523.7500    -999.25     8.7470     8.7470     0.8942    88.5918   150.3578     3.0000    -999.25    14.6393    82.2629    93.3671  1551.7760     0.8210     0.8077    -999.25     0.0517     0.0001     0.0100  8115.2354     1.2202    76.4300    76.4300  5875.0698  -197.9583     1.0000     1.0000     1.0000 -1464.4060     0.0010     0.0001    19.0000
  1551.9044  2474.8330 2476659.0000    -999.25     8.7462     8.7462     0.9016    87.7235   150.2710     3.0000    -999.25    15.9531    78.1290    88.4354  1551.9044     0.8538     0.7424    -999.25     0.0510     0.0001     0.0100  8125.5220     1.2201    63.0362    63.0362  3973.5564  -197.9524     1.0000     1.0000     1.0000 -1464.5344     0.0010     0.0001    19.0000
  1551.9285  2477.2476 2477247.5000    -999.25     8.7461     8.7461     0.9030    87.4836   150.2547     3.0000    -999.25    16.3150    74.7792    84.3052  1551.9285     0.8506     0.7302    -999.25     0.0508     0.0001     0.0100  8127.4526     1.2212    59.3797    59.3797  3597.1216  -197.9513     1.0000     1.0000     1.0000 -1464.5585     0.0010     0.0001    19.0000
  1552.0568  2491.6018 2502452.2500    -999.25     8.7460     8.7460     0.9223    86.2063   150.0780     3.0000    -999.25    18.2419    56.9458    62.3176  1552.0568     0.8337     0.6622    -999.25     0.0501     0.0001     0.0100  8210.1445     1.2268    39.9138    39.9138  1593.1138  -197.9477     1.0000     1.0000     1.0000 -1464.6868     0.0010     0.0001    19.0000
  1552.0808  2507.1670 2507167.0000    -999.25     8.7464     8.7464     0.9259    86.2240   150.0450     3.0000    -999.25    18.9838    53.1843    58.0710  1552.0808     0.8328     0.6495    -999.25     0.0499     0.0001     0.0100  8225.6133     1.2342    37.5230    37.5230  1438.5543  -197.9470     1.0000     1.0000     1.0000 -1464.7108     0.0016     0.0001    19.0000
  1552.2092  2592.9661 2607484.7500    -999.25     8.7488     8.7488     0.9422    86.3184   149.7289     3.0000    -999.25    22.9534    33.0598    35.3512  1552.2092     0.8281     0.7492    -999.25     0.0491     0.0001     0.0100  8554.7402     1.2738    24.7318    24.7318   611.6614  -197.9487     1.0000     1.0000     1.0000 -1464.8392     0.0050     0.0001    19.0000
  1552.2333  2626.3142 2626314.0000    -999.25     8.7524     8.7524     0.9453    86.1579   149.6696     3.0000    -999.25    24.1599    31.4162    33.5542  1552.2333     0.8283     0.7679    -999.25     0.0490     0.0001     0.0100  8616.5156     1.2896    23.5983    23.5983   563.7209  -197.9490     1.0000     1.0000     1.0000 -1464.8633     0.1024     0.0001    19.0000
  1552.3616  2813.5833 2827646.7500    -999.25     8.7715     8.7715     0.9474    85.3034   148.8606     3.0000    -999.25    30.5829    22.6664    23.9874  1552.3616     0.8292     1.0534    -999.25     0.0482     0.0001     0.0100  9277.0566     1.3741    17.5642    17.5642   308.5022  -197.9574     1.0000     1.0000     1.0000 -1464.9916     0.6210     0.0001    19.0000
  1552.3856  2865.3083 2865308.2500    -999.25     8.7713     8.7713     0.9478    80.6269   148.7093     3.0000    -999.25    32.0675    21.5985    22.8497  1552.3856     0.8170     1.1068    -999.25     0.0481     0.0001     0.0100  9400.6182     1.3980    16.5686    16.5686   279.8225  -197.9590     1.0000     1.0000     1.0000 -1465.0156     1.6339     0.0001    19.0000
  1552.5140  3168.4478 3174349.7500    -999.25     8.7700     8.7700     0.9446    55.6077   146.7509     3.0000    -999.25    40.0102    15.8850    16.7630  1552.5140     0.7521     1.5897    -999.25     0.0473     0.0001     0.0100 10414.5332     1.5255    11.2422    11.2422   126.3866  -197.9576     1.0000     1.0000     1.0000 -1465.1440     7.0530     0.0001    19.0000
  1552.5380  3232.1145 3232114.5000    -999.25     8.7669     8.7669     0.9440    50.4592   146.3848     3.0000    -999.25    41.5383    14.8652    15.6882  1552.5380     0.7436     1.6800    -999.25     0.0472     0.0001     0.0100 10604.0498     1.5523    10.5720    10.5720   114.1697  -197.9573     1.0000     1.0000     1.0000 -1465.1680     8.9710     0.0001    19.0000
  1552.6664  3596.5364 3583772.5000    -999.25     8.7506     8.7506     0.9589    22.9147   143.6906     3.0000    -999.25    49.7136     9.4091     9.9382  1552.6664     0.6981     2.2325    -999.25     0.0464     0.0001     0.0100 11757.7842     1.6955     6.9864     6.9864    48.8094  -197.9491     1.0000     1.0000     1.0000 -1465.2964    19.2320     0.0001    19.0000
  1552.6904  3649.5032 3649503.0000    -999.25     8.7487     8.7487     0.9617    21.0294   143.1870     3.0000    -999.25    50.9623     8.9111     9.4100  1552.6904     0.6954     2.3358    -999.25     0.0463     0.0001     0.0100 11973.4355     1.7144     6.7531     6.7531    45.8951  -197.9476     1.0000     1.0000     1.0000 -1465.3204    20.6104     0.0001    19.0000
  1552.8188  3934.4714 3915507.7500    -999.25     8.7383     8.7383     0.9657    10.9431   140.6661     3.0000    -999.25    57.6430     6.2468     6.5843  1552.8188     0.6809     2.7205    -999.25     0.0455     0.0001     0.0100 12846.1533     1.8158     5.5049     5.5049    30.3038  -197.9493     1.0000     1.0000     1.0000 -1465.4489    27.9850     0.0001    19.0000
  1552.8428  3965.2283 3965228.2500    -999.25     8.7368     8.7368     0.9664    10.3803   140.1949     3.0000    -999.25    58.4576     6.0961     6.4161  1552.8428     0.6789     2.7924    -999.25     0.0454     0.0001     0.0100 13009.2783     1.8238     5.4864     5.4864    30.1020  -197.9496     1.0000     1.0000     1.0000 -1465.4728    28.1003     0.0001    19.0000
  1552.9712  4104.3047 4084210.7500    -999.25     8.7287     8.7287     0.9704     7.3693   138.6485     3.0000    -999.25    62.8160     5.2899     5.5165  1552.9712     0.6681     2.9994    -999.25     0.0446     0.0001     0.0100 13399.6416     1.8670     5.3873     5.3873    29.0226  -197.9581     1.0000     1.0000     1.0000 -1465.6012    28.7170     0.0001    19.0000
  1552.9952  4106.4507 4106450.5000    -999.25     8.7290     8.7290     0.9711     7.3143   138.3594     3.0000    -999.25    63.1493     5.3145     5.5317  1552.9952     0.6713     3.0381    -999.25     0.0445     0.0001     0.0100 13472.6064     1.8641     5.4711     5.4711    29.9707  -197.9597     1.0000     1.0000     1.0000 -1465.6252    27.9257     0.0001    19.0000
  1553.1236  4060.8638 4050008.7500    -999.25     8.7304     8.7304     0.9780     7.0201   138.7408     3.0000    -999.25    64.9327     5.4460     5.6131  1553.1235     0.6885     3.0623    -999.25     0.0437     0.0001     0.0100 13287.4307     1.8484     5.9197     5.9197    35.0432  -197.9516     1.0000     1.0000     1.0000 -1465.7535    23.6920     0.0001    19.0000
  1553.1476  4039.4590 4039459.0000    -999.25     8.7305     8.7305     0.9793     7.1667   138.8121     3.0000    -999.25    64.8303     5.5485     5.7120  1553.1476     0.6899     3.0668    -999.25     0.0435     0.0001     0.0100 13252.8184     1.8397     6.0383     6.0383    36.5357  -197.9501     1.0000     1.0000     1.0000 -1465.7776    22.7511     0.0001    19.0000
  1553.2760  3886.2922 3890051.5000    -999.25     8.7310     8.7310     0.9913     7.9509   140.5912     3.0000    -999.25    64.2825     6.0971     6.2410  1553.2760     0.6973     2.9996    -999.25     0.0428     0.0001     0.0100 12762.6367     1.7926     6.6724     6.6724    44.5208  -197.9416     1.0000     1.0000     1.0000 -1465.9060    17.7170     0.0001    19.0000
  1553.3000  3862.1250 3862125.0000    -999.25     8.7310     8.7310     0.9936     8.2770   140.9237     3.0000    -999.25    63.7867     6.2222     6.3716  1553.2999     0.7062     2.9870    -999.25     0.0426     0.0001     0.0100 12671.0137     1.7856     6.7741     6.7741    45.9433  -197.9400     1.0000     1.0000     1.0000 -1465.9299    17.2392     0.0001    19.0000
