~Version ---------------------------------------------------
VERS. 2.0 : CWLS log ASCII Standard -VERSION 2.0
WRAP.  NO : 
~Well ------------------------------------------------------
STRT.m                                                   1300.0 : 
STOP.m                                                1481.9656 : 
STEP.m                                                   0.1524 : 
NULL.                                                   -999.25 : 
COMP.                                                           : COMPANY
WELL.                                                    Well-3 : WELL
FLD .                                                           : FIELD
LOC .                                                           : LOCATION
SRVC.                                                           : SERVICE COMPANY
DATE. 2021-01-20 14:34:00   : Log Export Date {yyyy-MM-dd HH:mm : ss}
PROV.                                                           : PROVINCE
UWI .                                                    Well-3 : UNIQUE WELL ID
API .                                                           : API NUMBER
~Curve Information -----------------------------------------
DEPTH             .m        : DEPTH
ACOUSTICIMPEDANCE1.kPa.s/m  : ACOUSTICIMPEDANCE1
AI                .kPa.s/m  : AI
AVG_PIGN          .m3/m3    : AVG_PIGN
BS                .in       : BS
CALI              .in       : CALI
CALI[DERIVED]1    .in       : CALI[DERIVED]1
CALI1             .in       : CALI1
DEVI              .deg      : DEVI
DFL               .ohm.m    : DFL
DT                .us/ft    : DT
DT1               .us/ft    : DT1
FACIES            ._        : FACIES
FLD1              ._        : FLD1
GR                .gAPI     : GR
HDRS              .ohm.m    : HDRS
HMRS              .ohm.m    : HMRS
DEPTH_1           .m        : DEPTH_1
NPHI              .m3/m3    : NPHI
PERF_INT          ._        : PERF_INT
PERMEABILITY      .mD       : PERMEABILITY
PIGN              .m3/m3    : PIGN
PIGN_MODELLING    .m3/m3    : PIGN_MODELLING
PIMP              .kPa.s/m  : PIMP
RHOB              .g/cm3    : RHOB
RT_MODELLING      .ohm.m    : RT_MODELLING
RT_POWER          .ohm.m    : RT_POWER
SP                .mV       : SP
SUWI              ._        : SUWI
SUWI_MODELLING    ._        : SUWI_MODELLING
TDVSS             .m        : TDVSS
VCL               .%        : VCL
WATER_VOL         ._        : WATER_VOL
ZLT               ._        : ZLT
~Params ----------------------------------------------------
~Other -----------------------------------------------------
~ASCII -----------------------------------------------------
# ...
  1348.6156  5373.3994 5374078.0000    -999.25     8.5000     9.2253     9.2253     9.2253     1.2633     1.5979   132.1519   132.1519     0.0000    -999.25    71.6804     1.2937     1.2929  1348.6156     0.5793    -999.25    -999.25     0.0147     0.0147 17631.4883     2.3297     1.5979     2.5534   297.2351     1.0000     1.0000 -1272.4556    83.8710     0.0147     0.0000
  1348.6422  5352.3560 5352356.0000    -999.25     8.5000     9.1832     9.1832     9.1734     1.2781     1.5686   132.5296   132.4399     0.0000    -999.25    71.8564     1.2843     1.2835  1348.6422     0.5820    -999.25    -999.25     0.0144     0.0144 17560.2227     2.3272     1.5686     2.4645   297.4134     1.0000     1.0000 -1272.4822    84.1129     0.0144     0.0000
  1348.7680  5274.6226 5275725.5000    -999.25     8.5000     8.9277     8.9277     8.9277     1.2258     1.4297   133.8020   133.8019     0.0000    -999.25    72.6887     1.2394     1.2393  1348.7679     0.5949    -999.25    -999.25     0.0134     0.0134 17308.8086     2.3155     1.4297     2.0440   298.2564     1.0000     1.0000 -1272.6079    85.2570     0.0134     0.0000
  1348.7946  5259.5220 5259522.0000    -999.25     8.5000     8.8737     8.8737     8.8898     1.2147     1.4135   134.0711   133.9724     0.0000    -999.25    72.8939     1.2339     1.2336  1348.7946     0.5965    -999.25    -999.25     0.0133     0.0133 17255.6484     2.3135     1.4135     1.9991   298.3758     1.0000     1.0000 -1272.6345    85.3757     0.0133     0.0000
  1348.9204  5210.6626 5213603.5000    -999.25     8.5000     8.7102     8.7102     8.7102     1.1202     1.3368   134.7788   134.7787     0.0000    -999.25    73.8644     1.2081     1.2065  1348.9204     0.6042    -999.25    -999.25     0.0128     0.0128 17104.9980     2.3041     1.3368     1.7870   298.9402     1.0000     1.0000 -1272.7604    85.9370     0.0128     0.0000
  1348.9470  5203.8940 5203894.0000    -999.25     8.5000     8.6756     8.6756     8.6991     1.1002     1.3323   134.9284   134.8379     0.0000    -999.25    74.0944     1.2053     1.2034  1348.9470     0.6049    -999.25    -999.25     0.0128     0.0128 17073.1445     2.3037     1.3323     1.7752   298.9841     1.0000     1.0000 -1272.7870    85.9665     0.0128     0.0000
  1349.0728  5191.9209 5196529.0000    -999.25     8.5000     8.6465     8.6465     8.6466     1.0002     1.3112   135.1179   135.1179     0.0000    -999.25    75.1821     1.1923     1.1887  1349.0728     0.6082    -999.25    -999.25     0.0126     0.0126 17048.9785     2.3016     1.3112     1.7194   299.1915     1.0000     1.0000 -1272.9127    86.1060     0.0126     0.0000
  1349.0994  5194.9712 5194971.5000    -999.25     8.5000     8.6404     8.6404     8.6671     0.9790     1.3078   135.1580   135.1275     0.0000    -999.25    75.2545     1.1921     1.1882  1349.0994     0.6079    -999.25    -999.25     0.0127     0.0127 17043.8691     2.3036     1.3078     1.7103   299.2049     1.0000     1.0000 -1272.9393    86.0503     0.0127     0.0000
  1349.2252  5216.1064 5217031.5000    -999.25     8.5000     8.7645     8.7645     8.7645     0.8053     1.2914   135.1728   135.1728     0.0000    -999.25    75.5971     1.1909     1.1861  1349.2251     0.6063    -999.25    -999.25     0.0129     0.0129 17116.2461     2.3132     1.2914     1.6677   299.2683     1.0000     1.0000 -1273.0652    85.7870     0.0129     0.0000
  1349.2518  5221.6958 5221696.0000    -999.25     8.5000     8.7908     8.7908     8.7939     0.7686     1.2920   135.1759   135.1809     0.0000    -999.25    75.4742     1.1928     1.1876  1349.2517     0.6057    -999.25    -999.25     0.0131     0.0131 17131.5488     2.3158     1.2920     1.6692   299.2442     1.0000     1.0000 -1273.0918    85.5407     0.0131     0.0000
  1349.3776  5247.0146 5243087.0000    -999.25     8.5000     8.9328     8.9328     8.9328     0.6452     1.2948   135.2194   135.2194     0.0000    -999.25    74.8931     1.2015     1.1948  1349.3776     0.6026    -999.25    -999.25     0.0142     0.0142 17201.7285     2.3277     1.2948     1.6765   299.1306     1.0000     1.0000 -1273.2175    84.3760     0.0142     0.0000
  1349.4042  5247.6099 5247610.0000    -999.25     8.5000     8.9628     8.9628     8.9543     0.6191     1.2967   135.2286   135.1222     0.0000    -999.25    74.7454     1.2060     1.1986  1349.4042     0.6009    -999.25    -999.25     0.0146     0.0146 17216.5684     2.3282     1.2967     1.6814   299.0700     1.0000     1.0000 -1273.2441    83.9194     0.0146     0.0000
  1349.5300  5274.1909 5274447.0000    -999.25     8.5000     9.0560     9.0560     9.0560     0.6858     1.3055   134.6625   134.6626     0.0000    -999.25    74.0469     1.2271     1.2167  1349.5299     0.5928    -999.25    -999.25     0.0166     0.0166 17304.6172     2.3302     1.3055     1.7044   298.7834     1.0000     1.0000 -1273.3700    81.7600     0.0166     0.0000
  1349.5566  5280.1216 5280121.5000    -999.25     8.5000     9.0757     9.0757     9.0644     0.6999     1.3085   134.5428   134.3206     0.0000    -999.25    73.9028     1.2345     1.2239  1349.5565     0.5898    -999.25    -999.25     0.0171     0.0171 17323.2344     2.3307     1.3085     1.7121   298.7390     1.0000     1.0000 -1273.3966    81.1439     0.0171     0.0000
  1349.6824  5359.2427 5360122.5000    -999.25     8.5000     9.1043     9.1043     9.1043     0.8302     1.3224   132.7034   132.7036     0.0000    -999.25    73.2213     1.2700     1.2584  1349.6824     0.5759    -999.25    -999.25     0.0198     0.0198 17585.7031     2.3333     1.3224     1.7486   298.5291     1.0000     1.0000 -1273.5223    78.2300     0.0198     0.0000
  1349.7090  5377.0386 5377038.5000    -999.25     8.5000     9.1103     9.1103     9.1035     0.8577     1.3317   132.3145   132.1310     0.0000    -999.25    73.1408     1.2820     1.2713  1349.7090     0.5718    -999.25    -999.25     0.0242     0.0242 17641.2012     2.3342     1.3317     1.7738   298.4255     0.9993     0.9993 -1273.5490    77.2117     0.0242     0.0000
  1349.8348  5506.9746 5510250.5000    -999.25     8.5000     9.0999     9.0999     9.0999     0.9993     1.3758   129.4246   129.4230     0.0000    -999.25    72.7597     1.3389     1.3325  1349.8347     0.5523    -999.25    -999.25     0.0450     0.0450 18078.2500     2.3384     1.3758     1.8930   297.9356     0.9962     0.9962 -1273.6748    72.3960     0.0448     0.0000
  1349.8615  5538.5234 5538523.5000    -999.25     8.5000     9.0977     9.0977     9.0995     1.0293     1.3999   128.8113   128.7593     0.0000    -999.25    72.8486     1.3543     1.3497  1349.8615     0.5475    -999.25    -999.25     0.0648     0.0648 18171.0098     2.3406     1.3999     1.9626   297.7151     0.9932     0.9932 -1273.7015    70.0384     0.0641     0.0000
  1349.9872  5704.2896 5709397.5000    -999.25     8.5000     9.0976     9.0976     9.0976     1.0527     1.5134   125.6344   125.6343     0.0000    -999.25    73.2671     1.4268     1.4309  1349.9872     0.5251    -999.25    -999.25     0.1582     0.1582 18731.6191     2.3512     1.5134     2.2903   296.6768     0.9789     0.9789 -1273.8271    58.9390     0.1549     0.0000
  1350.0138  5745.5571 5745557.0000    -999.25     8.5000     9.0976     9.0976     9.0989     1.0576     1.5455   124.9621   125.0653     0.0000    -999.25    73.4107     1.4429     1.4482  1350.0138     0.5207    -999.25    -999.25     0.1690     0.1690 18850.2520     2.3556     1.5455     2.3935   296.3658     0.9790     0.9790 -1273.8538    57.4702     0.1655     0.0000
  1350.1396  5918.0664 5915951.0000    -999.25     8.5000     9.1049     9.1049     9.1049     0.9988     1.6976   122.3760   122.3746     0.0000    -999.25    74.0899     1.5187     1.5302  1350.1395     0.5000    -999.25    -999.25     0.2204     0.2204 19409.2871     2.3761     1.6976     2.8818   294.8946     0.9792     0.9792 -1273.9796    50.5240     0.2158     0.0000
  1350.1663  5952.1157 5952115.5000    -999.25     8.5000     9.1064     9.1064     9.1042     0.9863     1.7278   121.8271   122.0676     0.0000    -999.25    74.1699     1.5318     1.5420  1350.1663     0.4961    -999.25    -999.25     0.2204     0.2204 19527.9375     2.3790     1.7278     2.9896   294.4921     0.9807     0.9807 -1274.0063    50.0186     0.2162     0.0000
