~Version ---------------------------------------------------
VERS. 2.0 : CWLS log ASCII Standard -VERSION 2.0
WRAP.  NO : 
~Well ------------------------------------------------------
STRT.m                                                   1300.0 : 
STOP.m                                                1481.9656 : 
STEP.m                                                   0.1524 : 
NULL.                                                   -999.25 : 
COMP.                                                           : COMPANY
WELL.                                                    Well-3 : WELL
FLD .                                                           : FIELD
LOC .                                                           : LOCATION
SRVC.                                                           : SERVICE COMPANY
DATE. 2021-01-20 14:34:00   : Log Export Date {yyyy-MM-dd HH:mm : ss}
PROV.                                                           : PROVINCE
UWI .                                                    Well-3 : UNIQUE WELL ID
API .                                                           : API NUMBER
~Curve Information -----------------------------------------
DEPTH             .m        : DEPTH
ACOUSTICIMPEDANCE1.kPa.s/m  : ACOUSTICIMPEDANCE1
AI                .kPa.s/m  : AI
AVG_PIGN          .m3/m3    : AVG_PIGN
BS                .in       : BS
CALI              .in       : CALI
CALI[DERIVED]1    .in       : CALI[DERIVED]1
CALI1             .in       : CALI1
DEVI              .deg      : DEVI
DFL               .ohm.m    : DFL
DT                .us/ft    : DT
DT1               .us/ft    : DT1
FACIES            ._        : FACIES
FLD1              ._        : FLD1
GR                .gAPI     : GR
HDRS              .ohm.m    : HDRS
HMRS              .ohm.m    : HMRS
DEPTH_1           .m        : DEPTH_1
NPHI              .m3/m3    : NPHI
PERF_INT          ._        : PERF_INT
PERMEABILITY      .mD       : PERMEABILITY
PIGN              .m3/m3    : PIGN
PIGN_MODELLING    .m3/m3    : PIGN_MODELLING
PIMP              .kPa.s/m  : PIMP
RHOB              .g/cm3    : RHOB
RT_MODELLING      .ohm.m    : RT_MODELLING
RT_POWER          .ohm.m    : RT_POWER
SP                .mV       : SP
SUWI              ._        : SUWI
SUWI_MODELLING    ._        : SUWI_MODELLING
TDVSS             .m        : TDVSS
VCL               .%        : VCL
WATER_VOL         ._        : WATER_VOL
ZLT               ._        : ZLT
~Params ----------------------------------------------------
~Other -----------------------------------------------------
~ASCII -----------------------------------------------------
  1300.0000  4962.9722    -999.25    -999.25     8.5000     8.9967     8.9967     8.9967     0.9264     0.9664   137.6588   137.6590    -999.25    -999.25    53.8098     0.8135     0.8339  1300.0000     0.5618    -999.25    -999.25     0.0286     0.0286    -999.25     2.2415     0.9664     0.9339   281.7878     1.0000     1.0000 -1223.8400    68.4970     0.0286    -999.25
  1300.0266  4988.4341 4988434.0000    -999.25     8.5000     9.0066     9.0066     9.0018     0.9393     0.9451   137.3831   136.9599    -999.25    -999.25    53.5563     0.8177     0.8376  1300.0266     0.5589    -999.25    -999.25     0.0288     0.0288 16366.2539     2.2484     0.9451     0.8954   281.7414     1.0000     1.0000 -1223.8666    68.3080     0.0288    -999.25
  1300.1524  5202.9956 5203653.5000    -999.25     8.5000     9.0259     9.0259     9.0259     0.9432     0.8445   133.6534   133.6538     0.0000    -999.25    52.3576     0.8374     0.8552  1300.1523     0.5454    -999.25    -999.25     0.0296     0.0296 17072.3555     2.2815     0.8445     0.7132   281.5224     1.0000     1.0000 -1223.9923    67.4140     0.0296    -999.25
  1300.1790  5249.1611 5249161.0000    -999.25     8.5000     9.0300     9.0300     9.0139     0.9440     0.8504   132.8648   132.7659     0.0000    -999.25    52.0793     0.8533     0.8710  1300.1790     0.5443    -999.25    -999.25     0.0296     0.0296 17221.6582     2.2882     0.8504     0.7234   281.4880     1.0000     1.0000 -1224.0189    67.4800     0.0296    -999.25
  1300.3048  5499.3672 5494767.0000    -999.25     8.5000     8.9573     8.9573     8.9573     1.1661     0.8784   128.5661   128.5666     0.0000    -999.25    50.7631     0.9281     0.9456  1300.3048     0.5389    -999.25    -999.25     0.0293     0.0293 18027.4512     2.3197     0.8784     0.7716   281.3256     1.0000     1.0000 -1224.1448    67.7920     0.0293    -999.25
  1300.3314  5546.6997 5546699.5000    -999.25     8.5000     8.9419     8.9419     8.9392     1.2131     0.9547   127.6572   128.0299     0.0000    -999.25    50.5610     0.9464     0.9644  1300.3314     0.5403    -999.25    -999.25     0.0291     0.0291 18197.8340     2.3231     0.9547     0.9389   281.3606     1.0000     1.0000 -1224.1714    68.0329     0.0291    -999.25
  1300.4572  5681.7437 5669310.0000    -999.25     8.5000     8.8535     8.8535     8.8535     1.1525     1.3154   125.4919   125.4921     0.0000    -999.25    49.6055     1.0332     1.0533  1300.4572     0.5472    -999.25    -999.25     0.0280     0.0280 18600.0996     2.3393     1.3154     1.7301   281.5260     1.0000     1.0000 -1224.2971    69.1720     0.0280    -999.25
  1300.4838  5695.2354 5695235.5000    -999.25     8.5000     8.8348     8.8348     8.8419     1.1397     1.4009   125.0340   125.5329     0.0000    -999.25    49.6034     1.0423     1.0628  1300.4838     0.5500    -999.25    -999.25     0.0278     0.0278 18685.1562     2.3363     1.4009     1.9971   281.5785     1.0000     1.0000 -1224.3237    69.3771     0.0278    -999.25
  1300.6096  5629.4932 5622232.5000    -999.25     8.5000     8.7868     8.7868     8.7868     1.0414     1.8054   125.7259   125.7258     0.0000    -999.25    49.5932     1.0853     1.1073  1300.6095     0.5631    -999.25    -999.25     0.0270     0.0270 18445.6445     2.3221     1.8054     3.2596   281.8266     1.0000     1.0000 -1224.4496    70.3470     0.0270    -999.25
  1300.6362  5606.7964 5606796.0000    -999.25     8.5000     8.7767     8.7767     8.7837     1.0206     1.8179   125.8722   126.3449     0.0000    -999.25    49.8122     1.0778     1.0998  1300.6361     0.5649    -999.25    -999.25     0.0269     0.0269 18395.0000     2.3154     1.8179     3.3056   281.8511     1.0000     1.0000 -1224.4762    70.4018     0.0269    -999.25
  1300.7620  5384.9072 5393661.5000    -999.25     8.5000     8.7689     8.7689     8.7689     0.8501     1.8771   129.2731   129.2728     0.0000    -999.25    50.8479     1.0424     1.0645  1300.7620     0.5730    -999.25    -999.25     0.0267     0.0267 17695.7402     2.2839     1.8771     3.5234   281.9670     1.0000     1.0000 -1224.6019    70.6610     0.0267    -999.25
  1300.7886  5348.5952 5348595.0000    -999.25     8.5000     8.7673     8.7673     8.7716     0.8141     1.7772   129.9922   130.1057     0.0000    -999.25    51.2212     1.0250     1.0466  1300.7886     0.5727    -999.25    -999.25     0.0267     0.0267 17547.8848     2.2811     1.7772     3.2055   281.9919     1.0000     1.0000 -1224.6285    70.5989     0.0267    -999.25
  1300.9144  5156.9551 5166535.5000    -999.25     8.5000     8.7840     8.7840     8.7840     0.9220     1.3047   134.0452   134.0448     0.0000    -999.25    52.9870     0.9430     0.9619  1300.9143     0.5708    -999.25    -999.25     0.0270     0.0270 16950.5762     2.2679     1.3047     1.7023   282.1092     1.0000     1.0000 -1224.7544    70.3050     0.0270    -999.25
  1300.9410  5128.0396 5128039.5000    -999.25     8.5000     8.7875     8.7875     8.7959     0.9448     1.2424   134.9022   134.5961     0.0000    -999.25    53.2469     0.9312     0.9493  1300.9409     0.5694    -999.25    -999.25     0.0271     0.0271 16824.2773     2.2696     1.2424     1.5619   282.0130     1.0000     1.0000 -1224.7810    70.2176     0.0271    -999.25
  1301.0668  5059.9155 5060778.0000    -999.25     8.5000     8.8521     8.8521     8.8520     0.9944     0.9477   137.2032   137.2030     0.0000    -999.25    54.4762     0.8752     0.8901  1301.0668     0.5628    -999.25    -999.25     0.0275     0.0275 16603.6016     2.2777     0.9477     0.8982   281.5581     1.0000     1.0000 -1224.9067    69.8040     0.0275    -999.25
  1301.0934  5046.5557 5046555.5000    -999.25     8.5000     8.8657     8.8657     8.8715     1.0049     0.9304   137.6898   137.2481     0.0000    -999.25    54.4698     0.8739     0.8891  1301.0934     0.5619    -999.25    -999.25     0.0275     0.0275 16556.9414     2.2797     0.9304     0.8671   281.4518     1.0000     1.0000 -1224.9334    69.7176     0.0275    -999.25
  1301.2192  5076.3589 5076349.5000    -999.25     8.5000     8.9637     8.9637     8.9637     1.0931     0.8487   137.4613   137.4613     0.0000    -999.25    54.4399     0.8680     0.8845  1301.2191     0.5577    -999.25    -999.25     0.0279     0.0279 16654.6914     2.2894     0.8487     0.7202   280.9488     1.0000     1.0000 -1225.0592    69.3090     0.0279    -999.25
  1301.2458  5082.6499 5082649.5000    -999.25     8.5000     8.9844     8.9844     8.9852     1.1117     0.8482   137.4130   137.1795     0.0000    -999.25    54.3235     0.8756     0.8928  1301.2457     0.5574    -999.25    -999.25     0.0280     0.0280 16675.3594     2.2914     0.8482     0.7195   280.8873     1.0000     1.0000 -1225.0858    69.1502     0.0280    -999.25
  1301.3716  5162.8179 5168542.0000    -999.25     8.5000     9.0868     9.0868     9.0868     1.1423     0.8461   135.8465   135.8467     0.0000    -999.25    53.7729     0.9113     0.9323  1301.3716     0.5560    -999.25    -999.25     0.0287     0.0287 16957.1582     2.3010     0.8461     0.7160   280.5965     1.0000     1.0000 -1225.2115    68.3990     0.0287    -999.25
  1301.3982  5186.7036 5186703.5000    -999.25     8.5000     9.1084     9.1084     9.1095     1.1488     0.8743   135.5153   135.4282     0.0000    -999.25    53.5054     0.9263     0.9482  1301.3982     0.5551    -999.25    -999.25     0.0287     0.0287 17016.7441     2.3060     0.8743     0.7681   280.5461     1.0000     1.0000 -1225.2382    68.1698     0.0287    -999.25
  1301.5240  5321.1201 5329142.0000    -999.25     8.5000     9.2173     9.2173     9.2173     1.0026     1.0073   133.4491   133.4493     0.0000    -999.25    52.2403     0.9976     1.0232  1301.5239     0.5507    -999.25    -999.25     0.0286     0.0286 17484.0605     2.3297     1.0073     1.0148   280.3075     1.0000     1.0000 -1225.3640    67.0860     0.0286    -999.25
  1301.5506  5359.2598 5359260.0000    -999.25     8.5000     9.2403     9.2403     9.2381     0.9717     1.0515   133.0122   133.0368     0.0000    -999.25    51.8335     1.0144     1.0401  1301.5505     0.5487    -999.25    -999.25     0.0275     0.0275 17582.8730     2.3387     1.0515     1.1150   280.3007     1.0000     1.0000 -1225.3906    66.9951     0.0275    -999.25
