~Version ---------------------------------------------------
VERS. 2.0 : CWLS log ASCII Standard -VERSION 2.0
WRAP.  NO : 
~Well ------------------------------------------------------
STRT.m                                                   1300.0 : 
STOP.m                                                 1514.884 : 
STEP.m                                                   0.1524 : 
NULL.                                                   -999.25 : 
COMP.                                                           : COMPANY
WELL.                                                    Well-2 : WELL
FLD .                                                           : FIELD
LOC .                                                           : LOCATION
SRVC.                                                           : SERVICE COMPANY
DATE. 2021-01-20 14:33:59   : Log Export Date {yyyy-MM-dd HH:mm : ss}
PROV.                                                           : PROVINCE
UWI .                                                    Well-2 : UNIQUE WELL ID
API .                                                           : API NUMBER
~Curve Information -----------------------------------------
DEPTH             .m        : DEPTH
ACOUSTICIMPEDANCE1.kPa.s/m  : ACOUSTICIMPEDANCE1
AI                .kPa.s/m  : AI
AVG_PIGN          .m3/m3    : AVG_PIGN
CALI              .in       : CALI
CALI[DERIVED]1    .in       : CALI[DERIVED]1
DT                .us/ft    : DT
FACIES            ._        : FACIES
FLD1              ._        : FLD1
GR                .gAPI     : GR
LLD               .ohm.m    : LLD
LLS               .ohm.m    : LLS
LL3               .ohm.m    : LL3
DEPTH_1           .m        : DEPTH_1
NPHI              .m3/m3    : NPHI
PERF_INT          ._        : PERF_INT
PERMEABILITY      .mD       : PERMEABILITY
PIGN              .m3/m3    : PIGN
PIGN_MODELLING    .m3/m3    : PIGN_MODELLING
PIMP              .kPa.s/m  : PIMP
RHOB              .g/cm3    : RHOB
RT_MODELLING      .ohm.m    : RT_MODELLING
RT_POWER          .ohm.m    : RT_POWER
SP                .mV       : SP
SUWI              ._        : SUWI
SUWI_MODELLING    ._        : SUWI_MODELLING
TDVSS             .m        : TDVSS
VCL               .%        : VCL
WATER_VOL         ._        : WATER_VOL
ZLT               ._        : ZLT
~Params ----------------------------------------------------
~Other -----------------------------------------------------
~ASCII -----------------------------------------------------
# ...
  1385.7732  5249.7588 5249758.5000    -999.25    10.0404    10.0404   128.8380     3.0000    -999.25    83.6309     1.8120     1.8532     2.1516  1385.7732     0.5027    -999.25     0.0650     0.0361     0.0361 17223.6172     2.2191     1.8120     3.2897    43.5163     1.0000     1.0000 -1309.7732    72.3259     0.0361     2.0000
  1385.8012  5223.9370 5220710.0000    -999.25    10.0475    10.0475   129.6238     3.0000    -999.25    84.3750     1.7742     1.8082     2.1165  1385.8011     0.5043    -999.25     0.0614     0.0355     0.0355 17128.3145     2.2216     1.7742     3.1479    43.8465     1.0000     1.0000 -1309.8011    72.7510     0.0355     2.0000
  1385.9257  5091.5479 5091548.0000    -999.25    10.0941    10.0941   133.1180     0.0000    -999.25    85.8834     1.6424     1.6364     1.9207  1385.9258     0.5109    -999.25     0.0496     0.0335     0.0335 16704.5527     2.2237     1.6424     2.7014    45.4023     1.0000     1.0000 -1309.9258    74.3497     0.0335     2.0000
  1385.9536  5069.4331 5070120.0000    -999.25    10.1046    10.1046   133.7266     0.0000    -999.25    86.2214     1.6129     1.5979     1.8768  1385.9536     0.5124    -999.25     0.0469     0.0330     0.0330 16634.2520     2.2241     1.6129     2.6013    45.7509     1.0000     1.0000 -1309.9536    74.7080     0.0330     2.0000
  1386.0780  4974.5776 4974577.5000    -999.25    10.1483    10.1483   136.4400     0.0000    -999.25    85.4668     1.5109     1.4691     1.6759  1386.0780     0.5190    -999.25     0.0377     0.0311     0.0311 16320.7930     2.2268     1.5109     2.2852    47.2831     1.0000     1.0000 -1310.0780    76.1822     0.0311     2.0000
  1386.1060  4961.6846 4962674.5000    -999.25    10.1581    10.1581   136.8315     0.0000    -999.25    85.2970     1.4880     1.4401     1.6307  1386.1060     0.5205    -999.25     0.0357     0.0306     0.0306 16281.7422     2.2274     1.4880     2.2141    47.6279     1.0000     1.0000 -1310.1060    76.5140     0.0306     2.0000
  1386.2305  4909.7500 4909750.0000    -999.25    10.2020    10.2020   138.5720     0.0000    -999.25    83.5382     1.4051     1.3529     1.4779  1386.2305     0.5308    -999.25     0.0258     0.0281     0.0281 16108.1035     2.2321     1.4051     1.9760    49.0339     1.0000     1.0000 -1310.2305    78.4575     0.0281     2.0000
  1386.2584  4897.1094 4897987.5000    -999.25    10.2119    10.2119   138.9955     0.0000    -999.25    83.1440     1.3866     1.3333     1.4436  1386.2583     0.5332    -999.25     0.0236     0.0275     0.0275 16069.5127     2.2332     1.3866     1.9226    49.3489     1.0000     1.0000 -1310.2583    78.8930     0.0275     2.0000
  1386.3828  4845.5410 4845541.0000    -999.25    10.2554    10.2554   140.8840     0.0000    -999.25    81.2236     1.3160     1.2769     1.3669  1386.3828     0.5476    -999.25     0.0154     0.0246     0.0246 15897.4443     2.2397     1.3160     1.7329    50.5306     1.0000     1.0000 -1310.3828    81.1288     0.0246     2.0000
  1386.4108  4832.0542 4832368.5000    -999.25    10.2652    10.2652   141.3696     0.0000    -999.25    80.7914     1.3001     1.2642     1.3496  1386.4108     0.5509    -999.25     0.0135     0.0240     0.0240 15854.2266     2.2412     1.3001     1.6902    50.7965     1.0000     1.0000 -1310.4108    81.6320     0.0240     2.0000
  1386.5352  4773.8442 4773844.0000    -999.25    10.2920    10.2920   143.5270     0.0000    -999.25    79.9356     1.2412     1.2255     1.3244  1386.5352     0.5622    -999.25     0.0105     0.0227     0.0227 15662.2178     2.2480     1.2412     1.5413    51.6915     1.0000     1.0000 -1310.5352    82.6042     0.0227     2.0000
  1386.5632  4769.6294 4769137.5000    -999.25    10.2980    10.2980   143.7515     0.0000    -999.25    79.7430     1.2279     1.2168     1.3188  1386.5631     0.5648    -999.25     0.0099     0.0224     0.0224 15646.7764     2.2495     1.2279     1.5078    51.8929     1.0000     1.0000 -1310.5631    82.8230     0.0224     2.0000
  1386.6876  4748.2266 4748226.5000    -999.25    10.2957    10.2957   144.7490     0.0000    -999.25    79.1240     1.1834     1.1875     1.3123  1386.6876     0.5681    -999.25     0.0097     0.0224     0.0224 15578.1709     2.2549     1.1834     1.4008    52.5520     1.0000     1.0000 -1310.6876    82.8230     0.0224     2.0000
  1386.7156  4739.9775 4739187.0000    -999.25    10.2952    10.2952   145.0797     0.0000    -999.25    78.9846     1.1733     1.1809     1.3108  1386.7156     0.5689    -999.25     0.0096     0.0224     0.0224 15548.5137     2.2562     1.1733     1.3767    52.7004     1.0000     1.0000 -1310.7156    82.8230     0.0224     2.0000
  1386.8400  4699.0249 4699025.0000    -999.25    10.2767    10.2767   146.5490     0.0000    -999.25    78.9590     1.1454     1.1586     1.3126  1386.8400     0.5672    -999.25     0.0099     0.0224     0.0224 15416.7490     2.2593     1.1454     1.3120    53.1318     1.0000     1.0000 -1310.8400    82.8230     0.0224     2.0000
  1386.8680  4687.3989 4686911.5000    -999.25    10.2726    10.2726   146.9587     0.0000    -999.25    78.9532     1.1391     1.1537     1.3130  1386.8679     0.5669    -999.25     0.0099     0.0224     0.0224 15377.0068     2.2600     1.1391     1.2975    53.2289     1.0000     1.0000 -1310.8679    82.8230     0.0224     2.0000
  1386.9924  4633.0933 4633093.0000    -999.25    10.2531    10.2531   148.7790     0.0000    -999.25    79.2132     1.1266     1.1404     1.3131  1386.9924     0.5683    -999.25     0.0098     0.0224     0.0224 15200.4365     2.2615     1.1266     1.2692    53.5269     1.0000     1.0000 -1310.9924    82.8230     0.0224     2.0000
  1387.0204  4616.7432 4616993.5000    -999.25    10.2487    10.2487   149.3280     0.0000    -999.25    79.2717     1.1238     1.1374     1.3131  1387.0204     0.5686    -999.25     0.0098     0.0224     0.0224 15147.6172     2.2618     1.1238     1.2628    53.5940     1.0000     1.0000 -1311.0204    82.8230     0.0224     2.0000
  1387.1448  4545.4658 4545466.0000    -999.25    10.2365    10.2365   151.7670     0.0000    -999.25    80.0576     1.1232     1.1349     1.3096  1387.1448     0.5748    -999.25     0.0092     0.0224     0.0224 14912.9463     2.2633     1.1232     1.2616    53.8023     1.0000     1.0000 -1311.1448    82.8230     0.0224     2.0000
  1387.1728  4530.0161 4531151.0000    -999.25    10.2337    10.2337   152.3066     0.0000    -999.25    80.2345     1.1231     1.1343     1.3088  1387.1727     0.5762    -999.25     0.0091     0.0224     0.0224 14865.9814     2.2636     1.1231     1.2613    53.8492     1.0000     1.0000 -1311.1727    82.8230     0.0224     2.0000
  1387.2972  4467.5518 4467551.5000    -999.25    10.2179    10.2179   154.7040     0.0000    -999.25    81.3274     1.1304     1.1424     1.3051  1387.2972     0.5879    -999.25     0.0081     0.0224     0.0224 14657.3213     2.2675     1.1304     1.2778    53.9820     1.0000     1.0000 -1311.2972    82.8230     0.0224     2.0000
  1387.3252  4471.2734 4472827.0000    -999.25    10.2143    10.2143   154.6355     0.0000    -999.25    81.5734     1.1320     1.1443     1.3043  1387.3252     0.5906    -999.25     0.0078     0.0224     0.0224 14674.6289     2.2684     1.1320     1.2815    54.0118     1.0000     1.0000 -1311.3252    82.8230     0.0224     2.0000
  1387.4496  4496.2642 4496264.5000    -999.25    10.1715    10.1715   154.3310     0.0000    -999.25    82.8655     1.1450     1.1611     1.3243  1387.4496     0.6059    -999.25     0.0067     0.0224     0.0224 14751.5234     2.2766     1.1450     1.3110    54.0769     1.0000     1.0000 -1311.4496    82.8230     0.0224     2.0000
  1387.4776  4525.7158 4527844.0000    -999.25    10.1619    10.1619   153.4508     0.0000    -999.25    83.1564     1.1479     1.1649     1.3288  1387.4775     0.6093    -999.25     0.0064     0.0224     0.0224 14855.1309     2.2785     1.1479     1.3177    54.0915     1.0000     1.0000 -1311.4775    82.8230     0.0224     2.0000
  1387.6021  4668.2603 4668260.5000    -999.25    10.1230    10.1230   149.5370     0.0000    -999.25    84.4116     1.1663     1.1887     1.3595  1387.6022     0.6176    -999.25     0.0059     0.0224     0.0224 15315.8145     2.2903     1.1663     1.3603    54.1328     1.0000     1.0000 -1311.6022    82.8230     0.0224     2.0000
