~Version ---------------------------------------------------
VERS. 2.0 : CWLS log ASCII Standard -VERSION 2.0
WRAP.  NO : 
~Well ------------------------------------------------------
STRT.m                                                1333.6522 : 
STOP.m                                                1778.5078 : 
STEP.m                                                   0.1524 : 
NULL.                                                   -999.25 : 
COMP.                                                           : COMPANY
WELL.                                                   Well-15 : WELL
FLD .                                                           : FIELD
LOC .                                                           : LOCATION
SRVC.                                                           : SERVICE COMPANY
DATE. 2021-01-20 14:34:07   : Log Export Date {yyyy-MM-dd HH:mm : ss}
PROV.                                                           : PROVINCE
UWI .                                                   Well-15 : UNIQUE WELL ID
API .                                                           : API NUMBER
~Curve Information -----------------------------------------
DEPTH             .m        : DEPTH
ACOUSTICIMPEDANCE1.kPa.s/m  : ACOUSTICIMPEDANCE1
AI                .kPa.s/m  : AI
BS                .in       : BS
CALI              .in       : CALI
CALI[DERIVED]1    .in       : CALI[DERIVED]1
DRES              .ohm.m    : DRES
DT                .us/ft    : DT
DT2               .us/ft    : DT2
DT4P              .us/ft    : DT4P
FACIES            ._        : FACIES
FLD1              ._        : FLD1
GR                .gAPI     : GR
GR_EDTC           .gAPI     : GR_EDTC
LLD               .ohm.m    : LLD
LLS               .ohm.m    : LLS
M2R2              .ohm.m    : M2R2
LLS_1             .ohm.m    : LLS_1
LLD_1             .ohm.m    : LLD_1
DEPTH_1           .m        : DEPTH_1
MSFL              .ohm.m    : MSFL
NPHI              .m3/m3    : NPHI
PERF_INT          ._        : PERF_INT
PIMP              .kPa.s/m  : PIMP
PR                ._        : PR
RHOB              .g/cm3    : RHOB
RT_MODELLING      .ohm.m    : RT_MODELLING
RT_POWER          .ohm.m    : RT_POWER
SP                .mV       : SP
TDVSS             .m        : TDVSS
TENS              .t        : TENS
VPVS              ._        : VPVS
ZLT               ._        : ZLT
~Params ----------------------------------------------------
~Other -----------------------------------------------------
~ASCII -----------------------------------------------------
# ...
  1524.9142  5630.8008 5630814.0000     8.5000     8.0813     8.0813     2.6000   113.3933   209.8791   113.3933     1.0000     0.6652    41.3303    50.3015     2.6000     1.4248    -999.25    -999.25    -999.25  1524.9142     0.6494     0.2834    -999.25 18473.8008     0.2939     2.0948     2.6000     6.7600   -38.2692 -1299.7155  1784.9816     1.8509     6.0000
  1525.0666  5660.0063 5660023.5000     8.5000     8.0884     8.0884     2.5823   112.8836   202.8514   112.8836     1.0000     0.6602    41.6657    46.5579     2.5823     1.4158    -999.25    -999.25    -999.25  1525.0665     0.5974     0.2867    -999.25 18569.6328     0.2757     2.0962     2.5823     6.6683   -39.4294 -1299.7898  1796.9843     1.7970     6.0000
  1525.2190  5722.3740 5722395.0000     8.5000     8.1026     8.1026     2.6085   111.9782   209.9051   111.9782     1.0000     0.6553    41.0385    47.3905     2.6085     1.4217    -999.25    -999.25    -999.25  1525.2190     0.5256     0.2998    -999.25 18774.2617     0.3011     2.1023     2.6085     6.8043   -40.4712 -1299.8643  1813.9777     1.8745     6.0000
  1525.3714  5818.2397 5818237.5000     8.5000     8.1123     8.1123     2.6079   110.7513   209.3657   110.7513     1.0000     0.6504    37.8247    47.3231     2.6079     1.4120    -999.25    -999.25    -999.25  1525.3713     0.5233     0.3124    -999.25 19088.7070     0.3057     2.1141     2.6079     6.8011   -41.1669 -1299.9386  1814.9987     1.8904     6.0000
  1525.5238  5884.9771 5884973.0000     8.5000     8.1011     8.1011     2.5467   110.0599   196.5270   110.0599     1.0000     0.6455    37.7774    47.2196     2.5467     1.3721    -999.25    -999.25    -999.25  1525.5238     0.5352     0.3170    -999.25 19307.6543     0.2715     2.1250     2.5467     6.4857   -40.9951 -1300.0129  1840.9658     1.7856     6.0000
  1525.6762  5913.2651 5913242.0000     8.5000     8.0722     8.0722     2.4852   110.0282   197.2289   110.0282     1.0000     0.6405    36.7429    45.8266     2.4852     1.3322    -999.25    -999.25    -999.25  1525.6761     0.5494     0.3143    -999.25 19400.4004     0.2741     2.1346     2.4852     6.1762   -39.8695 -1300.0873  1843.9961     1.7925     6.0000
  1525.8286  5993.7969 5993795.0000     8.5000     8.0601     8.0601     2.4602   108.7126   196.6614   108.7126     1.0000     0.6356    32.7715    45.2241     2.4602     1.3134    -999.25    -999.25    -999.25  1525.8286     0.6158     0.3126    -999.25 19664.6816     0.2800     2.1378     2.4602     6.0526   -38.5916 -1300.1616  1831.0171     1.8090     6.0000
  1525.9810  6051.4473 6051438.0000     8.5000     8.0947     8.0947     2.4328   107.7928   195.4156   107.7928     1.0000     0.6307    31.4119    44.9358     2.4328     1.2964    -999.25    -999.25    -999.25  1525.9810     0.6318     0.3136    -999.25 19853.7988     0.2813     2.1401     2.4328     5.9185   -37.5769 -1300.2360  1819.0157     1.8129     6.0000
  1526.1334  6085.4985 6085538.5000     8.5000     8.1115     8.1115     2.4184   107.1696   193.2382   107.1696     1.0000     0.6258    31.8728    46.2011     2.4184     1.2867    -999.25    -999.25    -999.25  1526.1333     0.8000     0.3163    -999.25 19965.6758     0.2779     2.1397     2.4184     5.8487   -37.0761 -1300.3103  1819.0000     1.8031     6.0000
  1526.2858  6236.3472 6236430.0000     8.5000     8.0915     8.0915     2.4822   105.0759   194.7235   105.0759     1.0000     0.6208    32.3615    46.3902     2.4822     1.3191    -999.25    -999.25    -999.25  1526.2858     0.9572     0.3122    -999.25 20460.7266     0.2946     2.1499     2.4822     6.1613   -37.0486 -1300.3848  1916.8713     1.8531     6.0000
  1526.4382  6376.8174 6376812.0000     8.5000     8.0486     8.0486     2.5618   104.2334   190.4093   104.2334     1.0000     0.6159    31.1704    46.8722     2.5618     1.3582    -999.25    -999.25    -999.25  1526.4381     0.8341     0.3056    -999.25 20921.2988     0.2860     2.1807     2.5618     6.5628   -37.2767 -1300.4591  1921.9934     1.8267     6.0000
  1526.5906  6416.7969 6416676.0000     8.5000     8.0068     8.0068     2.6255   104.9567   192.9049   104.9567     1.0000     0.6110    29.8260    42.2229     2.6255     1.3845    -999.25    -999.25    -999.25  1526.5906     0.9856     0.3031    -999.25 21052.0859     0.2897     2.2096     2.6255     6.8932   -37.8465 -1300.5334  1811.1456     1.8380     6.0000
  1526.7430  6326.0518 6325942.5000     8.5000     8.0223     8.0223     2.7308   106.3274   191.4548   106.3274     1.0000     0.6061    28.6095    40.5238     2.7308     1.4291    -999.25    -999.25    -999.25  1526.7429     1.1310     0.3005    -999.25 20754.4023     0.2770     2.2068     2.7308     7.4573   -38.3888 -1300.6078  1727.1102     1.8006     6.0000
  1526.8954  6181.4648 6181463.5000     8.5000     8.0722     8.0722     2.8006   107.2168   191.8886   107.2168     1.0000     0.6012    26.5085    40.8060     2.8006     1.4542    -999.25    -999.25    -999.25  1526.8954     1.3721     0.2936    -999.25 20280.3926     0.2730     2.1744     2.8006     7.8434   -38.5834 -1300.6821  1595.1732     1.7897     6.0000
  1527.0478  5938.2959 5938358.0000     8.5000     8.0654     8.0654     2.7166   109.9135   192.7808   109.9135     1.0000     0.5962    25.4143    39.0878     2.7166     1.4067    -999.25    -999.25    -999.25  1527.0477     1.1535     0.2885    -999.25 19482.8027     0.2592     2.1414     2.7166     7.3799   -38.5625 -1300.7565  1841.6759     1.7539     6.0000
  1527.2002  5850.1191 5850134.0000     8.5000     8.0357     8.0357     2.5793   110.6376   201.9667   110.6376     1.0000     0.5913    25.2250    38.1569     2.5793     1.3381    -999.25    -999.25    -999.25  1527.2002     0.8876     0.2913    -999.25 19193.3535     0.2857     2.1235     2.5793     6.6528   -38.5139 -1300.8308  2098.6628     1.8255     6.0000
  1527.3526  5821.8257 5821834.0000     8.5000     8.0187     8.0187     2.4634   110.4423   209.7095   110.4423     1.0000     0.5864    26.0607    38.1462     2.4634     1.2848    -999.25    -999.25    -999.25  1527.3525     0.9998     0.3009    -999.25 19100.5059     0.3081     2.1095     2.4634     6.0683   -38.3482 -1300.9053  2540.4199     1.8988     6.0000
  1527.5050  5747.5605 5747596.5000     8.5000     8.0224     8.0224     2.3984   111.2488   213.2466   111.2488     1.0000     0.5815    27.5278    39.6877     2.3984     1.2539    -999.25    -999.25    -999.25  1527.5050     1.0398     0.3021    -999.25 18856.9453     0.3130     2.0978     2.3984     5.7523   -38.1032 -1300.9796  2320.2900     1.9169     6.0000
  1527.6574  5656.9951 5657042.5000     8.5000     8.0381     8.0381     2.4204   112.9329   211.4137   112.9329     1.0000     0.5765    27.2774    37.8605     2.4204     1.2621    -999.25    -999.25    -999.25  1527.6573     1.0676     0.2964    -999.25 18559.8516     0.3003     2.0960     2.4204     5.8583   -38.5057 -1301.0540  2096.2939     1.8721     6.0000
  1527.8098  5550.2788 5550272.5000     8.5000     8.0657     8.0657     2.5162   115.7138   210.3977   115.7138     1.0000     0.5716    27.2624    35.4454     2.5162     1.3073    -999.25    -999.25    -999.25  1527.8098     1.1071     0.2894    -999.25 18209.5547     0.2832     2.1071     2.5162     6.3313   -39.3186 -1301.1283  1872.2939     1.8183     6.0000
  1527.9622  5603.2627 5603228.0000     8.5000     8.0822     8.0822     2.6423   115.0711   210.8159   115.0711     1.0000     0.5667    27.2262    34.1286     2.6423     1.3700    -999.25    -999.25    -999.25  1527.9622     0.9548     0.2850    -999.25 18383.2949     0.2878     2.1154     2.6423     6.9817   -40.0478 -1301.2026  1660.2782     1.8321     6.0000
  1528.1146  5665.4932 5665493.0000     8.5000     8.0190     8.0190     2.7288   113.7050   209.5228   113.7050     1.0000     0.5618    27.0640    35.2445     2.7288     1.4141    -999.25    -999.25    -999.25  1528.1145     0.8406     0.2873    -999.25 18587.5742     0.2913     2.1135     2.7288     7.4463   -40.7005 -1301.2770  1504.2047     1.8427     6.0000
