~Version ---------------------------------------------------
VERS. 2.0 : CWLS log ASCII Standard -VERSION 2.0
WRAP.  NO : 
~Well ------------------------------------------------------
STRT.m                                                   1300.0 : 
STOP.m                                                1481.9656 : 
STEP.m                                                   0.1524 : 
NULL.                                                   -999.25 : 
COMP.                                                           : COMPANY
WELL.                                                    Well-3 : WELL
FLD .                                                           : FIELD
LOC .                                                           : LOCATION
SRVC.                                                           : SERVICE COMPANY
DATE. 2021-01-20 14:34:00   : Log Export Date {yyyy-MM-dd HH:mm : ss}
PROV.                                                           : PROVINCE
UWI .                                                    Well-3 : UNIQUE WELL ID
API .                                                           : API NUMBER
~Curve Information -----------------------------------------
DEPTH             .m        : DEPTH
ACOUSTICIMPEDANCE1.kPa.s/m  : ACOUSTICIMPEDANCE1
AI                .kPa.s/m  : AI
AVG_PIGN          .m3/m3    : AVG_PIGN
BS                .in       : BS
CALI              .in       : CALI
CALI[DERIVED]1    .in       : CALI[DERIVED]1
CALI1             .in       : CALI1
DEVI              .deg      : DEVI
DFL               .ohm.m    : DFL
DT                .us/ft    : DT
DT1               .us/ft    : DT1
FACIES            ._        : FACIES
FLD1              ._        : FLD1
GR                .gAPI     : GR
HDRS              .ohm.m    : HDRS
HMRS              .ohm.m    : HMRS
DEPTH_1           .m        : DEPTH_1
NPHI              .m3/m3    : NPHI
PERF_INT          ._        : PERF_INT
PERMEABILITY      .mD       : PERMEABILITY
PIGN              .m3/m3    : PIGN
PIGN_MODELLING    .m3/m3    : PIGN_MODELLING
PIMP              .kPa.s/m  : PIMP
RHOB              .g/cm3    : RHOB
RT_MODELLING      .ohm.m    : RT_MODELLING
RT_POWER          .ohm.m    : RT_POWER
SP                .mV       : SP
SUWI              ._        : SUWI
SUWI_MODELLING    ._        : SUWI_MODELLING
TDVSS             .m        : TDVSS
VCL               .%        : VCL
WATER_VOL         ._        : WATER_VOL
ZLT               ._        : ZLT
~Params ----------------------------------------------------
~Other -----------------------------------------------------
~ASCII -----------------------------------------------------
# ...
  1372.0852  5819.0117 5827299.0000    -999.25     8.5000     8.9398     8.9398     8.9398     0.7162     2.1038   120.1671   120.1671     0.0000    -999.25    83.4329     1.5572     1.7102  1372.0852     0.5308    -999.25     0.0136     0.0222     0.0222 19118.4355     2.2941     2.1038     4.4259   309.3122     1.0000     1.0000 -1295.9252    75.5470     0.0222     1.0000
  1372.1118  5801.3950 5801395.0000    -999.25     8.5000     8.9394     8.9394     8.9397     0.6963     2.0727   120.4217   119.9826     0.0000    -999.25    83.4048     1.5532     1.7036  1372.1118     0.5295    -999.25     0.0141     0.0224     0.0224 19033.4473     2.2920     2.0727     4.3007   309.2370     1.0000     1.0000 -1295.9518    75.3845     0.0224     1.0000
  1372.2376  5839.8901 5845316.5000    -999.25     8.5000     8.9392     8.9392     8.9391     0.7562     1.9257   119.1096   119.1098     0.0000    -999.25    83.2716     1.5342     1.6722  1372.2375     0.5232    -999.25     0.0160     0.0231     0.0231 19177.5469     2.2821     1.9257     3.7085   308.8814     1.0000     1.0000 -1296.0775    74.6160     0.0231     1.0000
  1372.2642  5854.6035 5854603.5000    -999.25     8.5000     8.9391     8.9391     8.9369     0.7689     1.9212   118.8322   118.6178     0.0000    -999.25    83.1976     1.5371     1.6778  1372.2642     0.5221    -999.25     0.0162     0.0231     0.0231 19208.0156     2.2825     1.9212     3.6910   308.8433     1.0000     1.0000 -1296.1041    74.5985     0.0231     1.0000
  1372.3900  5987.7632 5988385.5000    -999.25     8.5000     8.9262     8.9262     8.9262     0.8387     1.8996   116.2908   116.2911     0.0000    -999.25    82.8478     1.5506     1.7043  1372.3900     0.5173    -999.25     0.0170     0.0232     0.0232 19646.9336     2.2845     1.8996     3.6084   308.6633     1.0000     1.0000 -1296.2300    74.5160     0.0232     1.0000
  1372.4166  6016.6733 6016673.5000    -999.25     8.5000     8.9235     8.9235     8.9250     0.8534     1.9387   115.7534   115.9578     0.0000    -999.25    82.6592     1.5534     1.7127  1372.4166     0.5173    -999.25     0.0168     0.0230     0.0230 19739.7422     2.2849     1.9387     3.7658   308.6958     1.0000     1.0000 -1296.2566    74.6582     0.0230     1.0000
  1372.5424  6094.1572 6088993.0000    -999.25     8.5000     8.9190     8.9190     8.9190     0.9561     2.1237   114.3816   114.3817     0.0000    -999.25    81.7670     1.5670     1.7522  1372.5424     0.5176    -999.25     0.0155     0.0224     0.0224 19977.0098     2.2869     2.1237     4.5102   308.8499     1.0000     1.0000 -1296.3823    75.3310     0.0224     1.0000
  1372.5690  6104.2842 6104284.5000    -999.25     8.5000     8.9181     8.9181     8.9177     0.9778     2.1522   114.0915   114.5601     0.0000    -999.25    81.5622     1.5580     1.7427  1372.5690     0.5187    -999.25     0.0149     0.0222     0.0222 20027.1797     2.2849     2.1522     4.6357   308.9436     1.0000     1.0000 -1296.4089    75.5738     0.0222     1.0000
  1372.6948  6009.7803 6014664.5000    -999.25     8.5000     8.9111     8.9111     8.9111     0.9719     2.2867   115.4037   115.4036     0.0000    -999.25    80.5934     1.5157     1.6983  1372.6947     0.5243    -999.25     0.0121     0.0212     0.0212 19733.1523     2.2754     2.2867     5.2290   309.3867     1.0000     1.0000 -1296.5348    76.7220     0.0212     1.0000
  1372.7214  5995.7148 5995714.5000    -999.25     8.5000     8.9096     8.9096     8.9150     0.9707     2.2397   115.6812   116.0240     0.0000    -999.25    80.4524     1.4980     1.6739  1372.7213     0.5255    -999.25     0.0117     0.0210     0.0210 19670.9805     2.2756     2.2397     5.0267   309.5872     1.0000     1.0000 -1296.5614    76.9360     0.0210     1.0000
  1372.8472  5832.1274 5843773.5000    -999.25     8.5000     8.9336     8.9336     8.9336     1.0201     2.0175   118.9588   118.9584     0.0000    -999.25    79.7857     1.4143     1.5587  1372.8472     0.5314    -999.25     0.0098     0.0201     0.0201 19172.4844     2.2762     2.0175     4.0701   310.5358     1.0000     1.0000 -1296.6871    77.9480     0.0201     1.0000
  1372.8738  5811.6460 5811646.0000    -999.25     8.5000     8.9387     8.9387     8.9531     1.0305     1.9551   119.6518   119.3222     0.0000    -999.25    79.6508     1.4009     1.5399  1372.8738     0.5317    -999.25     0.0098     0.0200     0.0200 19067.0801     2.2814     1.9551     3.8409   310.7200     1.0000     1.0000 -1296.7137    78.0402     0.0200     1.0000
  1372.9996  5807.0322 5806667.0000    -999.25     8.5000     9.0455     9.0455     9.0455     1.0075     1.6604   121.0428   121.0426     0.0000    -999.25    79.0129     1.3375     1.4510  1372.9995     0.5330    -999.25     0.0095     0.0196     0.0196 19050.7441     2.3061     1.6604     2.7569   311.5911     1.0000     1.0000 -1296.8396    78.4760     0.0196     1.0000
  1373.0262  5805.6138 5805614.0000    -999.25     8.5000     9.0681     9.0681     9.0776     1.0026     1.6366   121.3369   120.6820     0.0000    -999.25    78.7768     1.3339     1.4456  1373.0261     0.5327    -999.25     0.0096     0.0195     0.0195 19047.2910     2.3111     1.6366     2.6811   311.6891     1.0000     1.0000 -1296.8662    78.4990     0.0195     1.0000
  1373.1520  5981.8687 5973519.0000    -999.25     8.5000     9.2293     9.2293     9.2293     1.0923     1.5240   118.9760   118.9762     0.0000    -999.25    77.6603     1.3170     1.4201  1373.1520     0.5313    -999.25     0.0099     0.0194     0.0194 19598.1602     2.3350     1.5240     2.3225   312.1523     1.0000     1.0000 -1296.9919    78.6080     0.0194     1.0000
  1373.1786  6009.0220 6009022.0000    -999.25     8.5000     9.2634     9.2634     9.2580     1.1113     1.5370   118.4768   118.4022     0.0000    -999.25    77.3542     1.3212     1.4255  1373.1786     0.5315    -999.25     0.0097     0.0194     0.0194 19714.6387     2.3357     1.5370     2.3631   312.1790     1.0000     1.0000 -1297.0186    78.6925     0.0194     1.0000
  1373.3044  6163.2769 6160510.5000    -999.25     8.5000     9.3935     9.3935     9.3936     1.1492     1.5985   115.6887   115.6872     0.0000    -999.25    75.9063     1.3414     1.4512  1373.3043     0.5324    -999.25     0.0092     0.0190     0.0190 20211.6465     2.3393     1.5985     2.5552   312.3050     1.0000     1.0000 -1297.1444    79.0920     0.0190     1.0000
  1373.3311  6192.6621 6192662.5000    -999.25     8.5000     9.4211     9.4211     9.3987     1.1572     1.6230   115.0970   115.4584     0.0000    -999.25    75.5945     1.3480     1.4601  1373.3311     0.5335    -999.25     0.0088     0.0188     0.0188 20317.1328     2.3384     1.6230     2.6371   312.2845     1.0000     1.0000 -1297.1711    79.2893     0.0188     1.0000
  1373.4568  6220.5244 6223659.0000    -999.25     8.5000     9.4227     9.4227     9.4227     1.0951     1.7385   114.3810   114.3810     0.0000    -999.25    74.1262     1.3787     1.5018  1373.4568     0.5384    -999.25     0.0073     0.0180     0.0180 20418.8301     2.3344     1.7385     3.0225   312.1882     1.0000     1.0000 -1297.2968    80.2180     0.0180     1.0000
  1373.4834  6230.2188 6230218.5000    -999.25     8.5000     9.4230     9.4230     9.4013     1.0819     1.7595   114.2295   114.5284     0.0000    -999.25    73.9208     1.3800     1.5033  1373.4834     0.5400    -999.25     0.0070     0.0178     0.0178 20440.3496     2.3349     1.7595     3.0978   312.1331     1.0000     1.0000 -1297.3234    80.4091     0.0178     1.0000
  1373.6092  6183.1694 6187346.5000    -999.25     8.5000     9.3003     9.3003     9.3003     1.0239     1.8585   115.2248   115.2254     0.0000    -999.25    72.9494     1.3864     1.5102  1373.6091     0.5471    -999.25     0.0057     0.0170     0.0170 20299.6934     2.3375     1.8585     3.4541   311.8723     1.0000     1.0000 -1297.4491    81.3130     0.0170     1.0000
  1373.6359  6178.2471 6178247.0000    -999.25     8.5000     9.2743     9.2743     9.2693     1.0116     1.8467   115.4361   115.5023     0.0000    -999.25    73.0564     1.3824     1.5037  1373.6359     0.5479    -999.25     0.0057     0.0170     0.0170 20269.8398     2.3399     1.8467     3.4108   311.7805     1.0000     1.0000 -1297.4758    81.3162     0.0170     1.0000
