~Version ---------------------------------------------------
VERS. 2.0 : CWLS log ASCII Standard -VERSION 2.0
WRAP.  NO : 
~Well ------------------------------------------------------
STRT.m                                                   1300.0 : 
STOP.m                                                1481.9656 : 
STEP.m                                                   0.1524 : 
NULL.                                                   -999.25 : 
COMP.                                                           : COMPANY
WELL.                                                    Well-3 : WELL
FLD .                                                           : FIELD
LOC .                                                           : LOCATION
SRVC.                                                           : SERVICE COMPANY
DATE. 2021-01-20 14:34:00   : Log Export Date {yyyy-MM-dd HH:mm : ss}
PROV.                                                           : PROVINCE
UWI .                                                    Well-3 : UNIQUE WELL ID
API .                                                           : API NUMBER
~Curve Information -----------------------------------------
DEPTH             .m        : DEPTH
ACOUSTICIMPEDANCE1.kPa.s/m  : ACOUSTICIMPEDANCE1
AI                .kPa.s/m  : AI
AVG_PIGN          .m3/m3    : AVG_PIGN
BS                .in       : BS
CALI              .in       : CALI
CALI[DERIVED]1    .in       : CALI[DERIVED]1
CALI1             .in       : CALI1
DEVI              .deg      : DEVI
DFL               .ohm.m    : DFL
DT                .us/ft    : DT
DT1               .us/ft    : DT1
FACIES            ._        : FACIES
FLD1              ._        : FLD1
GR                .gAPI     : GR
HDRS              .ohm.m    : HDRS
HMRS              .ohm.m    : HMRS
DEPTH_1           .m        : DEPTH_1
NPHI              .m3/m3    : NPHI
PERF_INT          ._        : PERF_INT
PERMEABILITY      .mD       : PERMEABILITY
PIGN              .m3/m3    : PIGN
PIGN_MODELLING    .m3/m3    : PIGN_MODELLING
PIMP              .kPa.s/m  : PIMP
RHOB              .g/cm3    : RHOB
RT_MODELLING      .ohm.m    : RT_MODELLING
RT_POWER          .ohm.m    : RT_POWER
SP                .mV       : SP
SUWI              ._        : SUWI
SUWI_MODELLING    ._        : SUWI_MODELLING
TDVSS             .m        : TDVSS
VCL               .%        : VCL
WATER_VOL         ._        : WATER_VOL
ZLT               ._        : ZLT
~Params ----------------------------------------------------
~Other -----------------------------------------------------
~ASCII -----------------------------------------------------
# ...
  1360.3504  5513.7529 5523866.0000    -999.25     8.5000     8.9036     8.9036     8.9036     0.9516     1.5297   125.6464   125.6458     0.0000    -999.25    76.1867     1.2773     1.3257  1360.3503     0.5909    -999.25     0.0014     0.0126     0.0126 18122.9180     2.2729     1.5297     2.3400   304.4830     1.0000     1.0000 -1284.1903    86.1290     0.0126     1.0000
  1360.3770  5443.1270 5443127.0000    -999.25     8.5000     8.9193     8.9193     8.9324     0.9382     1.4964   126.8164   126.6613     0.0000    -999.25    75.9952     1.2576     1.3036  1360.3770     0.5946    -999.25     0.0013     0.0126     0.0126 17858.0273     2.2647     1.4964     2.2445   304.6444     1.0000     1.0000 -1284.2169    86.1290     0.0126     1.0000
  1360.5028  5160.5444 5175777.5000    -999.25     8.5000     9.0688     9.0688     9.0688     0.9603     1.3390   131.4648   131.4643     0.0000    -999.25    75.0896     1.1644     1.1990  1360.5028     0.6120    -999.25     0.0010     0.0126     0.0126 16980.8984     2.2258     1.3390     1.7929   305.4077     1.0000     1.0000 -1284.3428    86.1290     0.0126     1.0000
  1360.5294  5119.2476 5119247.5000    -999.25     8.5000     9.1004     9.1004     9.0905     0.9650     1.3203   132.4477   132.0755     0.0000    -999.25    74.9188     1.1517     1.1839  1360.5294     0.6134    -999.25     0.0010     0.0126     0.0126 16795.4316     2.2245     1.3203     1.7448   305.5312     1.0000     1.0000 -1284.3694    86.1290     0.0126     1.0000
  1360.6552  5009.8032 5024581.0000    -999.25     8.5000     9.1930     9.1930     9.1930     0.9791     1.2319   134.9660   134.9657     0.0000    -999.25    74.1108     1.0919     1.1123  1360.6552     0.6201    -999.25     0.0009     0.0126     0.0126 16484.8457     2.2184     1.2319     1.5175   306.1153     1.0000     1.0000 -1284.4951    86.1290     0.0126     1.0000
  1360.6818  5004.5640 5004564.0000    -999.25     8.5000     9.2126     9.2126     9.2032     0.9821     1.2133   135.4985   135.0339     0.0000    -999.25    74.1750     1.0883     1.1073  1360.6818     0.6182    -999.25     0.0009     0.0126     0.0126 16419.1738     2.2248     1.2133     1.4737   306.1186     1.0000     1.0000 -1284.5217    86.0978     0.0126     1.0000
  1360.8076  5078.2349 5086555.5000    -999.25     8.5000     9.2511     9.2511     9.2512     0.9882     1.1256   135.3560   135.3560     0.0000    -999.25    74.4790     1.0714     1.0836  1360.8075     0.6092    -999.25     0.0011     0.0128     0.0128 16688.1738     2.2551     1.1256     1.2669   306.1343     1.0000     1.0000 -1284.6476    85.9500     0.0128     1.0000
  1360.8342  5103.8921 5103892.5000    -999.25     8.5000     9.2593     9.2593     9.2599     0.9895     1.1243   135.3259   134.7572     0.0000    -999.25    74.7246     1.0791     1.0917  1360.8341     0.6051    -999.25     0.0013     0.0129     0.0129 16745.0527     2.2660     1.1243     1.2641   306.0373     1.0000     1.0000 -1284.6742    85.7564     0.0129     1.0000
  1360.9600  5354.4526 5354249.0000    -999.25     8.5000     9.3015     9.3015     9.3015     1.0446     1.1183   131.9250   131.9254     0.0000    -999.25    75.8863     1.1156     1.1302  1360.9600     0.5857    -999.25     0.0021     0.0138     0.0138 17566.4336     2.3175     1.1183     1.2507   305.5784     1.0000     1.0000 -1284.7999    84.8410     0.0138     1.0000
  1360.9866  5407.1860 5407186.0000    -999.25     8.5000     9.3104     9.3104     9.3063     1.0562     1.1529   131.2059   130.9668     0.0000    -999.25    76.1613     1.1337     1.1500  1360.9866     0.5818    -999.25     0.0024     0.0140     0.0140 17740.1113     2.3276     1.1529     1.3347   305.3469     1.0000     1.0000 -1284.8265    84.5495     0.0140     1.0000
  1361.1124  5726.0850 5717071.5000    -999.25     8.5000     9.3292     9.3292     9.3292     1.0640     1.3161   126.4332   126.4337     0.0000    -999.25    77.4615     1.2193     1.2435  1361.1123     0.5634    -999.25     0.0039     0.0153     0.0153 18756.7969     2.3752     1.3161     1.7321   304.2521     1.0000     1.0000 -1284.9524    83.1710     0.0153     1.0000
  1361.1390  5782.5962 5782596.0000    -999.25     8.5000     9.3332     9.3332     9.3331     1.0656     1.3638   125.4240   125.6255     0.0000    -999.25    77.7602     1.2412     1.2674  1361.1389     0.5612    -999.25     0.0042     0.0155     0.0155 18971.7715     2.3795     1.3638     1.8706   303.9574     1.0000     1.0000 -1284.9790    82.9483     0.0155     1.0000
  1361.2648  6005.3320 5992609.5000    -999.25     8.5000     9.3514     9.3514     9.3514     1.0515     1.5893   121.8031   121.8035     0.0000    -999.25    79.1729     1.3446     1.3800  1361.2648     0.5508    -999.25     0.0055     0.0165     0.0165 19660.7910     2.3998     1.5893     2.5260   302.5633     1.0000     1.0000 -1285.1047    81.8950     0.0165     1.0000
  1361.2914  6037.0161 6037016.0000    -999.25     8.5000     9.3552     9.3552     9.3436     1.0485     1.6445   121.0375   121.4591     0.0000    -999.25    79.5430     1.3630     1.3998  1361.2914     0.5502    -999.25     0.0056     0.0165     0.0165 19806.4824     2.3973     1.6445     2.7187   302.4542     1.0000     1.0000 -1285.1313    81.8081     0.0165     1.0000
  1361.4172  6067.7314 6060738.0000    -999.25     8.5000     9.3067     9.3067     9.3068     1.0522     1.9052   119.8302   119.8303     0.0000    -999.25    81.2934     1.4499     1.4930  1361.4171     0.5471    -999.25     0.0060     0.0169     0.0169 19884.3105     2.3855     1.9052     3.6299   301.9381     1.0000     1.0000 -1285.2572    81.3970     0.0169     1.0000
  1361.4438  6065.7539 6065754.0000    -999.25     8.5000     9.2965     9.2965     9.2776     1.0530     1.9558   119.5749   119.9092     0.0000    -999.25    81.4837     1.4586     1.5026  1361.4437     0.5476    -999.25     0.0059     0.0168     0.0168 19900.7676     2.3796     1.9558     3.8371   301.9828     1.0000     1.0000 -1285.2838    81.4883     0.0168     1.0000
  1361.5696  5959.8726 5958964.5000    -999.25     8.5000     9.1399     9.1399     9.1399     1.1254     2.1948   120.2825   120.2824     0.0000    -999.25    82.3837     1.4997     1.5478  1361.5696     0.5499    -999.25     0.0051     0.0164     0.0164 19550.4082     2.3519     2.1948     4.8171   302.1941     1.0000     1.0000 -1285.4095    81.9200     0.0164     1.0000
  1361.5962  5936.3843 5936384.5000    -999.25     8.5000     9.1068     9.1068     9.1018     1.1407     2.2103   120.4321   120.6544     0.0000    -999.25    82.1970     1.4920     1.5410  1361.5962     0.5514    -999.25     0.0048     0.0162     0.0162 19476.3262     2.3456     2.2103     4.8867   302.3896     1.0000     1.0000 -1285.4362    82.1701     0.0162     1.0000
  1361.7220  5765.5073 5767670.0000    -999.25     8.5000     8.9216     8.9216     8.9215     1.1700     2.2839   122.4126   122.4137     0.0000    -999.25    81.3137     1.4557     1.5087  1361.7219     0.5585    -999.25     0.0035     0.0151     0.0151 18922.8008     2.3155     2.2839     5.2161   303.3145     1.0000     1.0000 -1285.5620    83.3530     0.0151     1.0000
  1361.7487  5731.8618 5731862.0000    -999.25     8.5000     8.8823     8.8823     8.8934     1.1762     2.2536   122.8329   122.9651     0.0000    -999.25    81.0446     1.4378     1.4910  1361.7487     0.5607    -999.25     0.0033     0.0149     0.0149 18805.3203     2.3099     2.2536     5.0830   303.5967     1.0000     1.0000 -1285.5887    83.6405     0.0149     1.0000
  1361.8744  5543.2256 5547973.5000    -999.25     8.5000     8.7613     8.7613     8.7613     1.2539     2.1110   125.5612   125.5612     0.0000    -999.25    79.7779     1.3536     1.4075  1361.8744     0.5709    -999.25     0.0022     0.0136     0.0136 18202.0117     2.2835     2.1110     4.4565   304.9256     1.0000     1.0000 -1285.7144    84.9940     0.0136     1.0000
  1361.9010  5509.0601 5509060.0000    -999.25     8.5000     8.7357     8.7357     8.7524     1.2703     2.0431   126.1385   126.0952     0.0000    -999.25    79.5303     1.3361     1.3889  1361.9010     0.5730    -999.25     0.0021     0.0135     0.0135 18074.3438     2.2799     2.0431     4.1960   305.0803     1.0000     1.0000 -1285.7410    85.1570     0.0135     1.0000
