~Version ---------------------------------------------------
VERS. 2.0 : CWLS log ASCII Standard -VERSION 2.0
WRAP.  NO : 
~Well ------------------------------------------------------
STRT.m                                                1333.6522 : 
STOP.m                                                1778.5078 : 
STEP.m                                                   0.1524 : 
NULL.                                                   -999.25 : 
COMP.                                                           : COMPANY
WELL.                                                   Well-15 : WELL
FLD .                                                           : FIELD
LOC .                                                           : LOCATION
SRVC.                                                           : SERVICE COMPANY
DATE. 2021-01-20 14:34:07   : Log Export Date {yyyy-MM-dd HH:mm : ss}
PROV.                                                           : PROVINCE
UWI .                                                   Well-15 : UNIQUE WELL ID
API .                                                           : API NUMBER
~Curve Information -----------------------------------------
DEPTH             .m        : DEPTH
ACOUSTICIMPEDANCE1.kPa.s/m  : ACOUSTICIMPEDANCE1
AI                .kPa.s/m  : AI
BS                .in       : BS
CALI              .in       : CALI
CALI[DERIVED]1    .in       : CALI[DERIVED]1
DRES              .ohm.m    : DRES
DT                .us/ft    : DT
DT2               .us/ft    : DT2
DT4P              .us/ft    : DT4P
FACIES            ._        : FACIES
FLD1              ._        : FLD1
GR                .gAPI     : GR
GR_EDTC           .gAPI     : GR_EDTC
LLD               .ohm.m    : LLD
LLS               .ohm.m    : LLS
M2R2              .ohm.m    : M2R2
LLS_1             .ohm.m    : LLS_1
LLD_1             .ohm.m    : LLD_1
DEPTH_1           .m        : DEPTH_1
MSFL              .ohm.m    : MSFL
NPHI              .m3/m3    : NPHI
PERF_INT          ._        : PERF_INT
PIMP              .kPa.s/m  : PIMP
PR                ._        : PR
RHOB              .g/cm3    : RHOB
RT_MODELLING      .ohm.m    : RT_MODELLING
RT_POWER          .ohm.m    : RT_POWER
SP                .mV       : SP
TDVSS             .m        : TDVSS
TENS              .t        : TENS
VPVS              ._        : VPVS
ZLT               ._        : ZLT
~Params ----------------------------------------------------
~Other -----------------------------------------------------
~ASCII -----------------------------------------------------
# ...
  1467.9166  6797.2212 6797264.0000     8.5000    10.4206    10.4206     4.8153   107.1227   256.0311   107.1227     0.0000    -999.25    59.2213    84.0508     4.8153     4.1630    -999.25    -999.25    -999.25  1467.9165     1.8144     0.3883    -999.25 22300.7344     0.3939     2.3889     4.8153    23.1871   -69.3752 -1269.7780  1765.0630     2.3900     2.0000
  1468.0690  6699.7661 6699852.0000     8.5000    10.3351    10.3351     4.8640   107.6573   254.8963   107.6573     0.0000    -999.25    58.2869    93.5388     4.8640     4.1904    -999.25    -999.25    -999.25  1468.0690     1.5750     0.3951    -999.25 21981.1426     0.3914     2.3664     4.8640    23.6585   -69.3744 -1269.8634  1765.0000     2.3676     2.0000
  1468.2214  6903.0889 6903153.5000     8.5000    10.2904    10.2904     4.8732   104.5040   268.2614   104.5040     0.0000    -999.25    56.6104    98.8220     4.8732     4.1371    -999.25    -999.25    -999.25  1468.2213     2.0771     0.3929    -999.25 22648.1426     0.4106     2.3668     4.8732    23.7481   -69.6042 -1269.9489  1739.0342     2.5670     2.0000
  1468.3738  6998.9033 6998908.0000     8.5000    10.3136    10.3136     4.8472   103.7397   268.6434   103.7397     0.0000    -999.25    56.4500   106.4052     4.8472     4.0532    -999.25    -999.25    -999.25  1468.3738     2.7105     0.3928    -999.25 22962.2969     0.4124     2.3821     4.8472    23.4953   -69.7913 -1270.0343  1781.9436     2.5896     2.0000
  1468.5262  7150.7549 7150755.0000     8.5000    10.4286    10.4286     4.8081   102.2315   247.6132   102.2315     0.0000    -999.25    58.3657   104.6104     4.8081     3.9674    -999.25    -999.25    -999.25  1468.5261     3.4689     0.3896    -999.25 23460.4824     0.3972     2.3984     4.8081    23.1178   -69.9721 -1270.1198  1807.9658     2.4221     2.0000
  1468.6786  7130.4292 7130412.5000     8.5000    10.5555    10.5555     4.8542   103.1940   219.2989   103.1940     0.0000    -999.25    59.6119    98.5446     4.8542     3.9473    -999.25    -999.25    -999.25  1468.6786     3.7768     0.3773    -999.25 23393.7402     0.3578     2.4141     4.8542    23.5633   -70.1248 -1270.2052  1839.9580     2.1251     2.0000
  1468.8310  6978.9219 6978883.5000     8.5000    10.5909    10.5909     5.0374   105.9278   203.7642   105.9278     0.0000    -999.25    61.3025    98.8314     5.0374     4.0420    -999.25    -999.25    -999.25  1468.8309     3.8826     0.3778    -999.25 22896.5996     0.3149     2.4254     5.0374    25.3754   -70.2361 -1270.2905  1929.8818     1.9237     2.0000
  1468.9834  7060.8467 7060786.0000     8.5000    10.5411    10.5411     5.3280   104.6901   205.6013   104.6901     0.0000    -999.25    63.2514    95.3866     5.3280     4.2257    -999.25    -999.25    -999.25  1468.9834     3.9000     0.3868    -999.25 23165.3105     0.3250     2.4252     5.3280    28.3876   -70.2710 -1270.3760  2028.8701     1.9639     2.0000
  1469.1358  7104.3818 7104376.5000     8.5000    10.4035    10.4035     5.5402   103.3493   240.6666   103.3493     0.0000    -999.25    63.6062   100.7925     5.5402     4.3581    -999.25    -999.25    -999.25  1469.1357     3.7952     0.4015    -999.25 23308.3203     0.3869     2.4089     5.5402    30.6938   -70.1877 -1270.4614  2034.9921     2.3287     2.0000
  1469.2882  6995.8330 6995901.5000     8.5000    10.3072    10.3072     5.5548   104.1686   238.6601   104.1686     0.0000    -999.25    63.4888    97.2566     5.5548     4.3578    -999.25    -999.25    -999.25  1469.2882     2.6562     0.4090    -999.25 22952.4355     0.3823     2.3909     5.5548    30.8558   -70.1317 -1270.5469  2016.0249     2.2910     2.0000
  1469.4406  7118.3594 7118433.0000     8.5000    10.2181    10.2181     5.3959   102.3585   227.9205   102.3585     0.0000    -999.25    60.7041   101.3171     5.3959     4.2275    -999.25    -999.25    -999.25  1469.4406     2.3287     0.4062    -999.25 23354.4375     0.3737     2.3905     5.3959    29.1157   -70.3602 -1270.6323  1983.0433     2.2267     2.0000
  1469.5930  7204.6836 7204680.5000     8.5000    10.0910    10.0910     5.1921   101.8766   192.9130   101.8766     0.0000    -999.25    57.7584    98.3463     5.1921     4.0661    -999.25    -999.25    -999.25  1469.5929     2.8540     0.4017    -999.25 23637.4023     0.3066     2.4081     5.1921    26.9579   -70.9504 -1270.7178  1921.0814     1.8936     2.0000
  1469.7454  8390.5508 8390820.0000     8.5000    10.0176    10.0176     5.1423    88.0774   197.3957    88.0774     0.0000    -999.25    57.6832    97.6704     5.1423     4.0275    -999.25    -999.25    -999.25  1469.7454     2.9493     0.4015    -999.25 27528.9395     0.3757     2.4246     5.1423    26.4433   -71.4105 -1270.8032  1868.0696     2.2412     2.0000
  1469.8978  8067.6006 8067882.0000     8.5000    10.1344    10.1344     5.3008    92.4419   202.0132    92.4419     0.0000    -999.25    58.2919    92.3262     5.3008     4.1460    -999.25    -999.25    -999.25  1469.8977     2.6200     0.4155    -999.25 26469.4277     0.3676     2.4468     5.3008    28.0985   -71.3813 -1270.8887  1773.1246     2.1853     2.0000
  1470.0502  8485.5938 8486133.0000     8.5000    10.2332    10.2332     5.6334    90.8589   232.6193    90.8589     0.0000    -999.25    56.1258    79.8613     5.6334     4.3960    -999.25    -999.25    -999.25  1470.0502     2.1474     0.4162    -999.25 27841.6445     0.4099     2.5295     5.6334    31.7352   -71.4654 -1270.9741  1664.1431     2.5602     2.0000
  1470.2026  8834.4736 8834797.0000     8.5000     9.8818     9.8818     6.1438    94.2780   184.9977    94.2780     0.0000    -999.25    46.1531    63.8272     6.1438     4.7984    -999.25    -999.25    -999.25  1470.2025     4.0503     0.3903    -999.25 28985.5527     0.3245     2.7326     6.1438    37.7463   -71.5691 -1271.0596  1528.1785     1.9623     2.0000
  1470.3550 10183.5498 10182705.0000     8.5000     9.5822     9.5822     6.6902    90.2648   187.2679    90.2648     0.0000    -999.25    34.5245    59.2794     6.6902     5.2397    -999.25    -999.25    -999.25  1470.3550    10.1406     0.3513    -999.25 33407.8281     0.3487     3.0158     6.6902    44.7588   -71.7083 -1271.1450  1466.0814     2.0747     2.0000
  1470.5074  8645.7969 8644960.0000     8.5000     9.6510     9.6510     6.8545   108.9493   203.0079   108.9493     0.0000    -999.25    29.6631    67.8047     6.8545     5.3941    -999.25    -999.25    -999.25  1470.5073    13.2238     0.3401    -999.25 28362.7305     0.2978     3.0904     6.8545    46.9842   -71.7848 -1271.2305  1350.1522     1.8634     2.0000
  1470.6598  7859.3286 7859228.0000     8.5000     9.7608     9.7608     6.6805   110.2183   200.2892   110.2183     0.0000    -999.25    36.5957    86.9674     6.6805     5.2797    -999.25    -999.25    -999.25  1470.6598     6.5236     0.3603    -999.25 25784.8691     0.2828     2.8420     6.6805    44.6291   -71.7639 -1271.3159  1294.0735     1.8172     2.0000
  1470.8122  6972.2632 6972792.0000     8.5000     9.5662     9.5662     6.4316   112.0268   186.0121   112.0268     0.0000    -999.25    51.9451    99.1800     6.4316     5.1096    -999.25    -999.25    -999.25  1470.8121     2.0117     0.3874    -999.25 22876.6133     0.2154     2.5626     6.4316    41.3655   -71.8052 -1271.4014  1335.9448     1.6604     2.0000
  1470.9646  7115.1177 7115557.0000     8.5000     9.3262     9.3262     6.0022   103.9344   185.9934   103.9344     0.0000    -999.25    60.3533   106.9227     6.0022     4.8117    -999.25    -999.25    -999.25  1470.9646     2.2870     0.3963    -999.25 23345.0020     0.2729     2.4262     6.0022    36.0264   -71.9721 -1271.4868  1327.0118     1.7895     2.0000
  1471.1170  7304.7896 7304943.5000     8.5000     9.4535     9.4535     5.5904   100.1509   237.2649   100.1509     0.0000    -999.25    63.1506   108.8304     5.5904     4.5142    -999.25    -999.25    -999.25  1471.1169     2.3125     0.3945    -999.25 23966.3496     0.3915     2.4002     5.5904    31.2526   -72.0696 -1271.5723  1373.9384     2.3691     2.0000
