~Version ---------------------------------------------------
VERS. 2.0 : CWLS log ASCII Standard -VERSION 2.0
WRAP.  NO : 
~Well ------------------------------------------------------
STRT.m                                                1239.5456 : 
STOP.m                                                  1697.66 : 
STEP.m                                                   0.1524 : 
NULL.                                                   -999.25 : 
COMP.                                                           : COMPANY
WELL.                                                   Well-16 : WELL
FLD .                                                           : FIELD
LOC .                                                           : LOCATION
SRVC.                                                           : SERVICE COMPANY
DATE. 2021-01-20 14:34:07   : Log Export Date {yyyy-MM-dd HH:mm : ss}
PROV.                                                           : PROVINCE
UWI .                                                   Well-16 : UNIQUE WELL ID
API .                                                           : API NUMBER
~Curve Information -----------------------------------------
DEPTH             .m        : DEPTH
ACOUSTICIMPEDANCE1.kPa.s/m  : ACOUSTICIMPEDANCE1
AI                .kPa.s/m  : AI
AVG_PIGN          .m3/m3    : AVG_PIGN
BIT               .m        : BIT
CALI              .in       : CALI
CALI_1            .in       : CALI_1
NPHI              .m3/m3    : NPHI
DT                .us/ft    : DT
FACIES            ._        : FACIES
FLD1              ._        : FLD1
GR                .gAPI     : GR
M2R2              .ohm.m    : M2R2
LLS               .ohm.m    : LLS
LLD               .ohm.m    : LLD
DEPTH_1           .m        : DEPTH_1
NPHI_1            .m3/m3    : NPHI_1
PEF               .b/e      : PEF
PIGN_MODELLING    .m3/m3    : PIGN_MODELLING
PIMP              .kPa.s/m  : PIMP
RHOB              .g/cm3    : RHOB
RT_MODELLING      .ohm.m    : RT_MODELLING
RT_POWER          .ohm.m    : RT_POWER
SP                .mV       : SP
SUWI_MODELLING    ._        : SUWI_MODELLING
TDVSS             .m        : TDVSS
ZCOR              .g/cm3    : ZCOR
RHOB_1            .g/cm3    : RHOB_1
ZLT               ._        : ZLT
~Params ----------------------------------------------------
~Other -----------------------------------------------------
~ASCII -----------------------------------------------------
# ...
  1631.9756  3792.2976 3792297.7500    -999.25     0.2159     8.9434     9.2434     0.5845   139.6167     3.0000    -999.25    60.6279     6.9089     6.7898     6.9193  1631.9756     0.5845     2.1702     0.0000 12441.9219     1.7371     6.9193    47.8767   190.4299     1.0000 -1551.2556    -0.0119     1.7371    22.0000
  1632.1280  3589.7297 3589729.7500    -999.25     0.2159     8.9537     9.2537     0.5953   141.9507     3.0000    -999.25    60.5443     7.0140     6.8810     7.0051  1632.1281     0.5953     2.1524     0.0000 11777.3281     1.6718     7.0051    49.0714   190.9377     1.0000 -1551.4080    -0.0257     1.6718    22.0000
  1632.2805  3514.1272 3514127.2500    -999.25     0.2159     8.9582     9.2582     0.6068   142.8449     3.0000    -999.25    61.5626     6.7590     6.6306     6.7376  1632.2805     0.6068     2.3412     0.0000 11529.2891     1.6469     6.7376    45.3953   191.4441     1.0000 -1551.5604    -0.0080     1.6469    22.0000
  1632.4328  3602.3994 3602399.5000    -999.25     0.2159     8.9546     9.2546     0.6068   143.0675     3.0000    -999.25    64.0255     5.8759     5.7766     5.8522  1632.4329     0.6068     2.5747     0.0000 11818.8965     1.6909     5.8522    34.2482   191.9949     1.0000 -1551.7128     0.0151     1.6909    22.0000
  1632.5853  3817.2212 3817221.2500    -999.25     0.2159     8.9514     9.2514     0.5873   142.4580     3.0000    -999.25    66.9677     4.8233     4.7499     4.7963  1632.5853     0.5873     2.6714     0.0000 12523.6914     1.7841     4.7963    23.0045   192.6117     1.0000 -1551.8652     0.0254     1.7841    22.0000
  1632.7376  4110.3457 4110345.7500    -999.25     0.2159     8.9503     9.2503     0.5818   139.8032     3.0000    -999.25    69.4594     4.1552     4.0903     4.1183  1632.7377     0.5818     2.6388     0.0000 13485.3857     1.8853     4.1183    16.9604   193.2027     1.0000 -1552.0176     0.0368     1.8853    22.0000
  1632.8900  4357.4751 4357475.0000    -999.25     0.2159     8.9506     9.2506     0.6083   137.0716     3.0000    -999.25    72.3150     3.8495     3.7802     3.7974  1632.8900     0.6083     2.6143     0.0000 14296.1787     1.9596     3.7974    14.4202   193.6600     1.0000 -1552.1700     0.0432     1.9596    22.0000
  1633.0424  4541.2236 4541224.0000    -999.25     0.2159     8.9571     9.2571     0.6353   134.4316     3.0000    -999.25    75.4789     3.7127     3.6325     3.6414  1633.0424     0.6353     2.6147     0.0000 14899.0283     2.0029     3.6414    13.2598   193.9882     1.0000 -1552.3224     0.0382     2.0029    22.0000
  1633.1948  4695.4751 4695475.0000    -999.25     0.2159     8.9669     9.2669     0.6423   131.3396     3.0000    -999.25    77.9426     3.6357     3.5427     3.5441  1633.1948     0.6423     2.6602     0.0000 15405.1016     2.0233     3.5441    12.5606   194.2715     1.0000 -1552.4749     0.0302     2.0233    22.0000
  1633.3472  4752.1470 4752147.0000    -999.25     0.2159     8.9721     9.2721     0.6417   130.0940     4.0000    -999.25    79.0799     3.5917     3.4863     3.4810  1633.3472     0.6417     2.7501     0.0000 15591.0332     2.0283     3.4810    12.1174   194.5663     1.0000 -1552.6272     0.0238     2.0283    22.0000
  1633.4996  4731.9199 4731919.5000    -999.25     0.2159     8.9691     9.2691     0.6279   130.8047     4.0000    -999.25    79.1572     3.5856     3.4683     3.4565  1633.4996     0.6279     2.7671     0.0000 15524.6709     2.0307     3.4565    11.9474   194.8352     1.0000 -1552.7797     0.0236     2.0307    22.0000
  1633.6520  4752.0830 4752083.0000    -999.25     0.2159     8.9583     9.2583     0.5885   130.5319     4.0000    -999.25    78.6932     3.6473     3.5155     3.4971  1633.6520     0.5885     2.7272     0.0000 15590.8242     2.0351     3.4971    12.2297   194.9749     1.0000 -1552.9320     0.0309     2.0351    22.0000
  1633.8044  4773.4082 4773408.0000    -999.25     0.2159     8.9473     9.2473     0.5620   129.9743     4.0000    -999.25    79.2794     3.8032     3.6503     3.6241  1633.8044     0.5620     2.7695     0.0000 15660.7881     2.0355     3.6241    13.1341   194.9650     1.0000 -1553.0845     0.0320     2.0355    22.0000
  1633.9568  4805.6270 4805627.0000    -999.25     0.2159     8.9440     9.2440     0.5761   129.9084     4.0000    -999.25    79.9165     4.0008     3.8228     3.7882  1633.9568     0.5761     3.0863     0.0000 15766.4932     2.0482     3.7882    14.3505   194.9061     1.0000 -1553.2368     0.0303     2.0482    22.0000
  1634.1092  5089.6182 5089618.5000    -999.25     0.2159     8.9423     9.2423     0.5878   126.0194     4.0000    -999.25    76.8365     4.1988     3.9951     3.9523  1634.1093     0.5878     3.7124     0.0771 16698.2227     2.1043     3.9523    15.6207   194.8435     0.8898 -1553.3892     0.0435     2.1043    22.0000
  1634.2617  5664.7095 5664709.0000    -999.25     0.2159     8.9375     9.2375     0.5528   117.4872     4.0000    -999.25    68.7213     4.5367     4.2947     4.2412  1634.2617     0.5528     4.1370     0.1565 18585.0039     2.1835     4.2412    17.9878   194.7065     0.7646 -1553.5416     0.0354     2.1835    22.0000
  1634.4140  6010.3477 6010347.5000    -999.25     0.2159     8.9389     9.2389     0.5015   112.4652     4.0000    -999.25    60.4063     5.0575     4.7582     4.6903  1634.4141     0.5015     3.6101     0.1614 19718.9883     2.2177     4.6903    21.9989   194.4277     0.7371 -1553.6940    -0.0122     2.2177    22.0000
  1634.5665  5927.0962 5927096.0000    -999.25     0.2159     8.9472     9.2472     0.4744   111.8079     4.0000    -999.25    58.7120     5.2601     4.9469     4.8736  1634.5665     0.4744     2.8119     0.1632 19445.8535     2.1742     4.8736    23.7520   194.0866     0.7275 -1553.8464    -0.0327     2.1742    22.0000
  1634.7188  5634.9849 5634984.5000    -999.25     0.2159     8.9524     9.2524     0.4836   114.0339     4.0000    -999.25    63.8091     4.8755     4.6246     4.5628  1634.7189     0.4836     2.6638     0.1604 18487.4824     2.1082     4.5628    20.8191   193.8387     0.7427 -1553.9988     0.0032     2.1082    22.0000
  1634.8712  5159.1211 5159121.0000    -999.25     0.2159     8.9512     9.2512     0.5215   121.8108     4.0000    -999.25    69.9722     4.4490     4.2599     4.2110  1634.8712     0.5215     2.8530     0.1564 16926.2500     2.0618     4.2110    17.7325   193.7072     0.7648 -1554.1512     0.0275     2.0618    22.0000
  1635.0236  4846.3711 4846371.0000    -999.25     0.2159     8.9503     9.2503     0.5428   127.7911     4.0000    -999.25    72.9782     4.3182     4.1616     4.1194  1635.0236     0.5428     2.9536     0.1546 15900.1680     2.0319     4.1194    16.9695   193.5773     0.7753 -1554.3036     0.0168     2.0319    22.0000
  1635.1760  4734.3101 4734310.0000    -999.25     0.2159     8.9537     9.2537     0.5347   129.6635     4.0000    -999.25    73.6469     4.3332     4.1953     4.1578  1635.1760     0.5347     2.8570     0.1544 15532.5127     2.0140     4.1578    17.2873   193.3481     0.7763 -1554.4561     0.0091     2.0140    22.0000
  1635.3284  4641.6479 4641647.5000    -999.25     0.2159     8.9559     9.2559     0.5304   131.2079     4.0000    -999.25    73.7540     4.2793     4.1590     4.1275  1635.3284     0.5304     2.6812     0.1539 15228.5029     1.9981     4.1275    17.0363   193.0442     0.7790 -1554.6084     0.0112     1.9981    22.0000
  1635.4808  4540.6895 4540689.5000    -999.25     0.2159     8.9510     9.2510     0.5582   132.8565     0.0000    -999.25    74.3842     4.1596     4.0547     4.0296  1635.4808     0.5582     2.5839     0.1527 14897.2754     1.9792     4.0296    16.2377   192.8123     0.7855 -1554.7609     0.0133     1.9792    22.0000
  1635.6332  4454.9956 4454996.0000    -999.25     0.2159     8.9434     9.2434     0.5921   134.4679     0.0000    -999.25    75.4671     4.0784     3.9832     3.9632  1635.6332     0.5921     2.6152     0.0759 14616.1279     1.9654     3.9632    15.7070   192.7352     0.8949 -1554.9132     0.0125     1.9654    22.0000
