~Version ---------------------------------------------------
VERS. 2.0 : CWLS log ASCII Standard -VERSION 2.0
WRAP.  NO : 
~Well ------------------------------------------------------
STRT.m                                                   1300.0 : 
STOP.m                                                 1514.884 : 
STEP.m                                                   0.1524 : 
NULL.                                                   -999.25 : 
COMP.                                                           : COMPANY
WELL.                                                    Well-2 : WELL
FLD .                                                           : FIELD
LOC .                                                           : LOCATION
SRVC.                                                           : SERVICE COMPANY
DATE. 2021-01-20 14:33:59   : Log Export Date {yyyy-MM-dd HH:mm : ss}
PROV.                                                           : PROVINCE
UWI .                                                    Well-2 : UNIQUE WELL ID
API .                                                           : API NUMBER
~Curve Information -----------------------------------------
DEPTH             .m        : DEPTH
ACOUSTICIMPEDANCE1.kPa.s/m  : ACOUSTICIMPEDANCE1
AI                .kPa.s/m  : AI
AVG_PIGN          .m3/m3    : AVG_PIGN
CALI              .in       : CALI
CALI[DERIVED]1    .in       : CALI[DERIVED]1
DT                .us/ft    : DT
FACIES            ._        : FACIES
FLD1              ._        : FLD1
GR                .gAPI     : GR
LLD               .ohm.m    : LLD
LLS               .ohm.m    : LLS
LL3               .ohm.m    : LL3
DEPTH_1           .m        : DEPTH_1
NPHI              .m3/m3    : NPHI
PERF_INT          ._        : PERF_INT
PERMEABILITY      .mD       : PERMEABILITY
PIGN              .m3/m3    : PIGN
PIGN_MODELLING    .m3/m3    : PIGN_MODELLING
PIMP              .kPa.s/m  : PIMP
RHOB              .g/cm3    : RHOB
RT_MODELLING      .ohm.m    : RT_MODELLING
RT_POWER          .ohm.m    : RT_POWER
SP                .mV       : SP
SUWI              ._        : SUWI
SUWI_MODELLING    ._        : SUWI_MODELLING
TDVSS             .m        : TDVSS
VCL               .%        : VCL
WATER_VOL         ._        : WATER_VOL
ZLT               ._        : ZLT
~Params ----------------------------------------------------
~Other -----------------------------------------------------
~ASCII -----------------------------------------------------
# ...
  1357.1500  5675.5869 5673475.0000    -999.25    10.0229    10.0229   125.5818     0.0000    -999.25    80.7581     1.2652     1.2990     1.3979  1357.1499     0.5527    -999.25     0.0127     0.0224     0.0224 18613.7637     2.3384     1.2652     1.6007    53.3513     1.0000     1.0000 -1281.1499    82.8230     0.0224     1.0000
  1357.2744  5783.3130 5783313.0000    -999.25     9.9876     9.9876   123.6190     0.0000    -999.25    80.1164     1.2611     1.3182     1.4846  1357.2744     0.5546    -999.25     0.0126     0.0224     0.0224 18974.1230     2.3456     1.2611     1.5903    53.2118     1.0000     1.0000 -1281.2744    82.8230     0.0224     1.0000
  1357.3024  5797.1851 5793999.5000    -999.25     9.9797     9.9797   123.4077     0.0000    -999.25    79.9720     1.2601     1.3225     1.5041  1357.3024     0.5550    -999.25     0.0126     0.0224     0.0224 19009.1836     2.3472     1.2601     1.5880    53.1804     1.0000     1.0000 -1281.3024    82.8230     0.0224     1.0000
  1357.4268  5841.4785 5841478.5000    -999.25     9.9478     9.9478   122.4690     0.0000    -999.25    78.7398     1.2602     1.3295     1.5439  1357.4268     0.5550    -999.25     0.0126     0.0224     0.0224 19164.9570     2.3471     1.2602     1.5882    53.0735     1.0000     1.0000 -1281.4268    82.8132     0.0224     1.0000
  1357.4548  5833.3779 5831212.0000    -999.25     9.9407     9.9407   122.6384     0.0000    -999.25    78.4624     1.2603     1.3311     1.5529  1357.4547     0.5550    -999.25     0.0126     0.0224     0.0224 19131.2734     2.3471     1.2603     1.5883    53.0494     1.0000     1.0000 -1281.4547    82.8110     0.0224     1.0000
  1357.5792  5785.5991 5785599.5000    -999.25     9.9196     9.9196   123.3910     0.0000    -999.25    77.2395     1.2611     1.3234     1.5552  1357.5792     0.5511    -999.25     0.0134     0.0227     0.0227 18981.6250     2.3422     1.2611     1.5905    53.0243     1.0000     1.0000 -1281.5792    82.6020     0.0227     1.0000
  1357.6072  5764.0151 5763759.0000    -999.25     9.9148     9.9148   123.7943     0.0000    -999.25    76.9642     1.2614     1.3217     1.5557  1357.6072     0.5503    -999.25     0.0136     0.0227     0.0227 18909.9688     2.3411     1.2614     1.5910    53.0186     1.0000     1.0000 -1281.6072    82.5550     0.0227     1.0000
  1357.7316  5666.7236 5666723.5000    -999.25     9.9254     9.9254   125.5860     0.0000    -999.25    75.5835     1.2594     1.3031     1.5121  1357.7316     0.5444    -999.25     0.0163     0.0238     0.0238 18591.6133     2.3348     1.2594     1.5860    53.0952     1.0000     1.0000 -1281.7316    81.7738     0.0238     1.0000
  1357.7596  5640.5020 5640756.5000    -999.25     9.9278     9.9278   126.0944     0.0000    -999.25    75.2727     1.2589     1.2989     1.5022  1357.7595     0.5431    -999.25     0.0169     0.0240     0.0240 18506.4199     2.3334     1.2589     1.5849    53.1125     1.0000     1.0000 -1281.7595    81.5980     0.0240     1.0000
  1357.8840  5525.3896 5525389.5000    -999.25     9.9888     9.9888   128.3530     0.0000    -999.25    74.2528     1.2507     1.2764     1.4358  1357.8840     0.5447    -999.25     0.0164     0.0240     0.0240 18127.9180     2.3268     1.2507     1.5642    53.2975     1.0000     1.0000 -1281.8840    81.6388     0.0240     1.0000
  1357.9120  5499.4331 5500125.5000    -999.25    10.0025    10.0025   128.8755     0.0000    -999.25    74.0233     1.2488     1.2713     1.4209  1357.9120     0.5451    -999.25     0.0163     0.0239     0.0239 18045.0312     2.3253     1.2488     1.5595    53.3392     1.0000     1.0000 -1281.9120    81.6480     0.0239     1.0000
  1358.0364  5387.8809 5387881.0000    -999.25    10.0763    10.0763   131.1970     0.0000    -999.25    73.1336     1.2331     1.2508     1.3570  1358.0364     0.5630    -999.25     0.0118     0.0227     0.0227 17676.7754     2.3191     1.2331     1.5207    53.6004     1.0000     1.0000 -1282.0364    82.6071     0.0227     1.0000
  1358.0644  5371.3096 5372101.5000    -999.25    10.0929    10.0929   131.5235     0.0000    -999.25    72.9334     1.2296     1.2462     1.3426  1358.0643     0.5671    -999.25     0.0108     0.0224     0.0224 17625.0059     2.3178     1.2296     1.5120    53.6592     1.0000     1.0000 -1282.0643    82.8230     0.0224     1.0000
  1358.1888  5301.9966 5301996.5000    -999.25    10.1450    10.1450   132.9740     0.0000    -999.25    72.3478     1.2085     1.2293     1.3208  1358.1888     0.5906    -999.25     0.0085     0.0224     0.0224 17395.0020     2.3131     1.2085     1.4606    53.9576     1.0000     1.0000 -1282.1888    82.8230     0.0224     1.0000
  1358.2168  5296.3120 5296591.5000    -999.25    10.1568    10.1568   133.0561     0.0000    -999.25    72.2160     1.2038     1.2255     1.3159  1358.2168     0.5959    -999.25     0.0079     0.0224     0.0224 17377.2695     2.3120     1.2038     1.4490    54.0248     1.0000     1.0000 -1282.2168    82.8230     0.0224     1.0000
  1358.3412  5272.5786 5272579.0000    -999.25    10.1690    10.1690   133.4210     0.0000    -999.25    72.2719     1.1810     1.2103     1.3035  1358.3412     0.6048    -999.25     0.0071     0.0224     0.0224 17298.4863     2.3080     1.1810     1.3948    54.3789     1.0000     1.0000 -1282.3412    82.8230     0.0224     1.0000
  1358.3692  5270.8159 5270229.5000    -999.25    10.1717    10.1717   133.4129     0.0000    -999.25    72.2844     1.1759     1.2069     1.3007  1358.3691     0.6069    -999.25     0.0069     0.0224     0.0224 17290.7793     2.3071     1.1759     1.3826    54.4586     1.0000     1.0000 -1282.3691    82.8230     0.0224     1.0000
  1358.4937  5259.7837 5259783.5000    -999.25    10.1788    10.1788   133.3770     0.0000    -999.25    72.7444     1.1559     1.1912     1.3012  1358.4938     0.5935    -999.25     0.0081     0.0224     0.0224 17256.5078     2.3016     1.1559     1.3363    54.8054     1.0000     1.0000 -1282.4938    82.8107     0.0224     1.0000
  1358.5216  5257.5776 5256564.5000    -999.25    10.1804    10.1804   133.3622     0.0000    -999.25    72.8475     1.1515     1.1877     1.3013  1358.5216     0.5906    -999.25     0.0083     0.0224     0.0224 17245.9473     2.3004     1.1515     1.3259    54.8831     1.0000     1.0000 -1282.5216    82.8080     0.0224     1.0000
  1358.6460  5242.2124 5242212.5000    -999.25    10.1503    10.1503   133.2960     0.0000    -999.25    73.8248     1.1377     1.1716     1.3073  1358.6460     0.5653    -999.25     0.0112     0.0228     0.0228 17198.8594     2.2925     1.1377     1.2944    55.1128     1.0000     1.0000 -1282.6460    82.5541     0.0228     1.0000
  1358.6740  5233.8052 5232699.5000    -999.25    10.1435    10.1435   133.4071     0.0000    -999.25    74.0447     1.1346     1.1680     1.3086  1358.6740     0.5597    -999.25     0.0119     0.0228     0.0228 17167.6484     2.2908     1.1346     1.2873    55.1645     1.0000     1.0000 -1282.6740    82.4970     0.0228     1.0000
  1358.7985  5190.3994 5190399.5000    -999.25    10.1110    10.1110   133.9010     0.0000    -999.25    74.9514     1.1277     1.1542     1.3058  1358.7985     0.5430    -999.25     0.0156     0.0239     0.0239 17028.8691     2.2802     1.1277     1.2718    55.3027     1.0000     1.0000 -1282.7985    81.7095     0.0239     1.0000
  1358.8264  5175.9844 5175694.0000    -999.25    10.1037    10.1037   134.1342     0.0000    -999.25    75.1546     1.1262     1.1510     1.3052  1358.8263     0.5393    -999.25     0.0165     0.0241     0.0241 16980.6230     2.2778     1.1262     1.2683    55.3337     1.0000     1.0000 -1282.8263    81.5330     0.0241     1.0000
  1358.9508  5110.1245 5110124.5000    -999.25    10.0929    10.0929   135.1740     0.0000    -999.25    74.5885     1.1253     1.1414     1.2907  1358.9508     0.5494    -999.25     0.0135     0.0233     0.0233 16765.5000     2.2663     1.1253     1.2663    55.3983     1.0000     1.0000 -1282.9508    82.1060     0.0233     1.0000
  1358.9788  5093.4141 5093851.5000    -999.25    10.0905    10.0905   135.4619     0.0000    -999.25    74.4611     1.1251     1.1393     1.2874  1358.9788     0.5517    -999.25     0.0128     0.0232     0.0232 16712.1113     2.2637     1.1251     1.2658    55.4129     1.0000     1.0000 -1282.9788    82.2350     0.0232     1.0000
