~Version ---------------------------------------------------
VERS. 2.0 : CWLS log ASCII Standard -VERSION 2.0
WRAP.  NO : 
~Well ------------------------------------------------------
STRT.m                                                   1300.0 : 
STOP.m                                                 1514.884 : 
STEP.m                                                   0.1524 : 
NULL.                                                   -999.25 : 
COMP.                                                           : COMPANY
WELL.                                                    Well-2 : WELL
FLD .                                                           : FIELD
LOC .                                                           : LOCATION
SRVC.                                                           : SERVICE COMPANY
DATE. 2021-01-20 14:33:59   : Log Export Date {yyyy-MM-dd HH:mm : ss}
PROV.                                                           : PROVINCE
UWI .                                                    Well-2 : UNIQUE WELL ID
API .                                                           : API NUMBER
~Curve Information -----------------------------------------
DEPTH             .m        : DEPTH
ACOUSTICIMPEDANCE1.kPa.s/m  : ACOUSTICIMPEDANCE1
AI                .kPa.s/m  : AI
AVG_PIGN          .m3/m3    : AVG_PIGN
CALI              .in       : CALI
CALI[DERIVED]1    .in       : CALI[DERIVED]1
DT                .us/ft    : DT
FACIES            ._        : FACIES
FLD1              ._        : FLD1
GR                .gAPI     : GR
LLD               .ohm.m    : LLD
LLS               .ohm.m    : LLS
LL3               .ohm.m    : LL3
DEPTH_1           .m        : DEPTH_1
NPHI              .m3/m3    : NPHI
PERF_INT          ._        : PERF_INT
PERMEABILITY      .mD       : PERMEABILITY
PIGN              .m3/m3    : PIGN
PIGN_MODELLING    .m3/m3    : PIGN_MODELLING
PIMP              .kPa.s/m  : PIMP
RHOB              .g/cm3    : RHOB
RT_MODELLING      .ohm.m    : RT_MODELLING
RT_POWER          .ohm.m    : RT_POWER
SP                .mV       : SP
SUWI              ._        : SUWI
SUWI_MODELLING    ._        : SUWI_MODELLING
TDVSS             .m        : TDVSS
VCL               .%        : VCL
WATER_VOL         ._        : WATER_VOL
ZLT               ._        : ZLT
~Params ----------------------------------------------------
~Other -----------------------------------------------------
~ASCII -----------------------------------------------------
# ...
  1427.6832  5789.6562 5789656.5000    -999.25     9.6253     9.6253   122.1590     4.0000     0.0000    75.2887     3.5382     3.6528     4.0726  1427.6832     0.5139    -999.25    10.4030     0.1665     0.1665 18994.9355     2.3204     3.5382    12.5377    45.7503     0.6167     0.6167 -1351.6832    51.5651     0.1025     8.0000
  1427.7112  5825.0312 5821737.0000    -999.25     9.6279     9.6279   121.9042     4.0000     0.0000    74.3897     3.4732     3.5630     3.9526  1427.7112     0.5196    -999.25    10.4424     0.1596     0.1596 19100.1855     2.3297     3.4732    12.0630    45.8836     0.6231     0.6231 -1351.7112    53.5800     0.0994     8.0000
  1427.8356  5964.2656 5964265.5000    -999.25     9.6458     9.6458   120.7720     4.0000     0.0000    71.5425     3.2314     3.2771     3.5732  1427.8356     0.5355    -999.25     7.5890     0.1289     0.1289 19567.8008     2.3632     3.2314    10.4552    46.2471     0.6595     0.6595 -1351.8356    62.4072     0.0848     8.0000
  1427.8636  6011.3706 6003052.0000    -999.25     9.6498     9.6498   120.2083     4.0000     0.0000    70.9016     3.1770     3.2128     3.4879  1427.8635     0.5390    -999.25     6.9468     0.1220     0.1220 19695.0527     2.3708     3.1770    10.0933    46.3289     0.6678     0.6678 -1351.8635    64.3940     0.0815     8.0000
  1427.9880  6175.3745 6175374.5000    -999.25     9.6677     9.6677   117.7040     4.0000     0.0000    69.5211     2.9790     3.0007     3.2517  1427.9880     0.5445    -999.25     4.1992     0.1002     0.1002 20260.4160     2.3847     2.9790     8.8835    46.4937     0.7481     0.7481 -1351.9880    67.9407     0.0746     8.0000
  1428.0160  6204.1382 6196608.5000    -999.25     9.6718     9.6718   117.3125     4.0000     0.0000    69.2103     2.9345     2.9530     3.1986  1428.0160     0.5458    -999.25     3.5808     0.0953     0.0953 20330.0820     2.3879     2.9345     8.6112    46.5308     0.7662     0.7662 -1352.0160    68.7390     0.0730     8.0000
  1428.1404  6290.9492 6290949.0000    -999.25     9.6904     9.6904   115.5730     4.0000     0.0000    69.4874     2.7875     2.7861     3.0759  1428.1404     0.5429    -999.25     0.7475     0.0431     0.0431 20639.5977     2.3854     2.7875     7.7751    46.4069     0.9571     0.9571 -1352.1404    74.6496     0.0390     8.0000
  1428.1684  6299.1650 6300912.5000    -999.25     9.6946     9.6946   115.3952     4.0000     0.0000    69.5497     2.7544     2.7486     3.0483  1428.1683     0.5423    -999.25     0.1098     0.0313     0.0313 20672.2852     2.3848     2.7544     7.5869    46.3790     1.0000     1.0000 -1352.1683    75.9800     0.0313     8.0000
  1428.2928  6345.1787 6345179.0000    -999.25     9.7169     9.7169   114.6050     4.0000     0.0000    69.8657     2.6612     2.6315     2.9466  1428.2928     0.5364    -999.25     0.1139     0.0322     0.0322 20817.5156     2.3858     2.6612     7.0839    45.9820     1.0000     1.0000 -1352.2928    75.3449     0.0322     8.0000
  1428.3208  6349.6895 6363053.0000    -999.25     9.7219     9.7219   114.5341     4.0000     0.0000    69.9368     2.6402     2.6051     2.9237  1428.3208     0.5350    -999.25     0.1149     0.0323     0.0323 20876.1582     2.3860     2.6402     6.9707    45.8926     1.0000     1.0000 -1352.3208    75.2020     0.0323     8.0000
  1428.4452  6442.4648 6442464.5000    -999.25     9.7469     9.7469   114.2190     0.0000     0.0000    69.0068     2.5930     2.5562     2.8692  1428.4452     0.5310    -999.25     0.1731     0.0331     0.0331 21136.6953     2.4142     2.5930     6.7241    45.4434     1.0000     1.0000 -1352.4452    74.6298     0.0331     8.0000
  1428.4732  6478.5562 6493752.5000    -999.25     9.7525     9.7525   113.8813     0.0000     0.0000    68.7975     2.5824     2.5452     2.8569  1428.4731     0.5301    -999.25     0.1861     0.0333     0.0333 21304.9629     2.4206     2.5824     6.6686    45.3423     1.0000     1.0000 -1352.4731    74.5010     0.0333     8.0000
  1428.5977  6721.8003 6721800.5000    -999.25     9.7487     9.7487   112.3800     0.0000     0.0000    65.5108     2.5649     2.5689     3.0017  1428.5978     0.5301    -999.25     0.3835     0.0348     0.0348 22053.1504     2.4783     2.5649     6.5785    45.0398     1.0000     1.0000 -1352.5978    73.3026     0.0348     8.0000
  1428.6256  6804.6230 6807656.5000    -999.25     9.7479     9.7479   111.5921     0.0000     0.0000    64.7742     2.5609     2.5742     3.0341  1428.6256     0.5302    -999.25     0.4278     0.0352     0.0352 22334.8301     2.4913     2.5609     6.5584    44.9721     1.0000     1.0000 -1352.6256    73.0340     0.0352     8.0000
  1428.7500  7190.4702 7190470.0000    -999.25     9.7256     9.7256   108.0790     0.0000     0.0000    60.8964     2.5593     2.6438     3.3128  1428.7500     0.5313    -999.25     0.7779     0.0370     0.0370 23590.7812     2.5497     2.5593     6.5502    44.8813     1.0000     1.0000 -1352.7500    71.6276     0.0370     8.0000
  1428.7780  7271.9810 7256481.0000    -999.25     9.7206     9.7206   107.4184     0.0000     0.0000    60.0236     2.5590     2.6595     3.3755  1428.7780     0.5315    -999.25     0.8567     0.0374     0.0374 23807.3535     2.5628     2.5590     6.5483    44.8609     1.0000     1.0000 -1352.7780    71.3110     0.0374     8.0000
  1428.9025  7549.9951 7549995.0000    -999.25     9.6929     9.6929   104.4810     0.0000     0.0000    57.9449     2.5721     2.7249     3.4818  1428.9025     0.5289    -999.25     1.1304     0.0389     0.0389 24770.3262     2.5880     2.5721     6.6156    44.9842     1.0000     1.0000 -1352.9025    70.1812     0.0389     8.0000
  1428.9304  7557.2065 7535089.5000    -999.25     9.6867     9.6867   104.6092     0.0000     0.0000    57.4791     2.5750     2.7396     3.5056  1428.9303     0.5283    -999.25     1.1918     0.0392     0.0392 24721.4219     2.5937     2.5750     6.6307    45.0119     1.0000     1.0000 -1352.9303    69.9280     0.0392     8.0000
  1429.0548  7468.6284 7468628.5000    -999.25     9.6693     9.6693   105.1810     0.0000     0.0000    59.0082     2.6161     2.7704     3.5287  1429.0548     0.5162    -999.25     1.2612     0.0411     0.0411 24503.3730     2.5773     2.6161     6.8443    45.3250     1.0000     1.0000 -1353.0548    68.4579     0.0411     8.0000
  1429.0828  7434.8979 7426927.0000    -999.25     9.6654     9.6654   105.5069     0.0000     0.0000    59.3523     2.6253     2.7773     3.5339  1429.0828     0.5135    -999.25     1.2769     0.0416     0.0416 24366.5566     2.5736     2.6253     6.8924    45.3954     1.0000     1.0000 -1353.0828    68.1270     0.0416     8.0000
  1429.2072  7241.6533 7241653.5000    -999.25     9.6353     9.6353   106.9550     0.0000     0.0000    61.3700     2.7005     2.8054     3.4791  1429.2072     0.4907    -999.25     1.3219     0.0448     0.0448 23758.7051     2.5411     2.7005     7.2940    45.8846     1.0000     1.0000 -1353.2072    65.4717     0.0448     8.0000
  1429.2352  7212.9844 7225842.5000    -999.25     9.6285     9.6285   107.0711     0.0000     0.0000    61.8242     2.7174     2.8117     3.4668  1429.2351     0.4856    -999.25     1.3321     0.0455     0.0455 23706.8320     2.5338     2.7174     7.3844    45.9947     1.0000     1.0000 -1353.2351    64.8740     0.0455     8.0000
  1429.3596  7155.5952 7155595.5000    -999.25     9.6051     9.6051   107.5870     0.0000     0.0000    60.7664     2.8051     2.8937     3.5732  1429.3596     0.4592    -999.25     1.6556     0.0493     0.0493 23476.3633     2.5258     2.8051     7.8701    46.5816     1.0000     1.0000 -1353.3596    61.1934     0.0493     8.0000
  1429.3876  7198.2690 7219323.5000    -999.25     9.5998     9.5998   106.8725     0.0000     0.0000    60.5283     2.8248     2.9121     3.5971  1429.3876     0.4532    -999.25     1.7284     0.0502     0.0502 23685.4453     2.5239     2.8248     7.9794    46.7137     1.0000     1.0000 -1353.3876    60.3650     0.0502     8.0000
  1429.5120  7502.4585 7502458.5000    -999.25     9.5995     9.5995   103.6980     0.0000     0.0000    55.0428     2.8779     3.0538     4.4285  1429.5120     0.4322    -999.25     2.8350     0.0550     0.0550 24614.3652     2.5525     2.8779     8.2832    47.3298     1.0000     1.0000 -1353.5120    56.5497     0.0550     8.0000
