~Version ---------------------------------------------------
VERS. 2.0 : CWLS log ASCII Standard -VERSION 2.0
WRAP.  NO : 
~Well ------------------------------------------------------
STRT.m                                                   1280.0 : 
STOP.m                                                 1564.988 : 
STEP.m                                                   0.1524 : 
NULL.                                                   -999.25 : 
COMP.                                                           : COMPANY
WELL.                                                   Well-11 : WELL
FLD .                                                           : FIELD
LOC .                                                           : LOCATION
SRVC.                                                           : SERVICE COMPANY
DATE. 2021-01-20 14:34:05   : Log Export Date {yyyy-MM-dd HH:mm : ss}
PROV.                                                           : PROVINCE
UWI .                                                   Well-11 : UNIQUE WELL ID
API .                                                           : API NUMBER
~Curve Information -----------------------------------------
DEPTH             .m        : DEPTH
ACOUSTICIMPEDANCE1.kPa.s/m  : ACOUSTICIMPEDANCE1
AI                .kPa.s/m  : AI
AVG_PIGN          .m3/m3    : AVG_PIGN
CALI              .in       : CALI
CALI[DERIVED]1    .in       : CALI[DERIVED]1
DFL               .ohm.m    : DFL
DT                .us/ft    : DT
DT1               .us/ft    : DT1
FACIES            ._        : FACIES
FLD1              ._        : FLD1
GR                .gAPI     : GR
HDRS              .ohm.m    : HDRS
HMRS              .ohm.m    : HMRS
DEPTH_1           .m        : DEPTH_1
NPHI              .m3/m3    : NPHI
PERF_INT          ._        : PERF_INT
PERMEABILITY      .mD       : PERMEABILITY
PIGN              .m3/m3    : PIGN
PIGN_MODELLING    .m3/m3    : PIGN_MODELLING
PIMP              .kPa.s/m  : PIMP
RHOB              .g/cm3    : RHOB
LLD               .ohm.m    : LLD
RT_MODELLING      .ohm.m    : RT_MODELLING
RT_POWER          .ohm.m    : RT_POWER
SP                .mV       : SP
SUWI              ._        : SUWI
SUWI_MODELLING    ._        : SUWI_MODELLING
SXWI              ._        : SXWI
TDVSS             .m        : TDVSS
VCL               .%        : VCL
WATER_VOL         ._        : WATER_VOL
ZLT               ._        : ZLT
~Params ----------------------------------------------------
~Other -----------------------------------------------------
~ASCII -----------------------------------------------------
# ...
  1544.8712  6590.5122 6583137.0000    -999.25     9.0512     9.0512     3.5290   118.0044   118.0043     0.0000    -999.25    87.9619     2.4941     2.5514  1544.8712     0.5039    -999.25    -999.25     0.0365     0.0365 21598.2207     2.5515     2.5183     2.5183     6.3418   145.0229     1.0000     1.0000     1.0000 -1464.7512    72.0130     0.0365    -999.25
  1544.8909  6601.4766 6601476.5000    -999.25     9.0489     9.0489     3.6097   117.9643   118.0454     0.0000    -999.25    87.8539     2.5035     2.5636  1544.8909     0.5043    -999.25    -999.25     0.0365     0.0365 21658.3887     2.5549     2.5255     2.5255     6.3784   145.0274     1.0000     1.0000     1.0000 -1464.7709    72.0082     0.0365    -999.25
  1545.0236  6640.0547 6624924.0000    -999.25     9.0336     9.0336     4.1533   118.3229   118.3229     0.0000    -999.25    87.1258     2.5667     2.6457  1545.0237     0.5070    -999.25    -999.25     0.0366     0.0366 21735.3164     2.5777     2.5738     2.5738     6.6244   145.0579     1.0000     1.0000     1.0000 -1464.9037    71.9760     0.0366    -999.25
  1545.0432  6628.3877 6628387.5000    -999.25     9.0387     9.0387     4.1441   118.3759   118.3317     0.0000    -999.25    87.0901     2.5605     2.6396  1545.0432     0.5090    -999.25    -999.25     0.0359     0.0359 21746.6777     2.5743     2.5657     2.5657     6.5832   145.0902     1.0000     1.0000     1.0000 -1464.9232    72.4490     0.0359    -999.25
  1545.1760  6568.6123 6561826.5000    -999.25     9.0732     9.0732     4.0821   118.3913   118.3913     0.0000    -999.25    86.8488     2.5189     2.5986  1545.1760     0.5223    -999.25    -999.25     0.0318     0.0318 21528.3047     2.5514     2.5108     2.5108     6.3041   145.3090     1.0000     1.0000     1.0000 -1465.0560    75.6540     0.0318    -999.25
  1545.1956  6552.0034 6552003.0000    -999.25     9.0848     9.0848     4.0693   118.3936   118.0609     0.0000    -999.25    86.6050     2.5068     2.5814  1545.1956     0.5247    -999.25    -999.25     0.0304     0.0304 21496.0742     2.5450     2.4981     2.4981     6.2417   145.3227     1.0000     1.0000     1.0000 -1465.0756    76.6578     0.0304    -999.25
  1545.3284  6583.3320 6574289.5000    -999.25     9.1640     9.1640     3.9820   115.8219   115.8222     0.0000    -999.25    84.9527     2.4249     2.4646  1545.3285     0.5411    -999.25    -999.25     0.0216     0.0216 21569.1895     2.5016     2.4122     2.4122     5.8187   145.4155     1.0000     1.0000     1.0000 -1465.2084    83.4590     0.0216    -999.25
  1545.3480  6577.5781 6577578.5000    -999.25     9.1647     9.1647     3.9502   115.4423   115.5656     0.0000    -999.25    84.6415     2.4005     2.4354  1545.3480     0.5428    -999.25    -999.25     0.0220     0.0220 21579.9805     2.4912     2.3860     2.3860     5.6978   145.4169     1.0000     1.0000     1.0000 -1465.2279    83.6213     0.0220    -999.25
  1545.4808  6482.6294 6486953.5000    -999.25     9.1694     9.1694     3.7346   113.8272   113.8274     0.0000    -999.25    82.5334     2.2349     2.2381  1545.4808     0.5546    -999.25    -999.25     0.0248     0.0248 21282.6562     2.4209     2.2087     2.2087     4.8784   145.4267     1.0000     1.0000     1.0000 -1465.3608    84.7210     0.0248    -999.25
  1545.5004  6473.5781 6473578.0000    -999.25     9.1560     9.1560     3.6778   113.5888   113.9465     0.0000    -999.25    82.3929     2.2052     2.2083  1545.5004     0.5548    -999.25    -999.25     0.0248     0.0248 21238.7734     2.4125     2.1785     2.1785     4.7519   145.4393     1.0000     1.0000     1.0000 -1465.3804    84.7538     0.0248    -999.25
  1545.6332  6255.8872 6266021.5000    -999.25     9.0653     9.0653     3.2934   114.7542   114.7541     0.0000    -999.25    81.4411     2.0039     2.0060  1545.6332     0.5560    -999.25    -999.25     0.0250     0.0250 20557.8145     2.3553     1.9736     1.9736     3.8951   145.5249     1.0000     1.0000     1.0000 -1465.5132    84.9760     0.0250    -999.25
  1545.6528  6235.3882 6235388.0000    -999.25     9.0502     9.0502     3.2220   114.9262   115.2682     0.0000    -999.25    81.5164     1.9926     1.9956  1545.6527     0.5550    -999.25    -999.25     0.0253     0.0253 20457.3105     2.3511     1.9651     1.9651     3.8621   145.5285     1.0000     1.0000     1.0000 -1465.5327    84.8073     0.0253    -999.25
  1545.7856  5961.4731 5967659.0000    -999.25     8.9476     8.9476     2.7383   118.7521   118.7517     0.0000    -999.25    82.0270     1.9160     1.9255  1545.7856     0.5483    -999.25    -999.25     0.0272     0.0272 19578.9336     2.3226     1.9075     1.9075     3.6386   145.5528     1.0000     1.0000     1.0000 -1465.6656    83.6640     0.0272    -999.25
  1545.8052  5928.1445 5928144.5000    -999.25     8.9455     8.9455     2.7346   119.3168   119.3108     0.0000    -999.25    82.2354     1.9265     1.9366  1545.8052     0.5469    -999.25    -999.25     0.0277     0.0277 19449.2930     2.3206     1.9208     1.9208     3.6908   145.5460     1.0000     1.0000     1.0000 -1465.6852    83.3928     0.0277    -999.25
  1545.9380  5712.4019 5723279.5000    -999.25     8.9307     8.9307     2.7099   123.0992   123.0987     0.0000    -999.25    83.6472     1.9978     2.0118  1545.9380     0.5372    -999.25    -999.25     0.0307     0.0307 18777.1621     2.3071     2.0111     2.0111     4.0445   145.5001     1.0000     1.0000     1.0000 -1465.8180    81.5550     0.0307    -999.25
  1545.9576  5693.0435 5693043.5000    -999.25     8.9322     8.9322     2.7328   123.6574   123.4850     0.0000    -999.25    83.8202     2.0096     2.0230  1545.9575     0.5358    -999.25    -999.25     0.0311     0.0311 18677.9629     2.3097     2.0227     2.0227     4.0922   145.5025     1.0000     1.0000     1.0000 -1465.8375    81.3144     0.0311    -999.25
  1546.0904  5625.3730 5638386.0000    -999.25     8.9424     8.9424     2.8880   126.1024   126.1021     0.0000    -999.25    84.9928     2.0896     2.0985  1546.0905     0.5263    -999.25    -999.25     0.0339     0.0339 18498.6406     2.3273     2.1012     2.1012     4.4150   145.5190     1.0000     1.0000     1.0000 -1465.9705    79.6840     0.0339    -999.25
  1546.1100  5630.3188 5630319.0000    -999.25     8.9519     8.9519     2.9014   126.4633   126.2113     0.0000    -999.25    85.1163     2.0945     2.1024  1546.1100     0.5250    -999.25    -999.25     0.0337     0.0337 18472.1738     2.3361     2.1051     2.1051     4.4316   145.5217     1.0000     1.0000     1.0000 -1465.9900    79.5644     0.0337    -999.25
  1546.2428  5750.4443 5756913.0000    -999.25     9.0158     9.0158     2.9926   126.9503   126.9505     0.0000    -999.25    85.9528     2.1277     2.1284  1546.2428     0.5160    -999.25    -999.25     0.0330     0.0330 18887.5098     2.3951     2.1316     2.1316     4.5437   145.5396     1.0000     1.0000     1.0000 -1466.1228    78.7540     0.0330    -999.25
  1546.2625  5775.6924 5775692.5000    -999.25     9.0275     9.0275     2.9878   127.0225   126.7888     0.0000    -999.25    85.8762     2.1389     2.1392  1546.2625     0.5146    -999.25    -999.25     0.0325     0.0325 18949.1211     2.4070     2.1439     2.1439     4.5972   145.5428     1.0000     1.0000     1.0000 -1466.1425    78.6127     0.0325    -999.25
  1546.3952  6030.6064 6028954.0000    -999.25     9.1062     9.1062     2.9556   125.6994   125.6994     0.0000    -999.25    85.3607     2.2144     2.2120  1546.3953     0.5052    -999.25    -999.25     0.0291     0.0291 19780.0332     2.4870     2.2266     2.2266     4.9577   145.5643     1.0000     1.0000     1.0000 -1466.2753    77.6610     0.0291    -999.25
  1546.4148  6066.3613 6066361.0000    -999.25     9.1056     9.1056     2.9971   125.5040   125.3264     0.0000    -999.25    84.8937     2.2437     2.2405  1546.4148     0.5044    -999.25    -999.25     0.0304     0.0304 19902.7598     2.4979     2.2584     2.2584     5.1074   145.5500     1.0000     1.0000     1.0000 -1466.2948    76.6968     0.0304    -999.25
