~Version ---------------------------------------------------
VERS. 2.0 : CWLS log ASCII Standard -VERSION 2.0
WRAP.  NO : 
~Well ------------------------------------------------------
STRT.m                                                   1300.0 : 
STOP.m                                                1481.9656 : 
STEP.m                                                   0.1524 : 
NULL.                                                   -999.25 : 
COMP.                                                           : COMPANY
WELL.                                                    Well-3 : WELL
FLD .                                                           : FIELD
LOC .                                                           : LOCATION
SRVC.                                                           : SERVICE COMPANY
DATE. 2021-01-20 14:34:00   : Log Export Date {yyyy-MM-dd HH:mm : ss}
PROV.                                                           : PROVINCE
UWI .                                                    Well-3 : UNIQUE WELL ID
API .                                                           : API NUMBER
~Curve Information -----------------------------------------
DEPTH             .m        : DEPTH
ACOUSTICIMPEDANCE1.kPa.s/m  : ACOUSTICIMPEDANCE1
AI                .kPa.s/m  : AI
AVG_PIGN          .m3/m3    : AVG_PIGN
BS                .in       : BS
CALI              .in       : CALI
CALI[DERIVED]1    .in       : CALI[DERIVED]1
CALI1             .in       : CALI1
DEVI              .deg      : DEVI
DFL               .ohm.m    : DFL
DT                .us/ft    : DT
DT1               .us/ft    : DT1
FACIES            ._        : FACIES
FLD1              ._        : FLD1
GR                .gAPI     : GR
HDRS              .ohm.m    : HDRS
HMRS              .ohm.m    : HMRS
DEPTH_1           .m        : DEPTH_1
NPHI              .m3/m3    : NPHI
PERF_INT          ._        : PERF_INT
PERMEABILITY      .mD       : PERMEABILITY
PIGN              .m3/m3    : PIGN
PIGN_MODELLING    .m3/m3    : PIGN_MODELLING
PIMP              .kPa.s/m  : PIMP
RHOB              .g/cm3    : RHOB
RT_MODELLING      .ohm.m    : RT_MODELLING
RT_POWER          .ohm.m    : RT_POWER
SP                .mV       : SP
SUWI              ._        : SUWI
SUWI_MODELLING    ._        : SUWI_MODELLING
TDVSS             .m        : TDVSS
VCL               .%        : VCL
WATER_VOL         ._        : WATER_VOL
ZLT               ._        : ZLT
~Params ----------------------------------------------------
~Other -----------------------------------------------------
~ASCII -----------------------------------------------------
# ...
  1383.8200  6300.3340 6306406.5000    -999.25     8.5000     8.8179     8.8179     8.8179     0.6869     2.8445   113.0787   113.0785     0.0000    -999.25    75.0665     2.1509     2.2142  1383.8199     0.4471    -999.25    25.2979     0.2194     0.2194 20690.3105     2.3374     2.8445     8.0910   297.2852     0.8685     0.8685 -1307.6599    44.4470     0.1906     2.0000
  1383.8466  6273.0439 6273044.0000    -999.25     8.5000     8.8191     8.8191     8.8186     0.6944     2.8423   113.4339   113.3847     0.0000    -999.25    74.8206     2.1455     2.2114  1383.8466     0.4463    -999.25    25.1373     0.2188     0.2188 20580.8535     2.3346     2.8423     8.0788   296.8841     0.8710     0.8710 -1307.6865    44.4384     0.1906     2.0000
  1383.9724  6161.2925 6172595.5000    -999.25     8.5000     8.8221     8.8221     8.8221     0.7247     2.8321   114.8331   114.8329     0.0000    -999.25    73.6575     2.1198     2.1982  1383.9724     0.4425    -999.25    24.3777     0.2158     0.2158 20251.2988     2.3213     2.8321     8.0210   294.9872     0.8828     0.8828 -1307.8124    44.3980     0.1905     2.0000
  1383.9990  6151.3560 6151356.0000    -999.25     8.5000     8.8227     8.8227     8.8232     0.7311     2.8356   115.1289   114.9393     0.0000    -999.25    73.4838     2.1177     2.1968  1383.9990     0.4420    -999.25    23.9886     0.2143     0.2143 20181.6152     2.3235     2.8356     8.0406   294.9234     0.8864     0.8864 -1307.8390    44.4434     0.1899     2.0000
  1384.1248  6162.4478 6170341.5000    -999.25     8.5000     8.8284     8.8284     8.8284     0.6840     2.8519   115.4427   115.4426     0.0000    -999.25    72.6621     2.1079     2.1901  1384.1248     0.4396    -999.25    22.1485     0.2071     0.2071 20243.9023     2.3340     2.8519     8.1336   294.6216     0.9033     0.9033 -1307.9647    44.6580     0.1871     2.0000
  1384.1514  6174.3560 6174356.0000    -999.25     8.5000     8.8296     8.8296     8.8286     0.6741     2.8521   115.5090   115.2780     0.0000    -999.25    72.5622     2.1110     2.1922  1384.1514     0.4391    -999.25    22.0049     0.2061     0.2061 20257.0723     2.3399     2.8521     8.1347   294.8129     0.9049     0.9049 -1307.9913    44.6404     0.1865     2.0000
  1384.2772  6302.5000 6300587.5000    -999.25     8.5000     8.8296     8.8296     8.8296     0.6911     2.8530   114.4994   114.4995     0.0000    -999.25    72.0897     2.1253     2.2021  1384.2771     0.4370    -999.25    21.3257     0.2014     0.2014 20671.2188     2.3676     2.8530     8.1396   295.7177     0.9122     0.9122 -1308.1172    44.5570     0.1837     2.0000
  1384.3038  6327.2788 6327279.0000    -999.25     8.5000     8.8296     8.8296     8.8299     0.6947     2.8507   114.2859   114.1418     0.0000    -999.25    72.2049     2.1331     2.2084  1384.3037     0.4371    -999.25    21.0615     0.2003     0.2003 20758.7891     2.3724     2.8507     8.1263   296.0762     0.9096     0.9096 -1308.1438    44.9906     0.1822     2.0000
  1384.4296  6493.1084 6486335.5000    -999.25     8.5000     8.8313     8.8313     8.8313     0.6836     2.8396   112.4497   112.4499     0.0000    -999.25    72.7497     2.1701     2.2379  1384.4296     0.4374    -999.25    19.8121     0.1952     0.1952 21280.6289     2.3955     2.8396     8.0632   297.7721     0.8971     0.8971 -1308.2695    47.0410     0.1751     2.0000
  1384.4562  6519.9678 6519967.5000    -999.25     8.5000     8.8317     8.8317     8.8301     0.6812     2.8371   112.0615   112.0905     0.0000    -999.25    73.1436     2.1786     2.2458  1384.4562     0.4388    -999.25    19.3751     0.1942     0.1942 21390.9707     2.3971     2.8371     8.0489   298.1475     0.8907     0.8907 -1308.2961    47.9849     0.1730     2.0000
  1384.5820  6639.6206 6638684.0000    -999.25     8.5000     8.8244     8.8244     8.8244     0.7070     2.8252   110.3903   110.3905     0.0000    -999.25    75.0067     2.2192     2.2830  1384.5819     0.4456    -999.25    17.3084     0.1895     0.1895 21780.4590     2.4047     2.8252     7.9816   299.9229     0.8605     0.8605 -1308.4220    52.4490     0.1631     2.0000
  1384.6086  6663.7861 6663786.0000    -999.25     8.5000     8.8229     8.8229     8.8225     0.7124     2.8190   110.0369   110.2469     0.0000    -999.25    75.6152     2.2236     2.2882  1384.6085     0.4500    -999.25    17.2525     0.1910     0.1910 21862.8145     2.4057     2.8190     7.9472   300.1803     0.8525     0.8525 -1308.4486    52.9759     0.1628     2.0000
  1384.7344  6705.8037 6706275.0000    -999.25     8.5000     8.8131     8.8131     8.8131     0.8157     2.7900   109.5680   109.5681     0.0000    -999.25    78.4933     2.2441     2.3127  1384.7344     0.4712    -999.25    16.9883     0.1982     0.1982 22002.2148     2.4106     2.7900     7.7842   301.3974     0.8146     0.8146 -1308.5743    55.4680     0.1614     2.0000
  1384.7610  6715.2588 6715259.0000    -999.25     8.5000     8.8110     8.8110     8.8124     0.8375     2.7869   109.4689   109.7106     0.0000    -999.25    78.9785     2.2411     2.3119  1384.7610     0.4784    -999.25    15.5546     0.1941     0.1941 22031.6895     2.4118     2.7869     7.7666   301.5765     0.8140     0.8140 -1308.6010    56.9970     0.1581     2.0000
  1384.8868  6675.4341 6683595.0000    -999.25     8.5000     8.8089     8.8089     8.8089     0.9232     2.7719   110.3843   110.3848     0.0000    -999.25    81.2735     2.2270     2.3080  1384.8867     0.5125    -999.25     8.7740     0.1750     0.1750 21927.8047     2.4175     2.7719     7.6833   302.4235     0.8113     0.8113 -1308.7268    64.2280     0.1420     2.0000
  1384.9135  6676.8745 6676874.5000    -999.25     8.5000     8.8085     8.8085     8.8100     0.9414     2.7688   110.5786   110.7069     0.0000    -999.25    81.2578     2.2164     2.2998  1384.9135     0.5203    -999.25     7.3066     0.1566     0.1566 21905.7559     2.4223     2.7688     7.6665   302.6134     0.8316     0.8316 -1308.7535    66.9931     0.1285     2.0000
  1385.0392  6640.1123 6652894.0000    -999.25     8.5000     8.8153     8.8153     8.8153     0.9456     2.7546   112.2233   112.2233     0.0000    -999.25    81.1837     2.1669     2.2612  1385.0392     0.5570    -999.25     0.3983     0.0701     0.0701 21827.0801     2.4448     2.7546     7.5876   303.5075     0.9273     0.9273 -1308.8791    80.0110     0.0650     2.0000
  1385.0658  6647.8198 6647819.5000    -999.25     8.5000     8.8167     8.8167     8.8139     0.9465     2.7498   112.5713   112.4064     0.0000    -999.25    80.6380     2.1548     2.2504  1385.0658     0.5626    -999.25     0.3290     0.0598     0.0598 21810.4316     2.4552     2.7498     7.5616   303.8376     0.9400     0.9400 -1308.9058    81.2743     0.0556     2.0000
  1385.1916  6739.4189 6740852.5000    -999.25     8.5000     8.8077     8.8077     8.8077     0.8915     2.7274   113.2719   113.2723     0.0000    -999.25    78.0572     2.0974     2.1995  1385.1915     0.5889    -999.25     0.0015     0.0116     0.0116 22115.6582     2.5045     2.7274     7.4386   305.3984     1.0000     1.0000 -1309.0315    87.2490     0.0116     2.0000
  1385.2183  6760.5977 6760598.0000    -999.25     8.5000     8.8058     8.8058     8.8032     0.8798     2.7111   113.4206   113.0106     0.0000    -999.25    77.0148     2.0940     2.1963  1385.2183     0.5901    -999.25     0.0015     0.0116     0.0116 22180.4395     2.5157     2.7111     7.3513   305.6316     1.0000     1.0000 -1309.0582    87.2576     0.0116     2.0000
  1385.3440  7003.2852 6993493.5000    -999.25     8.5000     8.7819     8.7819     8.7819     0.9128     2.6345   111.7787   111.7786     0.0000    -999.25    72.1074     2.0782     2.1815  1385.3440     0.5960    -999.25     0.0015     0.0115     0.0115 22944.5312     2.5683     2.6345     6.9405   306.7294     1.0000     1.0000 -1309.1840    87.2980     0.0115     2.0000
  1385.3706  7042.7773 7042777.5000    -999.25     8.5000     8.7768     8.7768     8.7815     0.9198     2.6309   111.4312   111.2456     0.0000    -999.25    70.8923     2.0951     2.1985  1385.3706     0.5950    -999.25     0.0016     0.0117     0.0117 23106.2246     2.5748     2.6309     6.9217   306.9729     1.0000     1.0000 -1309.2106    87.1739     0.0117     2.0000
