~Version ---------------------------------------------------
VERS. 2.0 : CWLS log ASCII Standard -VERSION 2.0
WRAP.  NO : 
~Well ------------------------------------------------------
STRT.m                                                   1280.0 : 
STOP.m                                                 1564.988 : 
STEP.m                                                   0.1524 : 
NULL.                                                   -999.25 : 
COMP.                                                           : COMPANY
WELL.                                                   Well-11 : WELL
FLD .                                                           : FIELD
LOC .                                                           : LOCATION
SRVC.                                                           : SERVICE COMPANY
DATE. 2021-01-20 14:34:05   : Log Export Date {yyyy-MM-dd HH:mm : ss}
PROV.                                                           : PROVINCE
UWI .                                                   Well-11 : UNIQUE WELL ID
API .                                                           : API NUMBER
~Curve Information -----------------------------------------
DEPTH             .m        : DEPTH
ACOUSTICIMPEDANCE1.kPa.s/m  : ACOUSTICIMPEDANCE1
AI                .kPa.s/m  : AI
AVG_PIGN          .m3/m3    : AVG_PIGN
CALI              .in       : CALI
CALI[DERIVED]1    .in       : CALI[DERIVED]1
DFL               .ohm.m    : DFL
DT                .us/ft    : DT
DT1               .us/ft    : DT1
FACIES            ._        : FACIES
FLD1              ._        : FLD1
GR                .gAPI     : GR
HDRS              .ohm.m    : HDRS
HMRS              .ohm.m    : HMRS
DEPTH_1           .m        : DEPTH_1
NPHI              .m3/m3    : NPHI
PERF_INT          ._        : PERF_INT
PERMEABILITY      .mD       : PERMEABILITY
PIGN              .m3/m3    : PIGN
PIGN_MODELLING    .m3/m3    : PIGN_MODELLING
PIMP              .kPa.s/m  : PIMP
RHOB              .g/cm3    : RHOB
LLD               .ohm.m    : LLD
RT_MODELLING      .ohm.m    : RT_MODELLING
RT_POWER          .ohm.m    : RT_POWER
SP                .mV       : SP
SUWI              ._        : SUWI
SUWI_MODELLING    ._        : SUWI_MODELLING
SXWI              ._        : SXWI
TDVSS             .m        : TDVSS
VCL               .%        : VCL
WATER_VOL         ._        : WATER_VOL
ZLT               ._        : ZLT
~Params ----------------------------------------------------
~Other -----------------------------------------------------
~ASCII -----------------------------------------------------
# ...
  1469.4332  6920.9263 6911467.5000    -999.25     9.1232     9.1232     6.1477   108.4674   108.4671     0.0000    -999.25    86.5219     4.6303     4.6502  1469.4332     0.5072    -999.25     0.0108     0.0319     0.0319 22675.4199     2.4629     4.6110     4.6110    21.2613   133.3870     1.0000     1.0000     1.0000 -1389.3132    75.5420     0.0319    16.0000
  1469.4528  6885.2778 6885277.5000    -999.25     9.1246     9.1246     6.1419   108.9034   108.7433     0.0000    -999.25    86.9352     4.6322     4.6552  1469.4528     0.5066    -999.25     0.0107     0.0323     0.0323 22589.4941     2.4601     4.6160     4.6160    21.3079   133.3741     1.0000     1.0000     1.0000 -1389.3328    75.4363     0.0323    16.0000
  1469.5856  6725.7446 6718713.5000    -999.25     9.1342     9.1342     6.1022   110.6154   110.6152     0.0000    -999.25    89.7356     4.6451     4.6886  1469.5856     0.5027    -999.25     0.0105     0.0350     0.0350 22043.0234     2.4409     4.6501     4.6501    21.6234   133.2864     1.0000     1.0000     1.0000 -1389.4656    74.7200     0.0350    16.0000
  1469.6052  6694.1304 6694130.5000    -999.25     9.1418     9.1418     6.1286   110.8681   110.7778     0.0000    -999.25    89.6964     4.6437     4.6842  1469.6051     0.5034    -999.25     0.0100     0.0361     0.0361 21962.3691     2.4349     4.6477     4.6477    21.6016   133.2835     1.0000     1.0000     1.0000 -1389.4851    74.6257     0.0361    16.0000
  1469.7380  6524.2524 6528714.5000    -999.25     9.1936     9.1936     6.3070   111.8798   111.8797     0.0000    -999.25    89.4302     4.6342     4.6546  1469.7380     0.5081    -999.25     0.0067     0.0434     0.0434 21419.6660     2.3948     4.6318     4.6318    21.4536   133.2636     1.0000     1.0000     1.0000 -1389.6180    73.9870     0.0434    16.0000
  1469.7576  6504.3008 6504300.5000    -999.25     9.1983     9.1983     6.3324   112.0291   112.0534     0.0000    -999.25    89.1015     4.6117     4.6236  1469.7576     0.5097    -999.25     0.0059     0.0430     0.0430 21339.5684     2.3907     4.6064     4.6064    21.2235   133.2654     1.0000     1.0000     1.0000 -1389.6376    74.2289     0.0430    16.0000
  1469.8904  6359.8154 6372438.0000    -999.25     9.2297     9.2297     6.5046   113.2307   113.2306     0.0000    -999.25    86.8740     4.4599     4.4136  1469.8904     0.5207    -999.25     0.0005     0.0402     0.0402 20906.9492     2.3626     4.4345     4.4345    19.6648   133.2778     1.0000     1.0000     1.0000 -1389.7704    75.8680     0.0402    16.0000
  1469.9100  6352.9766 6352976.5000    -999.25     9.2210     9.2210     6.4929   113.4081   113.4524     0.0000    -999.25    86.4016     4.4138     4.3593  1469.9099     0.5225    -999.25     0.0004     0.0397     0.0397 20843.0996     2.3638     4.3854     4.3854    19.2477   133.2756     1.0000     1.0000     1.0000 -1389.7899    76.1696     0.0397    16.0000
  1470.0428  6288.2446 6305413.5000    -999.25     9.1624     9.1624     6.4139   114.9553   114.9551     0.0000    -999.25    83.2003     4.1016     3.9914  1470.0428     0.5347    -999.25     0.0000     0.0363     0.0363 20687.0508     2.3716     4.0524     4.0524    16.4219   133.2602     1.0000     1.0000     1.0000 -1389.9229    78.2130     0.0363    16.0000
  1470.0624  6298.3936 6298393.5000    -999.25     9.1456     9.1456     6.3621   115.1836   115.0476     0.0000    -999.25    82.9202     4.0628     3.9508  1470.0624     0.5360    -999.25     0.0002     0.0358     0.0358 20664.0195     2.3802     4.0152     4.0152    16.1310   133.2588     1.0000     1.0000     1.0000 -1389.9424    78.5070     0.0358    16.0000
  1470.1952  6424.2617 6421787.0000    -999.25     9.0312     9.0312     6.0108   115.6741   115.6740     0.0000    -999.25    81.0222     3.8002     3.6753  1470.1952     0.5445    -999.25     0.0011     0.0325     0.0325 21068.8535     2.4381     3.7629     3.7629    14.1594   133.2495     1.0000     1.0000     1.0000 -1390.0752    80.4990     0.0325    16.0000
  1470.2148  6439.9985 6439998.5000    -999.25     9.0311     9.0311     5.9591   115.7465   115.5726     0.0000    -999.25    81.0969     3.7873     3.6680  1470.2147     0.5453    -999.25     0.0011     0.0316     0.0316 21128.6035     2.4456     3.7536     3.7536    14.0903   133.2501     1.0000     1.0000     1.0000 -1390.0947    80.5107     0.0316    16.0000
  1470.3476  6623.1343 6605656.5000    -999.25     9.0300     9.0300     5.6082   114.8851   114.8852     0.0000    -999.25    81.6034     3.7001     3.6188  1470.3477     0.5503    -999.25     0.0013     0.0253     0.0253 21672.1016     2.4964     3.6908     3.6908    13.6220   133.2540     1.0000     1.0000     1.0000 -1390.2277    80.5900     0.0253    16.0000
  1470.3672  6630.1060 6630106.0000    -999.25     9.0300     9.0300     5.5521   114.7580   114.8166     0.0000    -999.25    81.8965     3.6945     3.6217  1470.3672     0.5507    -999.25     0.0012     0.0248     0.0248 21752.3164     2.4963     3.6858     3.6858    13.5855   133.2665     1.0000     1.0000     1.0000 -1390.2472    81.0145     0.0248    16.0000
  1470.5000  6651.1543 6642228.5000    -999.25     9.0295     9.0295     5.1716   114.3521   114.3519     0.0000    -999.25    83.8825     3.6571     3.6418  1470.5000     0.5531    -999.25     0.0004     0.0210     0.0210 21792.0879     2.4953     3.6521     3.6521    13.3378   133.3512     1.0000     1.0000     1.0000 -1390.3800    83.8910     0.0210    16.0000
  1470.5197  6644.0269 6644027.0000    -999.25     9.0225     9.0225     5.1341   114.2919   114.4848     0.0000    -999.25    84.2418     3.6454     3.6350  1470.5197     0.5527    -999.25     0.0003     0.0212     0.0212 21797.9883     2.4913     3.6394     3.6394    13.2465   133.3631     1.0000     1.0000     1.0000 -1390.3997    83.8159     0.0212    16.0000
  1470.6524  6510.4111 6507603.0000    -999.25     8.9754     8.9754     4.8814   115.3803   115.3803     0.0000    -999.25    86.6620     3.5667     3.5889  1470.6525     0.5499    -999.25     0.0001     0.0229     0.0229 21350.4023     2.4645     3.5541     3.5541    12.6316   133.4429     1.0000     1.0000     1.0000 -1390.5325    83.3100     0.0229    16.0000
  1470.6720  6487.4526 6487453.0000    -999.25     8.9704     8.9704     4.8763   115.5411   115.6917     0.0000    -999.25    86.9942     3.5577     3.5815  1470.6720     0.5491    -999.25     0.0001     0.0240     0.0240 21284.2930     2.4592     3.5456     3.5456    12.5716   133.4381     1.0000     1.0000     1.0000 -1390.5520    83.0160     0.0240    16.0000
  1470.8048  6270.6772 6276836.5000    -999.25     8.9361     8.9361     4.8412   117.8000   117.8012     0.0000    -999.25    89.2453     3.4963     3.5317  1470.8048     0.5434    -999.25     0.0000     0.0316     0.0316 20593.2949     2.4235     3.4878     3.4878    12.1647   133.4059     1.0000     1.0000     1.0000 -1390.6848    81.0240     0.0316    16.0000
  1470.8245  6245.5933 6245593.0000    -999.25     8.9361     8.9361     4.8361   118.1351   117.8924     0.0000    -999.25    89.4714     3.4970     3.5336  1470.8245     0.5425    -999.25     0.0000     0.0319     0.0319 20490.7910     2.4207     3.4898     3.4898    12.1790   133.4078     1.0000     1.0000     1.0000 -1390.7045    80.8793     0.0319    16.0000
  1470.9572  6177.0166 6181799.0000    -999.25     8.9359     8.9359     4.8020   118.5065   118.5065     0.0000    -999.25    90.9941     3.5016     3.5460  1470.9573     0.5368    -999.25     0.0001     0.0335     0.0335 20281.4922     2.4016     3.5036     3.5036    12.2752   133.4210     1.0000     1.0000     1.0000 -1390.8373    79.9050     0.0335    16.0000
  1470.9768  6172.3765 6172376.5000    -999.25     8.9362     8.9362     4.7991   118.5614   118.3282     0.0000    -999.25    90.9742     3.5084     3.5542  1470.9768     0.5362    -999.25     0.0001     0.0337     0.0337 20250.5781     2.4009     3.5112     3.5112    12.3287   133.4219     1.0000     1.0000     1.0000 -1390.8568    79.8035     0.0337    16.0000
