~Version ---------------------------------------------------
VERS. 2.0 : CWLS log ASCII Standard -VERSION 2.0
WRAP.  NO : 
~Well ------------------------------------------------------
STRT.m                                                   1280.0 : 
STOP.m                                                 1564.988 : 
STEP.m                                                   0.1524 : 
NULL.                                                   -999.25 : 
COMP.                                                           : COMPANY
WELL.                                                   Well-11 : WELL
FLD .                                                           : FIELD
LOC .                                                           : LOCATION
SRVC.                                                           : SERVICE COMPANY
DATE. 2021-01-20 14:34:05   : Log Export Date {yyyy-MM-dd HH:mm : ss}
PROV.                                                           : PROVINCE
UWI .                                                   Well-11 : UNIQUE WELL ID
API .                                                           : API NUMBER
~Curve Information -----------------------------------------
DEPTH             .m        : DEPTH
ACOUSTICIMPEDANCE1.kPa.s/m  : ACOUSTICIMPEDANCE1
AI                .kPa.s/m  : AI
AVG_PIGN          .m3/m3    : AVG_PIGN
CALI              .in       : CALI
CALI[DERIVED]1    .in       : CALI[DERIVED]1
DFL               .ohm.m    : DFL
DT                .us/ft    : DT
DT1               .us/ft    : DT1
FACIES            ._        : FACIES
FLD1              ._        : FLD1
GR                .gAPI     : GR
HDRS              .ohm.m    : HDRS
HMRS              .ohm.m    : HMRS
DEPTH_1           .m        : DEPTH_1
NPHI              .m3/m3    : NPHI
PERF_INT          ._        : PERF_INT
PERMEABILITY      .mD       : PERMEABILITY
PIGN              .m3/m3    : PIGN
PIGN_MODELLING    .m3/m3    : PIGN_MODELLING
PIMP              .kPa.s/m  : PIMP
RHOB              .g/cm3    : RHOB
LLD               .ohm.m    : LLD
RT_MODELLING      .ohm.m    : RT_MODELLING
RT_POWER          .ohm.m    : RT_POWER
SP                .mV       : SP
SUWI              ._        : SUWI
SUWI_MODELLING    ._        : SUWI_MODELLING
SXWI              ._        : SXWI
TDVSS             .m        : TDVSS
VCL               .%        : VCL
WATER_VOL         ._        : WATER_VOL
ZLT               ._        : ZLT
~Params ----------------------------------------------------
~Other -----------------------------------------------------
~ASCII -----------------------------------------------------
# ...
  1355.4380  5827.9424 5827423.0000    -999.25     9.1244     9.1244     2.2244   125.1183   125.1184     0.0000    -999.25    69.2023     1.5697     1.6086  1355.4380     0.5177    -999.25    -999.25     0.0453     0.0453 19118.8418     2.3923     1.5657     1.5657     2.4514   140.9742     1.0000     1.0000     1.0000 -1275.3180    72.8030     0.0453     0.0000
  1355.4576  5825.3364 5825336.5000    -999.25     9.1349     9.1349     2.2148   125.0411   125.1550     0.0000    -999.25    69.4700     1.5650     1.6043  1355.4575     0.5184    -999.25    -999.25     0.0451     0.0451 19111.9961     2.3898     1.5609     1.5609     2.4366   141.0095     1.0000     1.0000     1.0000 -1275.3375    72.9141     0.0451     0.0000
  1355.5904  5766.5864 5762407.5000    -999.25     9.2060     9.2060     2.1495   125.4035   125.4035     0.0000    -999.25    71.2837     1.5332     1.5754  1355.5905     0.5230    -999.25    -999.25     0.0439     0.0439 18905.5352     2.3725     1.5284     1.5284     2.3360   141.2490     1.0000     1.0000     1.0000 -1275.4705    73.6670     0.0439     0.0000
  1355.6100  5753.1201 5753120.0000    -999.25     9.2296     9.2296     2.1468   125.4570   125.6210     0.0000    -999.25    71.4404     1.5296     1.5728  1355.6100     0.5236    -999.25    -999.25     0.0438     0.0438 18875.0645     2.3680     1.5250     1.5250     2.3258   141.2768     1.0000     1.0000     1.0000 -1275.4900    73.6958     0.0438     0.0000
  1355.7428  5605.4121 5606612.5000    -999.25     9.3896     9.3896     2.1287   127.0936   127.0945     0.0000    -999.25    72.5017     1.5055     1.5546  1355.7428     0.5281    -999.25    -999.25     0.0435     0.0435 18394.3984     2.3373     1.5021     1.5021     2.2563   141.4652     1.0000     1.0000     1.0000 -1275.6228    73.8910     0.0435     0.0000
  1355.7625  5584.8789 5584879.0000    -999.25     9.4047     9.4047     2.1232   127.3364   127.4729     0.0000    -999.25    72.5028     1.4988     1.5480  1355.7625     0.5280    -999.25    -999.25     0.0436     0.0436 18323.0938     2.3332     1.4950     1.4950     2.2352   141.4743     1.0000     1.0000     1.0000 -1275.6425    73.8419     0.0436     0.0000
  1355.8952  5404.5898 5417719.0000    -999.25     9.5070     9.5070     2.0861   130.0216   130.0216     0.0000    -999.25    72.5100     1.4539     1.5034  1355.8953     0.5278    -999.25    -999.25     0.0441     0.0441 17774.6699     2.3055     1.4468     1.4468     2.0932   141.5356     1.0000     1.0000     1.0000 -1275.7753    73.5110     0.0441     0.0000
  1355.9148  5393.0293 5393029.0000    -999.25     9.4980     9.4980     2.0695   130.4182   130.4553     0.0000    -999.25    72.4357     1.4445     1.4919  1355.9148     0.5278    -999.25    -999.25     0.0439     0.0439 17693.6660     2.3076     1.4371     1.4371     2.0658   141.5370     1.0000     1.0000     1.0000 -1275.7948    73.6453     0.0439     0.0000
  1356.0476  5305.0854 5312997.0000    -999.25     9.4368     9.4368     1.9572   133.3922   133.3939     0.0000    -999.25    71.9326     1.3809     1.4138  1356.0476     0.5274    -999.25    -999.25     0.0424     0.0424 17431.0938     2.3217     1.3712     1.3712     1.8802   141.5471     1.0000     1.0000     1.0000 -1275.9276    74.5550     0.0424     0.0000
  1356.0673  5301.1250 5301125.0000    -999.25     9.4297     9.4297     1.9301   133.8334   133.6788     0.0000    -999.25    71.9055     1.3752     1.4060  1356.0673     0.5276    -999.25    -999.25     0.0420     0.0420 17392.1426     2.3276     1.3660     1.3660     1.8662   141.5298     1.0000     1.0000     1.0000 -1275.9473    74.7731     0.0420     0.0000
  1356.2000  5322.0654 5321772.0000    -999.25     9.3821     9.3821     1.7475   135.5982   135.5982     0.0000    -999.25    71.7229     1.3363     1.3537  1356.2001     0.5285    -999.25    -999.25     0.0396     0.0396 17459.8809     2.3677     1.3311     1.3311     1.7718   141.4127     1.0000     1.0000     1.0000 -1276.0801    76.2420     0.0396     0.0000
  1356.2196  5324.8213 5324821.5000    -999.25     9.3688     9.3688     1.7342   135.8589   135.5492     0.0000    -999.25    71.8048     1.3382     1.3549  1356.2196     0.5289    -999.25    -999.25     0.0393     0.0393 17469.8867     2.3734     1.3340     1.3340     1.7797   141.3570     1.0000     1.0000     1.0000 -1276.0996    76.4349     0.0393     0.0000
  1356.3524  5438.3652 5436003.0000    -999.25     9.2781     9.2781     1.6437   135.2172   135.2168     0.0000    -999.25    72.3600     1.3511     1.3631  1356.3524     0.5317    -999.25    -999.25     0.0371     0.0371 17834.6543     2.4126     1.3540     1.3540     1.8333   140.9799     1.0000     1.0000     1.0000 -1276.2324    77.7420     0.0371     0.0000
  1356.3721  5452.4961 5452496.0000    -999.25     9.2552     9.2552     1.6455   135.1220   134.8065     0.0000    -999.25    72.4943     1.3593     1.3715  1356.3721     0.5321    -999.25    -999.25     0.0369     0.0369 17888.7656     2.4172     1.3630     1.3630     1.8583   140.9107     1.0000     1.0000     1.0000 -1276.2521    77.8435     0.0369     0.0000
  1356.5048  5650.6523 5647625.5000    -999.25     9.1015     9.1015     1.6572   132.0424   132.0425     0.0000    -999.25    73.3986     1.4147     1.4282  1356.5049     0.5348    -999.25    -999.25     0.0358     0.0358 18528.9551     2.4479     1.4237     1.4237     2.0269   140.4450     1.0000     1.0000     1.0000 -1276.3849    78.5270     0.0358     0.0000
  1356.5244  5676.4463 5676446.5000    -999.25     9.0881     9.0881     1.6813   131.5876   131.4594     0.0000    -999.25    73.4689     1.4268     1.4416  1356.5244     0.5356    -999.25    -999.25     0.0356     0.0356 18623.5117     2.4506     1.4363     1.4363     2.0640   140.3896     1.0000     1.0000     1.0000 -1276.4044    78.6271     0.0356     0.0000
  1356.6572  5901.8442 5895667.5000    -999.25     8.9973     8.9973     1.8447   127.5081   127.5085     0.0000    -999.25    73.9453     1.5089     1.5327  1356.6572     0.5413    -999.25    -999.25     0.0345     0.0345 19342.7422     2.4689     1.5215     1.5215     2.3150   140.0147     1.0000     1.0000     1.0000 -1276.5372    79.3050     0.0345     0.0000
  1356.6768  5928.0225 5928022.5000    -999.25     8.9989     8.9989     1.8790   126.9060   126.9904     0.0000    -999.25    73.8795     1.5224     1.5488  1356.6768     0.5424    -999.25    -999.25     0.0344     0.0344 19448.8926     2.4682     1.5351     1.5351     2.3577   139.9722     1.0000     1.0000     1.0000 -1276.5568    79.3326     0.0344     0.0000
  1356.8096  6079.8223 6078666.5000    -999.25     9.0093     9.0093     2.1115   123.4797   123.4800     0.0000    -999.25    73.4335     1.6135     1.6575  1356.8097     0.5499    -999.25    -999.25     0.0341     0.0341 19943.1309     2.4630     1.6271     1.6271     2.6475   139.6842     1.0000     1.0000     1.0000 -1276.6896    79.5200     0.0341     0.0000
  1356.8292  6100.8999 6100900.0000    -999.25     9.0174     9.0174     2.1468   122.9740   123.1941     0.0000    -999.25    73.3216     1.6231     1.6695  1356.8292     0.5506    -999.25    -999.25     0.0342     0.0342 20016.0762     2.4615     1.6361     1.6361     2.6773   139.6651     1.0000     1.0000     1.0000 -1276.7091    79.4970     0.0342     0.0000
  1356.9620  6160.3643 6164808.5000    -999.25     9.0721     9.0721     2.3858   121.2562   121.2564     0.0000    -999.25    72.5636     1.6880     1.7505  1356.9620     0.5552    -999.25    -999.25     0.0344     0.0344 20225.7480     2.4507     1.6970     1.6970     2.8798   139.5351     1.0000     1.0000     1.0000 -1276.8420    79.3410     0.0344     0.0000
  1356.9816  6174.2402 6174240.5000    -999.25     9.0775     9.0775     2.4012   121.0027   121.2322     0.0000    -999.25    72.4605     1.6870     1.7490  1356.9816     0.5557    -999.25    -999.25     0.0343     0.0343 20256.6934     2.4511     1.6945     1.6945     2.8714   139.5396     1.0000     1.0000     1.0000 -1276.8616    79.4411     0.0343     0.0000
