~Version ---------------------------------------------------
VERS. 2.0 : CWLS log ASCII Standard -VERSION 2.0
WRAP.  NO : 
~Well ------------------------------------------------------
STRT.m                                                   1300.0 : 
STOP.m                                                 1514.884 : 
STEP.m                                                   0.1524 : 
NULL.                                                   -999.25 : 
COMP.                                                           : COMPANY
WELL.                                                    Well-2 : WELL
FLD .                                                           : FIELD
LOC .                                                           : LOCATION
SRVC.                                                           : SERVICE COMPANY
DATE. 2021-01-20 14:33:59   : Log Export Date {yyyy-MM-dd HH:mm : ss}
PROV.                                                           : PROVINCE
UWI .                                                    Well-2 : UNIQUE WELL ID
API .                                                           : API NUMBER
~Curve Information -----------------------------------------
DEPTH             .m        : DEPTH
ACOUSTICIMPEDANCE1.kPa.s/m  : ACOUSTICIMPEDANCE1
AI                .kPa.s/m  : AI
AVG_PIGN          .m3/m3    : AVG_PIGN
CALI              .in       : CALI
CALI[DERIVED]1    .in       : CALI[DERIVED]1
DT                .us/ft    : DT
FACIES            ._        : FACIES
FLD1              ._        : FLD1
GR                .gAPI     : GR
LLD               .ohm.m    : LLD
LLS               .ohm.m    : LLS
LL3               .ohm.m    : LL3
DEPTH_1           .m        : DEPTH_1
NPHI              .m3/m3    : NPHI
PERF_INT          ._        : PERF_INT
PERMEABILITY      .mD       : PERMEABILITY
PIGN              .m3/m3    : PIGN
PIGN_MODELLING    .m3/m3    : PIGN_MODELLING
PIMP              .kPa.s/m  : PIMP
RHOB              .g/cm3    : RHOB
RT_MODELLING      .ohm.m    : RT_MODELLING
RT_POWER          .ohm.m    : RT_POWER
SP                .mV       : SP
SUWI              ._        : SUWI
SUWI_MODELLING    ._        : SUWI_MODELLING
TDVSS             .m        : TDVSS
VCL               .%        : VCL
WATER_VOL         ._        : WATER_VOL
ZLT               ._        : ZLT
~Params ----------------------------------------------------
~Other -----------------------------------------------------
~ASCII -----------------------------------------------------
# ...
  1484.8333  6106.0249 6106025.0000    -999.25     8.9389     8.9389   123.3840     0.0000    -999.25   110.2765     1.5543     1.5252     1.7351  1484.8334     0.5616    -999.25    -999.25     0.0211     0.0211 20032.8906     2.4717     1.5543     2.4160    44.0138     1.0000     1.0000 -1408.8334    83.3064     0.0211    16.0000
  1484.8612  6099.9331 6092545.5000    -999.25     8.9382     8.9382   123.8856     0.0000    -999.25   110.8690     1.5505     1.5166     1.7210  1484.8612     0.5594    -999.25    -999.25     0.0211     0.0211 19988.6660     2.4793     1.5505     2.4040    44.0704     1.0000     1.0000 -1408.8612    83.3630     0.0211    16.0000
  1484.9856  6032.4438 6032444.0000    -999.25     8.9333     8.9333   126.1220     0.0000    -999.25   111.4963     1.5459     1.5019     1.6834  1484.9856     0.5663    -999.25    -999.25     0.0208     0.0208 19791.4824     2.4961     1.5459     2.3899    44.3031     1.0000     1.0000 -1408.9856    83.5654     0.0208    16.0000
  1485.0136  6034.9487 6024145.0000    -999.25     8.9322     8.9322   126.2610     0.0000    -999.25   111.6375     1.5449     1.4986     1.6749  1485.0135     0.5679    -999.25    -999.25     0.0208     0.0208 19764.2539     2.4999     1.5449     2.3867    44.3555     1.0000     1.0000 -1409.0135    83.6110     0.0208    16.0000
  1485.1381  5987.2441 5987244.0000    -999.25     8.9294     8.9294   126.8790     0.0000    -999.25   110.4470     1.5478     1.5091     1.6693  1485.1381     0.5841    -999.25    -999.25     0.0208     0.0208 19643.1895     2.4923     1.5478     2.3957    44.5659     1.0000     1.0000 -1409.1381    83.6331     0.0208    16.0000
  1485.1660  5995.9971 5989778.5000    -999.25     8.9287     8.9287   126.6070     0.0000    -999.25   110.1802     1.5484     1.5115     1.6681  1485.1659     0.5877    -999.25    -999.25     0.0209     0.0209 19651.5039     2.4906     1.5484     2.3977    44.6131     1.0000     1.0000 -1409.1659    83.6380     0.0209    16.0000
  1485.2904  6001.0796 6001079.5000    -999.25     8.9261     8.9261   125.3940     0.0000    -999.25   108.2216     1.5556     1.5412     1.7293  1485.2904     0.5953    -999.25    -999.25     0.0215     0.0215 19688.5801     2.4688     1.5556     2.4199    44.7301     1.0000     1.0000 -1409.2904    83.4486     0.0215    16.0000
  1485.3184  6014.3555 6016746.0000    -999.25     8.9255     8.9255   124.8689     0.0000    -999.25   107.7808     1.5572     1.5478     1.7431  1485.3184     0.5970    -999.25    -999.25     0.0216     0.0216 19739.9805     2.4639     1.5572     2.4249    44.7564     1.0000     1.0000 -1409.3184    83.4060     0.0216    16.0000
  1485.4429  6086.4072 6086407.0000    -999.25     8.9227     8.9227   122.5340     0.0000    -999.25   105.8238     1.5683     1.5849     1.8222  1485.4429     0.5906    -999.25    -999.25     0.0218     0.0218 19968.5273     2.4468     1.5683     2.4597    44.7573     1.0000     1.0000 -1409.4429    83.2042     0.0218    16.0000
  1485.4708  6103.1216 6110478.0000    -999.25     8.9221     8.9221   122.0070     0.0000    -999.25   105.3852     1.5708     1.5932     1.8399  1485.4707     0.5891    -999.25    -999.25     0.0218     0.0218 20047.5000     2.4430     1.5708     2.4675    44.7575     1.0000     1.0000 -1409.4707    83.1590     0.0218    16.0000
  1485.5952  6217.8047 6217805.0000    -999.25     8.9196     8.9196   119.6570     0.0000    -999.25   104.0329     1.5874     1.6268     1.8957  1485.5952     0.5831    -999.25    -999.25     0.0215     0.0215 20399.6230     2.4410     1.5874     2.5198    44.6480     1.0000     1.0000 -1409.5952    83.1247     0.0215    16.0000
  1485.6232  6225.5200 6231425.0000    -999.25     8.9190     8.9190   119.4863     0.0000    -999.25   103.7285     1.5911     1.6344     1.9082  1485.6232     0.5817    -999.25    -999.25     0.0215     0.0215 20444.3086     2.4405     1.5911     2.5316    44.6234     1.0000     1.0000 -1409.6232    83.1170     0.0215    16.0000
  1485.7476  6291.9375 6291937.5000    -999.25     8.9167     8.9167   118.7280     0.0000    -999.25   103.8303     1.6151     1.6616     1.9508  1485.7476     0.5818    -999.25    -999.25     0.0213     0.0213 20642.8398     2.4509     1.6151     2.6086    44.4162     1.0000     1.0000 -1409.7476    83.2231     0.0213    16.0000
  1485.7756  6288.4585 6288081.0000    -999.25     8.9161     8.9161   118.9070     0.0000    -999.25   103.8533     1.6205     1.6677     1.9604  1485.7755     0.5818    -999.25    -999.25     0.0212     0.0212 20630.1875     2.4532     1.6205     2.6259    44.3695     1.0000     1.0000 -1409.7755    83.2470     0.0212    16.0000
  1485.9000  6270.9473 6270947.5000    -999.25     8.9133     8.9133   119.7020     0.0000    -999.25   105.3815     1.6516     1.6920     1.9851  1485.9000     0.5835    -999.25    -999.25     0.0211     0.0211 20573.9746     2.4627     1.6516     2.7279    44.0899     1.0000     1.0000 -1409.9000    83.3474     0.0211    16.0000
  1485.9280  6262.1050 6255416.0000    -999.25     8.9127     8.9127   119.9754     0.0000    -999.25   105.7255     1.6586     1.6975     1.9906  1485.9280     0.5839    -999.25    -999.25     0.0211     0.0211 20523.0176     2.4649     1.6586     2.7509    44.0270     1.0000     1.0000 -1409.9280    83.3700     0.0211    16.0000
  1486.0524  6186.4106 6186410.5000    -999.25     8.9102     8.9102   121.1900     0.0000    -999.25   108.0397     1.6916     1.7256     1.9750  1486.0524     0.5869    -999.25    -999.25     0.0212     0.0212 20296.6230     2.4597     1.6916     2.8617    43.6952     1.0000     1.0000 -1410.0524    83.3349     0.0212    16.0000
  1486.0804  6174.1016 6165314.5000    -999.25     8.9096     8.9096   121.3745     0.0000    -999.25   108.5606     1.6990     1.7319     1.9714  1486.0803     0.5876    -999.25    -999.25     0.0213     0.0213 20227.4102     2.4586     1.6990     2.8866    43.6205     1.0000     1.0000 -1410.0803    83.3270     0.0213    16.0000
  1486.2048  6071.5894 6071589.0000    -999.25     8.9073     8.9073   122.1940     0.0000    -999.25   110.7526     1.7258     1.7664     1.9893  1486.2048     0.5939    -999.25    -999.25     0.0219     0.0219 19919.9121     2.4341     1.7258     2.9785    43.3339     1.0000     1.0000 -1410.2048    83.1197     0.0219    16.0000
  1486.2328  6062.8130 6058801.5000    -999.25     8.9068     8.9068   122.0937     0.0000    -999.25   111.2460     1.7318     1.7742     1.9933  1486.2328     0.5954    -999.25    -999.25     0.0221     0.0221 19877.9590     2.4286     1.7318     2.9992    43.2694     1.0000     1.0000 -1410.2328    83.0730     0.0221    16.0000
  1486.3572  6001.9888 6001988.5000    -999.25     8.9046     8.9046   121.6480     0.0000    -999.25   112.3204     1.7450     1.8098     2.0511  1486.3572     0.6005    -999.25    -999.25     0.0223     0.0223 19691.5645     2.3954     1.7450     3.0451    42.9625     1.0000     1.0000 -1410.3572    82.8689     0.0223    16.0000
  1486.3852  6003.0996 6008944.0000    -999.25     8.9041     8.9041   121.2467     0.0000    -999.25   112.5622     1.7480     1.8178     2.0641  1486.3851     0.6017    -999.25    -999.25     0.0224     0.0224 19714.3848     2.3880     1.7480     3.0554    42.8934     1.0000     1.0000 -1410.3851    82.8230     0.0224    16.0000
  1486.5096  6039.8472 6039847.0000    -999.25     8.9027     8.9027   119.4640     0.0000    -999.25   112.4072     1.7451     1.8414     2.1453  1486.5096     0.6028    -999.25    -999.25     0.0224     0.0224 19815.7715     2.3673     1.7451     3.0452    42.6758     1.0000     1.0000 -1410.5096    82.8238     0.0224    16.0000
  1486.5376  6047.2432 6059767.5000    -999.25     8.9024     8.9024   119.0829     0.0000    -999.25   112.3723     1.7444     1.8467     2.1636  1486.5376     0.6031    -999.25    -999.25     0.0224     0.0224 19881.1289     2.3626     1.7444     3.0430    42.6268     1.0000     1.0000 -1410.5376    82.8240     0.0224    16.0000
  1486.6620  6148.2725 6148272.5000    -999.25     8.8985     8.8985   117.3900     0.0000    -999.25   112.1227     1.7315     1.8436     2.2117  1486.6620     0.6042    -999.25    -999.25     0.0224     0.0224 20171.4980     2.3679     1.7315     2.9981    42.5167     1.0000     1.0000 -1410.6620    82.8403     0.0224    16.0000
