~Version ---------------------------------------------------
VERS. 2.0 : CWLS log ASCII Standard -VERSION 2.0
WRAP.  NO : 
~Well ------------------------------------------------------
STRT.m                                                   1280.0 : 
STOP.m                                                 1564.988 : 
STEP.m                                                   0.1524 : 
NULL.                                                   -999.25 : 
COMP.                                                           : COMPANY
WELL.                                                   Well-11 : WELL
FLD .                                                           : FIELD
LOC .                                                           : LOCATION
SRVC.                                                           : SERVICE COMPANY
DATE. 2021-01-20 14:34:05   : Log Export Date {yyyy-MM-dd HH:mm : ss}
PROV.                                                           : PROVINCE
UWI .                                                   Well-11 : UNIQUE WELL ID
API .                                                           : API NUMBER
~Curve Information -----------------------------------------
DEPTH             .m        : DEPTH
ACOUSTICIMPEDANCE1.kPa.s/m  : ACOUSTICIMPEDANCE1
AI                .kPa.s/m  : AI
AVG_PIGN          .m3/m3    : AVG_PIGN
CALI              .in       : CALI
CALI[DERIVED]1    .in       : CALI[DERIVED]1
DFL               .ohm.m    : DFL
DT                .us/ft    : DT
DT1               .us/ft    : DT1
FACIES            ._        : FACIES
FLD1              ._        : FLD1
GR                .gAPI     : GR
HDRS              .ohm.m    : HDRS
HMRS              .ohm.m    : HMRS
DEPTH_1           .m        : DEPTH_1
NPHI              .m3/m3    : NPHI
PERF_INT          ._        : PERF_INT
PERMEABILITY      .mD       : PERMEABILITY
PIGN              .m3/m3    : PIGN
PIGN_MODELLING    .m3/m3    : PIGN_MODELLING
PIMP              .kPa.s/m  : PIMP
RHOB              .g/cm3    : RHOB
LLD               .ohm.m    : LLD
RT_MODELLING      .ohm.m    : RT_MODELLING
RT_POWER          .ohm.m    : RT_POWER
SP                .mV       : SP
SUWI              ._        : SUWI
SUWI_MODELLING    ._        : SUWI_MODELLING
SXWI              ._        : SXWI
TDVSS             .m        : TDVSS
VCL               .%        : VCL
WATER_VOL         ._        : WATER_VOL
ZLT               ._        : ZLT
~Params ----------------------------------------------------
~Other -----------------------------------------------------
~ASCII -----------------------------------------------------
# ...
  1318.5572  5148.1729 5148767.5000    -999.25    10.0500    10.0500     1.2189   137.3123   137.3125     0.0000    -999.25    41.4368     0.9529     0.9811  1318.5573     0.5539    -999.25    -999.25     0.0419     0.0419 16892.2812     2.3193     0.9548     0.9548     0.9116   146.9301     1.0000     1.0000     1.0000 -1238.4373    74.2080     0.0419    -999.25
  1318.5768  5159.7710 5159771.0000    -999.25    10.0440    10.0440     1.2208   137.0866   137.0215     0.0000    -999.25    41.4151     0.9549     0.9832  1318.5768     0.5552    -999.25    -999.25     0.0414     0.0414 16928.3828     2.3207     0.9568     0.9568     0.9154   146.9223     1.0000     1.0000     1.0000 -1238.4568    74.5314     0.0414    -999.25
  1318.7096  5259.0620 5255927.5000    -999.25    10.0033    10.0033     1.2335   135.0499   135.0501     0.0000    -999.25    41.2685     0.9681     0.9971  1318.7096     0.5642    -999.25    -999.25     0.0381     0.0381 17243.8574     2.3302     0.9701     0.9701     0.9411   146.8692     1.0000     1.0000     1.0000 -1238.5896    76.7230     0.0381    -999.25
  1318.7292  5270.1191 5270119.5000    -999.25    10.0016    10.0016     1.2372   134.7493   134.7289     0.0000    -999.25    41.5130     0.9730     1.0014  1318.7291     0.5664    -999.25    -999.25     0.0376     0.0376 17290.4180     2.3299     0.9754     0.9754     0.9515   146.8503     1.0000     1.0000     1.0000 -1238.6091    77.0543     0.0376    -999.25
  1318.8620  5352.8296 5350337.5000    -999.25     9.9904     9.9904     1.2622   132.5521   132.5523     0.0000    -999.25    43.1694     1.0057     1.0307  1318.8621     0.5813    -999.25    -999.25     0.0345     0.0345 17553.6016     2.3279     1.0110     1.0110     1.0221   146.7218     1.0000     1.0000     1.0000 -1238.7421    79.2990     0.0345    -999.25
  1318.8816  5362.1772 5362177.0000    -999.25     9.9994     9.9994     1.2746   132.2278   132.2981     0.0000    -999.25    43.3848     1.0145     1.0375  1318.8816     0.5836    -999.25    -999.25     0.0339     0.0339 17592.4453     2.3262     1.0202     1.0202     1.0415   146.6942     1.0000     1.0000     1.0000 -1238.7616    79.5930     0.0339    -999.25
  1319.0144  5404.0493 5402858.5000    -999.25    10.0606    10.0606     1.3586   130.5766   130.5757     0.0000    -999.25    44.8443     1.0737     1.0835  1319.0144     0.5992    -999.25    -999.25     0.0300     0.0300 17725.9160     2.3151     1.0829     1.0829     1.1727   146.5065     1.0000     1.0000     1.0000 -1238.8944    81.5850     0.0300    -999.25
  1319.0341  5408.8936 5408893.5000    -999.25    10.0710    10.0710     1.3850   130.3317   130.5157     0.0000    -999.25    44.9333     1.0795     1.0874  1319.0341     0.6010    -999.25    -999.25     0.0298     0.0298 17745.7148     2.3128     1.0882     1.0882     1.1844   146.4973     1.0000     1.0000     1.0000 -1238.9141    81.7645     0.0298    -999.25
  1319.1668  5382.2065 5384235.0000    -999.25    10.1411    10.1411     1.5628   130.1115   130.1115     0.0000    -999.25    45.5329     1.1186     1.1137  1319.1669     0.6133    -999.25    -999.25     0.0284     0.0284 17664.8125     2.2975     1.1239     1.1239     1.2632   146.4352     1.0000     1.0000     1.0000 -1239.0469    82.9740     0.0284    -999.25
  1319.1864  5380.5928 5380593.0000    -999.25    10.1391    10.1391     1.5686   130.0790   130.3156     0.0000    -999.25    45.6599     1.1139     1.1092  1319.1864     0.6145    -999.25    -999.25     0.0281     0.0281 17652.8633     2.2963     1.1177     1.1177     1.2495   146.4371     1.0000     1.0000     1.0000 -1239.0664    83.1378     0.0281    -999.25
  1319.3192  5294.6670 5299491.5000    -999.25    10.1257    10.1257     1.6080   131.6974   131.6983     0.0000    -999.25    46.5207     1.0819     1.0784  1319.3192     0.6222    -999.25    -999.25     0.0262     0.0262 17386.7812     2.2877     1.0757     1.0757     1.1571   146.4502     1.0000     1.0000     1.0000 -1239.1992    84.2480     0.0262    -999.25
  1319.3389  5287.4604 5287460.5000    -999.25    10.1155    10.1155     1.5848   131.9375   132.0737     0.0000    -999.25    46.6856     1.0719     1.0703  1319.3389     0.6222    -999.25    -999.25     0.0262     0.0262 17347.3105     2.2888     1.0651     1.0651     1.1352   146.4539     1.0000     1.0000     1.0000 -1239.2189    84.3038     0.0262    -999.25
  1319.4716  5198.8052 5198763.0000    -999.25    10.0464    10.0464     1.4284   134.6025   134.6025     0.0000    -999.25    47.7966     1.0043     1.0155  1319.4717     0.6222    -999.25    -999.25     0.0255     0.0255 17056.3086     2.2958     0.9938     0.9938     0.9876   146.4784     1.0000     1.0000     1.0000 -1239.3517    84.6800     0.0255    -999.25
  1319.4912  5185.6621 5185662.0000    -999.25    10.0357    10.0357     1.4091   134.9961   134.9594     0.0000    -999.25    47.8567     0.9979     1.0105  1319.4912     0.6209    -999.25    -999.25     0.0258     0.0258 17013.3262     2.2967     0.9880     0.9880     0.9763   146.4902     1.0000     1.0000     1.0000 -1239.3712    84.5012     0.0258    -999.25
  1319.6240  5109.1826 5107838.0000    -999.25     9.9628     9.9628     1.2786   137.3776   137.3774     0.0000    -999.25    48.2640     0.9544     0.9772  1319.6240     0.6122    -999.25    -999.25     0.0279     0.0279 16757.9980     2.3028     0.9486     0.9486     0.8998   146.5701     1.0000     1.0000     1.0000 -1239.5040    83.2900     0.0279    -999.25
  1319.6436  5096.3521 5096352.0000    -999.25     9.9575     9.9575     1.2735   137.7291   137.5898     0.0000    -999.25    48.1739     0.9530     0.9762  1319.6436     0.6099    -999.25    -999.25     0.0285     0.0285 16720.3145     2.3029     0.9478     0.9478     0.8984   146.5742     1.0000     1.0000     1.0000 -1239.5236    82.8850     0.0285    -999.25
  1319.7764  5050.0820 5050222.0000    -999.25     9.9219     9.9219     1.2396   139.0294   139.0293     0.0000    -999.25    47.5637     0.9434     0.9691  1319.7765     0.5944    -999.25    -999.25     0.0331     0.0331 16568.9707     2.3035     0.9426     0.9426     0.8885   146.6021     1.0000     1.0000     1.0000 -1239.6564    80.1410     0.0331    -999.25
  1319.7960  5043.4136 5043413.5000    -999.25     9.9216     9.9216     1.2398   139.2213   139.0413     0.0000    -999.25    47.4509     0.9447     0.9705  1319.7960     0.5921    -999.25    -999.25     0.0337     0.0337 16546.6328     2.3036     0.9443     0.9443     0.8917   146.5983     1.0000     1.0000     1.0000 -1239.6759    79.7536     0.0337    -999.25
  1319.9288  5048.9751 5049933.5000    -999.25     9.9200     9.9200     1.2410   139.1227   139.1227     0.0000    -999.25    46.6870     0.9541     0.9796  1319.9288     0.5762    -999.25    -999.25     0.0381     0.0381 16568.0234     2.3045     0.9558     0.9558     0.9136   146.5728     1.0000     1.0000     1.0000 -1239.8088    77.1290     0.0381    -999.25
  1319.9484  5050.8960 5050896.0000    -999.25     9.9234     9.9234     1.2440   139.1081   139.0486     0.0000    -999.25    46.7558     0.9562     0.9816  1319.9484     0.5741    -999.25    -999.25     0.0386     0.0386 16571.1797     2.3052     0.9579     0.9579     0.9177   146.5664     1.0000     1.0000     1.0000 -1239.8284    76.8313     0.0386    -999.25
  1320.0812  5080.8242 5083516.0000    -999.25     9.9467     9.9467     1.2641   138.5469   138.5470     0.0000    -999.25    47.2214     0.9704     0.9951  1320.0812     0.5598    -999.25    -999.25     0.0420     0.0420 16678.2031     2.3095     0.9725     0.9725     0.9458   146.5227     1.0000     1.0000     1.0000 -1239.9612    74.8140     0.0420    -999.25
  1320.1008  5088.3306 5088330.5000    -999.25     9.9549     9.9549     1.2682   138.4641   138.4779     0.0000    -999.25    47.4811     0.9724     0.9971  1320.1007     0.5581    -999.25    -999.25     0.0422     0.0422 16693.9980     2.3115     0.9745     0.9745     0.9497   146.5079     1.0000     1.0000     1.0000 -1239.9807    74.6859     0.0422    -999.25
